{"geocoded_waypoints": [{"geocoder_status": "OK", "place_id": "ChIJvxtlsgm8QIYRHxHhChZnrEw", "types": ["establishment", "point_of_interest", "primary_school", "school"]}, {"geocoder_status": "OK", "place_id": "ChIJ9_tphxzHQIYRIMyPy_d3VZU", "types": ["establishment", "point_of_interest"]}], "routes": [{"bounds": {"northeast": {"lat": 29.80194599999999, "lng": -95.296866}, "southwest": {"lat": 29.7727184, "lng": -95.45679299999999}}, "copyrights": "Map data \u00a92022", "legs": [{"arrival_time": {"text": "4:57pm", "time_zone": "America/Chicago", "value": 1642028238}, "departure_time": {"text": "3:40pm", "time_zone": "America/Chicago", "value": 1642023640}, "distance": {"text": "13.5 mi", "value": 21764}, "duration": {"text": "1 hour 17 mins", "value": 4598}, "end_address": "4400 W 18th St, Houston, TX 77092, USA", "end_location": {"lat": 29.8019199, "lng": -95.45428179999999}, "start_address": "7211 Market St, Houston, TX 77020, USA", "start_location": {"lat": 29.7728703, "lng": -95.296866}, "steps": [{"distance": {"text": "0.3 mi", "value": 439}, "duration": {"text": "5 mins", "value": 321}, "end_location": {"lat": 29.7727217, "lng": -95.3010328}, "html_instructions": "Walk to Lathrop St @ Market St", "polyline": {"points": "m_vtDltsdQAHGdAf@FSjAEt@?~C@bMV@"}, "start_location": {"lat": 29.7728703, "lng": -95.296866}, "steps": [{"distance": {"text": "128 ft", "value": 39}, "duration": {"text": "1 min", "value": 28}, "end_location": {"lat": 29.7729197, "lng": -95.2972669}, "html_instructions": "Head <b>west</b> toward <b>Market St</b>", "polyline": {"points": "m_vtDltsdQAHGdA"}, "start_location": {"lat": 29.7728703, "lng": -95.296866}, "travel_mode": "WALKING"}, {"distance": {"text": "75 ft", "value": 23}, "duration": {"text": "1 min", "value": 17}, "end_location": {"lat": 29.7727184, "lng": -95.2973123}, "html_instructions": "Turn <b>left</b> toward <b>Market St</b>", "maneuver": "turn-left", "polyline": {"points": "w_vtD|vsdQf@F"}, "start_location": {"lat": 29.7729197, "lng": -95.2972669}, "travel_mode": "WALKING"}, {"distance": {"text": "0.2 mi", "value": 364}, "duration": {"text": "4 mins", "value": 266}, "end_location": {"lat": 29.772843, "lng": -95.30102049999999}, "html_instructions": "Turn <b>right</b> onto <b>Market St</b>", "maneuver": "turn-right", "polyline": {"points": "o~utDdwsdQSjAEt@?~C@bM"}, "start_location": {"lat": 29.7727184, "lng": -95.2973123}, "travel_mode": "WALKING"}, {"distance": {"text": "43 ft", "value": 13}, "duration": {"text": "1 min", "value": 10}, "end_location": {"lat": 29.7727217, "lng": -95.3010328}, "html_instructions": "Turn <b>left</b> onto <b>Lathrop St</b>", "maneuver": "turn-left", "polyline": {"points": "g_vtDjntdQV@"}, "start_location": {"lat": 29.772843, "lng": -95.30102049999999}, "travel_mode": "WALKING"}], "travel_mode": "WALKING"}, {"distance": {"text": "1.1 mi", "value": 1699}, "duration": {"text": "4 mins", "value": 252}, "end_location": {"lat": 29.77535, "lng": -95.31537499999999}, "html_instructions": "Bus towards Denver Harbor TC", "polyline": {"points": "o~utDfntdQ?LWAqC?W?a@?gAAQAQ?M?E?Q?e@AB`@JvADpB?dBAhB?`B?fB?fB?dB?bB?jA?\\AvB?pA?b@?f@An@JfB@JBLD`@@XBT@X@T@B@X?L@N@d@@F@fA?B?P@`B?FBJLj@?lEC~BQb@ATAXGrAE^Ep@CTAVANAZAN?@?f@?h@?p@u@@W@E?m@@G`@?A"}, "start_location": {"lat": 29.772719, "lng": -95.300997}, "transit_details": {"arrival_stop": {"location": {"lat": 29.77535, "lng": -95.31537499999999}, "name": "Fifth Ward/Denver Harbor Transit Center"}, "arrival_time": {"text": "3:51pm", "time_zone": "America/Chicago", "value": 1642024260}, "departure_stop": {"location": {"lat": 29.772719, "lng": -95.300997}, "name": "Lathrop St @ Market St"}, "departure_time": {"text": "3:46pm", "time_zone": "America/Chicago", "value": 1642024008}, "headsign": "Denver Harbor TC", "line": {"agencies": [{"name": "Metropolitan Transit Authority of Harris County", "phone": "1 (713) 635-4000", "url": "http://www.ridemetro.org/"}], "color": "#004080", "name": "Ost - Wayside", "short_name": "28", "text_color": "#ffffff", "url": "https://www.ridemetro.org/MetroPDFs/Schedules/BusSchedules/n028-OST-Wayside.pdf", "vehicle": {"icon": "//maps.gstatic.com/mapfiles/transit/iw2/6/bus2.png", "name": "Bus", "type": "BUS"}}, "num_stops": 2, "trip_short_name": "OSTWAYSIDE"}, "travel_mode": "TRANSIT"}, {"distance": {"text": "256 ft", "value": 78}, "duration": {"text": "1 min", "value": 59}, "end_location": {"lat": 29.7757108, "lng": -95.31535180000002}, "html_instructions": "Walk to Farmer St EB @ Fifth Ward/Denver Harbor Transit Center", "polyline": {"points": "}nvtDbhwdQDY[@s@B@L"}, "start_location": {"lat": 29.7753454, "lng": -95.31537639999999}, "steps": [{"distance": {"text": "56 ft", "value": 17}, "duration": {"text": "1 min", "value": 12}, "end_location": {"lat": 29.7753155, "lng": -95.3152506}, "html_instructions": "Head <b>east</b> toward <b>Lockwood Dr</b>", "polyline": {"points": "}nvtDbhwdQDY"}, "start_location": {"lat": 29.7753454, "lng": -95.31537639999999}, "travel_mode": "WALKING"}, {"distance": {"text": "164 ft", "value": 50}, "duration": {"text": "1 min", "value": 39}, "end_location": {"lat": 29.7757157, "lng": -95.31527849999999}, "html_instructions": "Turn <b>left</b> onto <b>Lockwood Dr</b>", "maneuver": "turn-left", "polyline": {"points": "wnvtDhgwdQ[@s@B"}, "start_location": {"lat": 29.7753155, "lng": -95.3152506}, "travel_mode": "WALKING"}, {"distance": {"text": "36 ft", "value": 11}, "duration": {"text": "1 min", "value": 8}, "end_location": {"lat": 29.7757108, "lng": -95.31535180000002}, "html_instructions": "Turn <b>left</b> onto <b>Farmer St</b>", "maneuver": "turn-left", "polyline": {"points": "gqvtDngwdQ@L"}, "start_location": {"lat": 29.7757157, "lng": -95.31527849999999}, "travel_mode": "WALKING"}], "travel_mode": "WALKING"}, {"distance": {"text": "11.5 mi", "value": 18518}, "duration": {"text": "44 mins", "value": 2640}, "end_location": {"lat": 29.797383, "lng": -95.45679299999999}, "html_instructions": "Bus towards Northwest TC", "polyline": {"points": "_qvtD|gwdQM@?Wc@D[DkALkCf@yA\\w@Jo@B_@@O@_E@oD?O?iDDW?}D@eD@[?{@?i@Ac@?WAE?YCwBCCBA?A?A@A?C?W?iABuA?sD@S@E?M?I?A?O?M?cC?G?E?U?[?C?I@m@?wE@gA@?k@AY?O@iAx@A`FEL\\HZJ^H\\Ph@DN@BDNZfA?NDXFzAFR@d@?VBvABzAFtDBxABbCD`C?P?FAHOz@CNAJ?H?J?h@?bE?tB?fABf@@NDRBL@HDL\\fAJXh@`BL`@z@hCFRFNX|@b@rAHVlDhK@FfAbDTr@BD@H@D@F?H@x@?L@`D@nC?V?\\@`C@fC?RB|C?~A?PBHBFLZDRBT?V?R?X@z@?b@?tA@h@?~C?D@h@?RVZh@x@Zd@Rf@H`@?@Lb@?@BHH`@DTBXDTBNLdAZhBHT@X?F?V?R@pA?hA?D@j@?lB?nA?T?h@?tB?Z?P?X?R?T?P?h@?R@N?L?D?L?B@xC?J@t@@Z@dA@jA@|@?\\@Z?V?J@r@?^@d@@p@@\\@Z?~@@dA?f@?p@@hA?r@?vA?V@bD?bD@pB?r@?dD@lA?N@T?nA?L?R?^@B?B@B?B@@t@tCBHn@~B`@xABNXbAHZRz@FVLd@J^Nj@XjAv@xCb@~ALb@DRPn@d@jBZhABJBJPl@BJ@FBHt@rCd@~Ar@pCn@dCd@fB?@Np@Pv@BLDXFx@BZ@d@@b@AV?D?F?@?N?@AN?H?D?@CVATEZId@G^GZGVSp@MT[bAQh@OXo@hB[x@KNKZIR?BK`@Q\\e@j@KLGFKJw@z@e@f@ORCDABEHAHCLCHAHAVANAH?P?RBn@?H@TAP?J?HALCRERCLCTCXAV?p@BTBVBTFV\\jARl@Nd@JZFRLb@J^h@bB`@nAFRRp@@BHXBDFPDNRf@PVJJJHb@ZHFJFRPHHFJ@?HLDJBHBFBJDRBN@L@L@F?B@N?@?@?D@\\?H?V?PAF?VAHCN?DABADADA?GPCDA@ABEFQPEDIHWRMHEBCBGDQLGFEBKLA@IJINGNINCFCFELELk@BM?K?M@M?O@IBKDGDIDIHILELGLCNEX?Z@`@AX?@?P@|H?VBhF@R?Z?V?\\@V?T?J@Z?Z@rA?`@?L?z@?N?@?F?R?N@vA?~B?^@Z?bA@\\?fA?D@R@hB?L?dB@lB@z@?P?^@jB@nB@lB?pA@X@nB@vB@d@?LlIA\\?rJG|@Ah@?d@AZA@\\@bD@b@?\\?j@?zA?vD?JAJ?p@A^CdAAp@Cv@?DKbCGjA@j@Gr@?FIp@Gn@GVEb@G^Kh@EXEZId@Kt@?@EXE^CVEb@KbAG~@M~AEz@Ep@Eb@?@Ej@CZAP?LC^Cn@AVAJ?d@AH?V?H?J?l@BhE@N?`C?~@?tAAX?BAhABvC@f@?x@@rA?t@BbG@~A?t@@zB?jB@d@wA@oB?c@@}ADs@@oB@a@@_@?UB_@?[?[?a@?E?]AC?]CIAw@KaBWSCk@G[G[Ei@IgBYEAcBWe@IeAOw@OMCMCwA[y@M}@OQCQC_BWu@Ka@GaDg@{Ce@WA[A[?]@c@BK@[BM@@b@AV@n@?b@?d@@d@?^?J?XAJAf@Az@@`B@rA?~@@V@XBb@BZD`@DTHd@lAfFFXHd@H`@Fh@Fp@@VBb@?l@?zD@V?hE?X@nE?bF@f@?|C?hD?tA@T?nA?zA?|EBvG?nF?\\@`D?bB?nA?t@@lF?X?l@@lA?bB?dA?J@~E?R?xA?N?j@?n@BLAN@R?z@AhB?X?V?L?B@B?HBVINSXKP]d@_DxEMRe@r@oAnBQV[f@CDKN]`@ORE@C?C@C@q@bAKNQTs@bAEHEJCB?@AB?@?@CPGHS\\[d@iAbBq@`A_@n@e@r@G@C@C@Yb@q@`A]f@QV_@j@A@?@A@W\\KNABGHOVCBILc@l@W\\GLGHU\\?BABAJOX]d@OVo@dAiAhBa@n@Y`@QXY`@AD{A|B_B~BwAxBMRh@`@\\Zx@x@PNZZTPCF"}, "start_location": {"lat": 29.775678, "lng": -95.315349}, "transit_details": {"arrival_stop": {"location": {"lat": 29.797383, "lng": -95.45679299999999}, "name": "N Post Oak Rd @ Hempstead Hwy"}, "arrival_time": {"text": "4:44pm", "time_zone": "America/Chicago", "value": 1642027440}, "departure_stop": {"location": {"lat": 29.775678, "lng": -95.315349}, "name": "Farmer St EB @ Fifth Ward/Denver Harbor Transit Center"}, "departure_time": {"text": "4:00pm", "time_zone": "America/Chicago", "value": 1642024800}, "headsign": "Northwest TC", "line": {"agencies": [{"name": "Metropolitan Transit Authority of Harris County", "phone": "1 (713) 635-4000", "url": "http://www.ridemetro.org/"}], "color": "#004080", "name": "Quitman", "short_name": "66", "text_color": "#ffffff", "url": "https://www.ridemetro.org/MetroPDFs/Schedules/BusSchedules/n066-Quitman.pdf", "vehicle": {"icon": "//maps.gstatic.com/mapfiles/transit/iw2/6/bus2.png", "name": "Bus", "type": "BUS"}}, "num_stops": 56, "trip_short_name": "QUITMAN"}, "travel_mode": "TRANSIT"}, {"distance": {"text": "0.6 mi", "value": 1030}, "duration": {"text": "13 mins", "value": 796}, "end_location": {"lat": 29.8019199, "lng": -95.45428179999999}, "html_instructions": "Walk to 4400 W 18th St, Houston, TX 77092, USA", "polyline": {"points": "sxztD|{reQUS[YKMKIo@m@KIWWa@]KI]c@OUEKMYm@{@EO]Y{@aAGMf@mAAWgAiASSBELUqBoBNSyAsAEEIIS_@ISMa@k@L_@P[JMDSFMD?j@?h@BnAAV@|@@hBYDe@F@D@R@f@?D"}, "start_location": {"lat": 29.7973772, "lng": -95.45678590000001}, "steps": [{"distance": {"text": "0.2 mi", "value": 272}, "duration": {"text": "4 mins", "value": 211}, "end_location": {"lat": 29.7991375, "lng": -95.4548499}, "html_instructions": "Head <b>northeast</b> on <b>N Post Oak Rd</b> toward <b>Hempstead Rd</b>", "polyline": {"points": "sxztD|{reQUS[YKMKIo@m@KIWWa@]KI]c@OUEKMYm@{@EO]Y"}, "start_location": {"lat": 29.7973772, "lng": -95.45678590000001}, "travel_mode": "WALKING"}, {"building_level": {"number": 0}, "distance": {"text": "0.1 mi", "value": 163}, "duration": {"text": "2 mins", "value": 129}, "end_location": {"lat": 29.7996479, "lng": -95.45357349999999}, "html_instructions": "Walk for 0.1&nbsp;mi", "polyline": {"points": "sc{tDxoreQ{@aAGMf@mAAWgAiA"}, "start_location": {"lat": 29.7991375, "lng": -95.4548499}, "travel_mode": "WALKING"}, {"distance": {"text": "49 ft", "value": 15}, "duration": {"text": "1 min", "value": 11}, "end_location": {"lat": 29.7997517, "lng": -95.45346980000001}, "html_instructions": "Head <b>northeast</b>", "polyline": {"points": "yf{tDxgreQSS"}, "start_location": {"lat": 29.7996479, "lng": -95.45357349999999}, "travel_mode": "WALKING"}, {"distance": {"text": "56 ft", "value": 17}, "duration": {"text": "1 min", "value": 13}, "end_location": {"lat": 29.7996572, "lng": -95.4533311}, "html_instructions": "Turn <b>right</b>", "maneuver": "turn-right", "polyline": {"points": "mg{tDdgreQBELU"}, "start_location": {"lat": 29.7997517, "lng": -95.45346980000001}, "travel_mode": "WALKING"}, {"distance": {"text": "276 ft", "value": 84}, "duration": {"text": "1 min", "value": 60}, "end_location": {"lat": 29.8002303, "lng": -95.452771}, "html_instructions": "Turn <b>left</b>", "maneuver": "turn-left", "polyline": {"points": "{f{tDhfreQqBoB"}, "start_location": {"lat": 29.7996572, "lng": -95.4533311}, "travel_mode": "WALKING"}, {"distance": {"text": "43 ft", "value": 13}, "duration": {"text": "1 min", "value": 10}, "end_location": {"lat": 29.8001537, "lng": -95.4526671}, "html_instructions": "Turn <b>right</b> toward <b>W Loop S Fwy</b>", "maneuver": "turn-right", "polyline": {"points": "mj{tDxbreQNS"}, "start_location": {"lat": 29.8002303, "lng": -95.452771}, "travel_mode": "WALKING"}, {"distance": {"text": "420 ft", "value": 128}, "duration": {"text": "1 min", "value": 86}, "end_location": {"lat": 29.8008984, "lng": -95.45173779999999}, "html_instructions": "Turn <b>left</b> toward <b>W Loop S Fwy</b>", "maneuver": "turn-left", "polyline": {"points": "}i{tDdbreQyAsAEEIIS_@ISMa@"}, "start_location": {"lat": 29.8001537, "lng": -95.4526671}, "travel_mode": "WALKING"}, {"distance": {"text": "279 ft", "value": 85}, "duration": {"text": "1 min", "value": 75}, "end_location": {"lat": 29.8016641, "lng": -95.4520582}, "html_instructions": "Turn <b>left</b> onto <b>W Loop S Fwy</b>", "maneuver": "turn-left", "polyline": {"points": "sn{tDj|qeQk@L_@P[JMDSFMD"}, "start_location": {"lat": 29.8008984, "lng": -95.45173779999999}, "travel_mode": "WALKING"}, {"distance": {"text": "0.1 mi", "value": 177}, "duration": {"text": "2 mins", "value": 140}, "end_location": {"lat": 29.8016283, "lng": -95.4538499}, "html_instructions": "Turn <b>left</b> onto <b>W 18th St</b>/<wbr/><b>NW Mall</b>", "maneuver": "turn-left", "polyline": {"points": "ks{tDj~qeQ?j@?h@BnAAV@|@@hB"}, "start_location": {"lat": 29.8016641, "lng": -95.4520582}, "travel_mode": "WALKING"}, {"distance": {"text": "131 ft", "value": 40}, "duration": {"text": "1 min", "value": 34}, "end_location": {"lat": 29.80194599999999, "lng": -95.4539156}, "html_instructions": "Turn <b>right</b><div style=\"font-size:0.9em\">Restricted usage road</div>", "maneuver": "turn-right", "polyline": {"points": "es{tDpireQYDe@F"}, "start_location": {"lat": 29.8016283, "lng": -95.4538499}, "travel_mode": "WALKING"}, {"distance": {"text": "118 ft", "value": 36}, "duration": {"text": "1 min", "value": 27}, "end_location": {"lat": 29.8019199, "lng": -95.45428179999999}, "html_instructions": "Turn <b>left</b><div style=\"font-size:0.9em\">Restricted usage road</div><div style=\"font-size:0.9em\">Destination will be on the right</div>", "maneuver": "turn-left", "polyline": {"points": "eu{tD~ireQ@D@R@f@?D"}, "start_location": {"lat": 29.80194599999999, "lng": -95.4539156}, "travel_mode": "WALKING"}], "travel_mode": "WALKING"}], "traffic_speed_entry": [], "via_waypoint": []}], "overview_polyline": {"points": "m_vtDltsdQInAf@FSjAEt@?~C@bMV@?E?LiDAsCCe@?w@ANxBDvEAjE?xKArH?jAAn@JfBDXFz@HhAHbE@hBPv@ClIQb@ATIlBKpAIxAAbB?p@u@@]@m@@G`@DY[@s@B@LD?M@?Wc@DgBReFdAgBNo@BiPFwKBaDC_@CwBCCBC?C@{DBmEBcE?sKD?_DzGGVx@f@fBh@jBDh@FzAFR@|@FrDTtOAb@SjAAT?nJBnBFb@h@lBlE|M`GlQ\\hAF`MFzL?pBFPRn@Bl@@lC@dH@|@`AtAZd@Rf@Hb@ZpAHn@Hd@h@nDHT@X?^@dB@hF?`J@vCJjMDvEDjDBhFBvXDhGnCfKlBtH|EbR~BvIhC`K`@hBHf@JtABhAAf@EjAQvAOz@[hAi@xAa@bAkAbDWj@IVK`@Q\\q@x@SRqB|BMd@Iz@AZBbA?|@K~@Gb@Ep@BfAFl@d@bBb@rAl@rB~BnHXv@\\b@dAt@f@f@Vj@N|@Dh@@zAGx@ETOX_@b@{AjA]^_@v@ITELk@BY?[@YDSJSNOZGLIh@?xADpQ@dBDtF@pINt[DhIB|C?LlIApKGfBA`ACB`E@hEA`GKnEKhCGjA@j@Gz@Q`Ba@dCq@dFg@fGQrCKfBKrBApADrGApHAlAD~DDfMB|J@d@wA@sC@qCFqCBu@B{@?aBAcBQ}Dk@{LmB[GqCi@aEo@uKaBs@Cy@@yAJ@nC@vBEhCDlGD|@H|@Nz@tA`GRfANzADz@?hFBjMBjZDnc@DxW?hDB`B?vFBVIN_@j@qFfIaCtDi@p@UTG@u@dAwArBKT?BCPGHo@bA{BdDeAbBKBmBnCs@fAmAfB{@jAOVU`@CNmB|CwCtEwEdHeBlCfA|@fBdBTPCFUScB_BqAiAm@y@Se@m@{@EO]YcAoAf@mAAW{A}AP[qBoBNS_ByA]i@Wu@k@L_@Pi@Pa@L?tADnG_ALBX@l@"}, "summary": "", "warnings": ["Walking directions are in beta. Use caution \u2013 This route may be missing sidewalks or pedestrian paths."], "waypoint_order": []}, {"bounds": {"northeast": {"lat": 29.8144249, "lng": -95.2960579}, "southwest": {"lat": 29.7725356, "lng": -95.45463819999999}}, "copyrights": "Map data \u00a92022", "legs": [{"arrival_time": {"text": "4:34pm", "time_zone": "America/Chicago", "value": 1642026897}, "departure_time": {"text": "3:17pm", "time_zone": "America/Chicago", "value": 1642022247}, "distance": {"text": "13.6 mi", "value": 21943}, "duration": {"text": "1 hour 18 mins", "value": 4650}, "end_address": "4400 W 18th St, Houston, TX 77092, USA", "end_location": {"lat": 29.8019199, "lng": -95.45428179999999}, "start_address": "7211 Market St, Houston, TX 77020, USA", "start_location": {"lat": 29.7728703, "lng": -95.296866}, "steps": [{"distance": {"text": "331 ft", "value": 101}, "duration": {"text": "1 min", "value": 75}, "end_location": {"lat": 29.7725381, "lng": -95.2960579}, "html_instructions": "Walk to Market St @ Port St", "polyline": {"points": "m_vtDltsdQ@Y\\c@`@E?{@?a@"}, "start_location": {"lat": 29.7728703, "lng": -95.296866}, "steps": [{"distance": {"text": "184 ft", "value": 56}, "duration": {"text": "1 min", "value": 40}, "end_location": {"lat": 29.7725356, "lng": -95.2965251}, "html_instructions": "Head <b>east</b> toward <b>Market St</b>", "polyline": {"points": "m_vtDltsdQ@Y\\c@`@E"}, "start_location": {"lat": 29.7728703, "lng": -95.296866}, "travel_mode": "WALKING"}, {"distance": {"text": "148 ft", "value": 45}, "duration": {"text": "1 min", "value": 35}, "end_location": {"lat": 29.7725381, "lng": -95.2960579}, "html_instructions": "Turn <b>left</b> onto <b>Market St</b><div style=\"font-size:0.9em\">Destination will be on the left</div>", "maneuver": "turn-left", "polyline": {"points": "k}utDhrsdQ?{@?a@"}, "start_location": {"lat": 29.7725356, "lng": -95.2965251}, "travel_mode": "WALKING"}], "travel_mode": "WALKING"}, {"distance": {"text": "1.3 mi", "value": 2165}, "duration": {"text": "6 mins", "value": 378}, "end_location": {"lat": 29.77535, "lng": -95.31537499999999}, "html_instructions": "Bus towards Downtown", "polyline": {"points": "w}utDjosdQJ??`@?v@?BAXGb@Y|ASjAEt@?~C@jMA\\@jA?~BAtD?VAjE?xD?PAnE@jD?Z?X?~A?dBAtD?VAjE?pD?X?bA?|@?h@?X?FA@?J?V?D@T@P@DF\\Nn@BJFX?bD?dB?h@[C}@?C?c@BeADa@?Q?c@@E?G?U@O?I?m@?u@@W@E?m@@G`@?A"}, "start_location": {"lat": 29.772596, "lng": -95.296059}, "transit_details": {"arrival_stop": {"location": {"lat": 29.77535, "lng": -95.31537499999999}, "name": "Fifth Ward/Denver Harbor Transit Center"}, "arrival_time": {"text": "3:25pm", "time_zone": "America/Chicago", "value": 1642022700}, "departure_stop": {"location": {"lat": 29.772596, "lng": -95.296059}, "name": "Market St @ Port St"}, "departure_time": {"text": "3:18pm", "time_zone": "America/Chicago", "value": 1642022322}, "headsign": "Downtown", "line": {"agencies": [{"name": "Metropolitan Transit Authority of Harris County", "phone": "1 (713) 635-4000", "url": "http://www.ridemetro.org/"}], "color": "#004080", "name": "Market", "short_name": "48", "text_color": "#ffffff", "url": "https://www.ridemetro.org/MetroPDFs/Schedules/BusSchedules/n048-Market.pdf", "vehicle": {"icon": "//maps.gstatic.com/mapfiles/transit/iw2/6/bus2.png", "name": "Bus", "type": "BUS"}}, "num_stops": 10, "trip_short_name": "MARKET"}, "travel_mode": "TRANSIT"}, {"distance": {"text": "420 ft", "value": 128}, "duration": {"text": "2 mins", "value": 103}, "end_location": {"lat": 29.7762979, "lng": -95.3152978}, "html_instructions": "Walk to Lockwood Dr @ Lyons Ave", "polyline": {"points": "}nvtDbhwdQDY@O]@{@Bc@D[Dk@F"}, "start_location": {"lat": 29.7753454, "lng": -95.31537639999999}, "steps": [{"distance": {"text": "56 ft", "value": 17}, "duration": {"text": "1 min", "value": 12}, "end_location": {"lat": 29.7753077, "lng": -95.315167}, "html_instructions": "Head <b>east</b> toward <b>Lockwood Dr</b>", "polyline": {"points": "}nvtDbhwdQDY@O"}, "start_location": {"lat": 29.7753454, "lng": -95.31537639999999}, "travel_mode": "WALKING"}, {"distance": {"text": "364 ft", "value": 111}, "duration": {"text": "2 mins", "value": 91}, "end_location": {"lat": 29.7762979, "lng": -95.3152978}, "html_instructions": "Turn <b>left</b> onto <b>Lockwood Dr</b><div style=\"font-size:0.9em\">Pass by Taco Bell (on the right in 75&nbsp;ft)</div><div style=\"font-size:0.9em\">Destination will be on the right</div>", "maneuver": "turn-left", "polyline": {"points": "unvtDxfwdQ]@{@Bc@D[Dk@F"}, "start_location": {"lat": 29.7753077, "lng": -95.315167}, "travel_mode": "WALKING"}], "travel_mode": "WALKING"}, {"distance": {"text": "3.3 mi", "value": 5378}, "duration": {"text": "11 mins", "value": 660}, "end_location": {"lat": 29.81412, "lng": -95.327876}, "html_instructions": "Bus towards Kashmere TC", "polyline": {"points": "{tvtDpgwdQ@H_@DkCf@yA\\w@Jo@B_@@O@_E@oD?O?iDDW?}D@eD@[?{@?i@Ac@?WAE?YCwBCCBA?A?A@A?C?W?iABuA?sD@S@E?M?I?A?O?M?cC?G?E?U?[?C?I@m@?wE@gA@[?G@MDoBD[@_DTI?M?S?oEBW?k@BY?C?I@K@_@BQ@S?SHKDi@VMFm@\\C?ULYLUJi@PmABS?mF@Q?s@@eB@gD@g@@Y?s@@e@?W@_@KKEaA@U?a@@k@@]?]?o@?sB?{BHGBUD}@?m@@E?c@?C?Y?U?]?W?W?a@?c@@w@?S?aIDi@@{@@i@@UGg@Aa@AQ?A?q@?k@?_@?]?QAMCQ@kA@Q?m@@Q?c@?K?W?M?U?c@?{@?kA@I?G?cB@kC@C?gA@i@?eCBmA@q@@?^BzI@~IB~I@hA@zGBbH@~G?lAi@b@u@l@y@l@OWCIAA@QDG@Aj@YFN"}, "start_location": {"lat": 29.77629899999999, "lng": -95.31528899999999}, "transit_details": {"arrival_stop": {"location": {"lat": 29.81412, "lng": -95.327876}, "name": "Kashmere Transit Center"}, "arrival_time": {"text": "3:50pm", "time_zone": "America/Chicago", "value": 1642024200}, "departure_stop": {"location": {"lat": 29.77629899999999, "lng": -95.31528899999999}, "name": "Lockwood Dr @ Lyons Ave"}, "departure_time": {"text": "3:39pm", "time_zone": "America/Chicago", "value": 1642023540}, "headsign": "Kashmere TC", "line": {"agencies": [{"name": "Metropolitan Transit Authority of Harris County", "phone": "1 (713) 635-4000", "url": "http://www.ridemetro.org/"}], "color": "#004080", "name": "MLK / Lockwood", "short_name": "80", "text_color": "#ffffff", "url": "https://www.ridemetro.org/MetroPDFs/Schedules/BusSchedules/n080-MLK-Lockwood.pdf", "vehicle": {"icon": "//maps.gstatic.com/mapfiles/transit/iw2/6/bus2.png", "name": "Bus", "type": "BUS"}}, "num_stops": 19, "trip_short_name": "MLKLOCK"}, "travel_mode": "TRANSIT"}, {"distance": {"text": "8.7 mi", "value": 14073}, "duration": {"text": "34 mins", "value": 2020}, "end_location": {"lat": 29.80163, "lng": -95.454342}, "html_instructions": "Bus towards Memorial City", "polyline": {"points": "ga~tDfvydQGOp@s@RB@@HLA\\u@l@y@l@AzAl@?DAjBAr@?vFC?L|DCdEAV?~@Av@?BAX?ZAHAJ?NCVEHAD?DAVAJA@?D?r@ErAMBAb@Cl@Ez@CN?B?L?@?fAAt@?|@AP?tHCd@AX?V?\\?zFEdA?H?z@Ah@?v@?vAAb@?t@??n@?j@@bD?p@@hA?X?x@DvCFpD?rA@zBGvAEpAGjBARC\\K`AEb@]fBKb@EPGVYdAUdAMx@W|AOjAMx@EZGd@WbBKj@Ib@EVAFIf@ADKn@Kz@In@K|@SdBK|@Gb@K~@AHW|Bc@jEo@fFWlBK|@EVSbBQpAGr@Mp@Eb@CNOrAKdBCf@?HAx@?xB@d@@j@?pA@nA?X@dB?T@fAB~D@bD@ZBbEBzB@fAGrAAXGvA@vD@xC@^@tD@x@?V?v@?l@?\\BpD@nB?fA@jA?tA?T?\\?lA@nA?tA@dA?Z@bA?pB@vDAlBAV?LANAT?RAXCR?@CXQ|@Kf@Sz@ENOr@CRE\\Cb@KfCARCpAAv@AXCf@?DAT?LAHCfAAd@?D?lB?h@?VBjC?lB?x@@z@@fB?fD@fDE`BA|@?HA\\@V?lA@L?\\?x@?V@j@@t@?L?JB`@@T@NBN@N@V?f@@f@?`A?r@?L?xBAP?JALAPANIbAEb@?TAR?V?fH?p@@vD@xAC^C^CRA@ETC\\Af@?P?P?LA`@@\\BpA?^@j@?H@tA?n@?b@@b@?X?P?V@`A?v@@dA?V?vA@T?lB@jB@tA?XB|E?~A@zB@nB?V?V@t@?L?R?L@R?N?f@?h@@|@?\\?d@?b@@n@?pA@|B?d@?`@@t@?T?pA@v@@rA?v@@bD@~@?nA@H?tB@^@dC?P?j@@x@?x@?t@@P?dA@|A?\\?^@dC@zB?xA?N@V?fA@`ABfE?tABtJ?pB@rA?r@?H?|@?jB?@?j@@h@AL?\\?J@f@?|B?h@?|@?n@?N?|G?J@tE?d@@dC?p@AL@J?V@P@H?B?D@F@HBH@JDPDLDLDHDJDJHLFHFHLL?@TVTVn@v@NRh@h@NPVX^f@BJBFBFf@v@P`@DZDVBT@F?D@F?H?P@P?X?N?F?j@@pAIpB@f@?V?fA?j@?V@h@AjA?h@@~@?b@@^Af@@d@?X?bA?jA?b@@nC?J?d@Aj@?v@?P@dB?jA?bC?`A?\\@dH?`D?dC@fE?jD?T@`F@vB?jD?vC?X?`E@V@zCAb@?fAAX@fB@fA?T@|B?l@A~A?x@?XAzB?`A?dB?l@?P?F?H@^?Z?@?H?@?Z?h@?f@?j@?^?t@@j@BnAAV@|@@fB?bBG?"}, "start_location": {"lat": 29.81412, "lng": -95.327876}, "transit_details": {"arrival_stop": {"location": {"lat": 29.80163, "lng": -95.454342}, "name": "W 18th St @ Northwest Fwy"}, "arrival_time": {"text": "4:33pm", "time_zone": "America/Chicago", "value": 1642026820}, "departure_stop": {"location": {"lat": 29.81412, "lng": -95.327876}, "name": "Kashmere Transit Center"}, "departure_time": {"text": "4:00pm", "time_zone": "America/Chicago", "value": 1642024800}, "headsign": "Memorial City", "line": {"agencies": [{"name": "Metropolitan Transit Authority of Harris County", "phone": "1 (713) 635-4000", "url": "http://www.ridemetro.org/"}], "color": "#004080", "name": "Long Point / Cavalcade", "short_name": "26", "text_color": "#ffffff", "url": "https://www.ridemetro.org/MetroPDFs/Schedules/BusSchedules/n026-Long-Point-Cavalcade.pdf", "vehicle": {"icon": "//maps.gstatic.com/mapfiles/transit/iw2/6/bus2.png", "name": "Bus", "type": "BUS"}}, "num_stops": 52, "trip_short_name": "LONGPOINT"}, "travel_mode": "TRANSIT"}, {"distance": {"text": "322 ft", "value": 98}, "duration": {"text": "1 min", "value": 77}, "end_location": {"lat": 29.8019199, "lng": -95.45428179999999}, "html_instructions": "Walk to 4400 W 18th St, Houston, TX 77092, USA", "polyline": {"points": "es{tDrlreQ?z@YEc@E?G@Q@a@"}, "start_location": {"lat": 29.8016264, "lng": -95.454342}, "steps": [{"distance": {"text": "95 ft", "value": 29}, "duration": {"text": "1 min", "value": 22}, "end_location": {"lat": 29.8016252, "lng": -95.45463819999999}, "html_instructions": "Head <b>west</b> on <b>W 18th St</b>/<wbr/><b>NW Mall</b>", "polyline": {"points": "es{tDrlreQ?z@"}, "start_location": {"lat": 29.8016264, "lng": -95.454342}, "travel_mode": "WALKING"}, {"distance": {"text": "131 ft", "value": 40}, "duration": {"text": "1 min", "value": 33}, "end_location": {"lat": 29.8019405, "lng": -95.4545788}, "html_instructions": "Turn <b>right</b><div style=\"font-size:0.9em\">Restricted usage road</div>", "maneuver": "turn-right", "polyline": {"points": "es{tDnnreQYEc@E"}, "start_location": {"lat": 29.8016252, "lng": -95.45463819999999}, "travel_mode": "WALKING"}, {"distance": {"text": "95 ft", "value": 29}, "duration": {"text": "1 min", "value": 22}, "end_location": {"lat": 29.8019199, "lng": -95.45428179999999}, "html_instructions": "Turn <b>right</b><div style=\"font-size:0.9em\">Restricted usage road</div><div style=\"font-size:0.9em\">Destination will be on the left</div>", "maneuver": "turn-right", "polyline": {"points": "cu{tDbnreQ?G@Q@a@"}, "start_location": {"lat": 29.8019405, "lng": -95.4545788}, "travel_mode": "WALKING"}], "travel_mode": "WALKING"}], "traffic_speed_entry": [], "via_waypoint": []}], "overview_polyline": {"points": "m_vtDltsdQ@Y\\c@`@E?{@?a@K?J??`@?z@I|@m@hDEt@?~C?hN@jECrQA~XAtRAl@Dr@b@rB?hG?h@[CaA?iBH}A@sDDs@@G^DW@O]@_BHgAL@FkDl@yA\\w@JoADoKBaEDcJBeDAoDIIDeKFaE?sIBcB@UFkCFiDTiGBsADqAFwAn@aBx@_A\\aBByKD}GD}@@k@QeDD_F?cCLUD}@?s@@g@?eB?qQJi@@UGiACqB?}@?_@E}CD}E?cMFsEDq@@?^DzTDhLF~Y?lAi@b@u@l@y@l@Sa@?SFIj@YFNGOp@s@TDHLA\\u@l@y@l@AzAl@?pBCjHC?L|DC|EAvBAbAE|@KjBKhDY|ACdQI~OGpDA@pHFtHFdG@zBGvAM|DEp@QdBi@jC}@tDcA|GcAtGKl@WjBu@pGm@jFc@jEo@fFc@jDs@`Gg@xDOlCAbAB|GLlTF~H@fAGrAIpBBpIDfHBtHDjPBzF@hHCdCCfAIhA]dBYjASfAI`ASdHG|AGdC?tDDnJ@nG@fDE`BAfA?t@@rDBfCFrAD^BhDAlEEz@OfBAh@@hPAxBGr@GVEdAArAFzDBzGPhf@HfT`@ncAFnd@@lU@pEBv@F`@Rx@Zn@\\b@|DpE^f@BJFNf@v@P`@Jr@Fj@@fA@tCIpB@f@?~A?xDBlD@vL?rODve@BnZ@pG@rCAlCApG?lD@xC?hDDpE@jEG??z@YEc@E?GBs@"}, "summary": "", "warnings": ["Walking directions are in beta. Use caution \u2013 This route may be missing sidewalks or pedestrian paths."], "waypoint_order": []}, {"bounds": {"northeast": {"lat": 29.8041289, "lng": -95.2960579}, "southwest": {"lat": 29.7679379, "lng": -95.45463819999999}}, "copyrights": "Map data \u00a92022", "legs": [{"arrival_time": {"text": "4:34pm", "time_zone": "America/Chicago", "value": 1642026897}, "departure_time": {"text": "3:17pm", "time_zone": "America/Chicago", "value": 1642022247}, "distance": {"text": "12.6 mi", "value": 20355}, "duration": {"text": "1 hour 18 mins", "value": 4650}, "end_address": "4400 W 18th St, Houston, TX 77092, USA", "end_location": {"lat": 29.8019199, "lng": -95.45428179999999}, "start_address": "7211 Market St, Houston, TX 77020, USA", "start_location": {"lat": 29.7728703, "lng": -95.296866}, "steps": [{"distance": {"text": "331 ft", "value": 101}, "duration": {"text": "1 min", "value": 75}, "end_location": {"lat": 29.7725381, "lng": -95.2960579}, "html_instructions": "Walk to Market St @ Port St", "polyline": {"points": "m_vtDltsdQ@Y\\c@`@E?{@?a@"}, "start_location": {"lat": 29.7728703, "lng": -95.296866}, "steps": [{"distance": {"text": "184 ft", "value": 56}, "duration": {"text": "1 min", "value": 40}, "end_location": {"lat": 29.7725356, "lng": -95.2965251}, "html_instructions": "Head <b>east</b> toward <b>Market St</b>", "polyline": {"points": "m_vtDltsdQ@Y\\c@`@E"}, "start_location": {"lat": 29.7728703, "lng": -95.296866}, "travel_mode": "WALKING"}, {"distance": {"text": "148 ft", "value": 45}, "duration": {"text": "1 min", "value": 35}, "end_location": {"lat": 29.7725381, "lng": -95.2960579}, "html_instructions": "Turn <b>left</b> onto <b>Market St</b><div style=\"font-size:0.9em\">Destination will be on the left</div>", "maneuver": "turn-left", "polyline": {"points": "k}utDhrsdQ?{@?a@"}, "start_location": {"lat": 29.7725356, "lng": -95.2965251}, "travel_mode": "WALKING"}], "travel_mode": "WALKING"}, {"distance": {"text": "2.9 mi", "value": 4735}, "duration": {"text": "13 mins", "value": 808}, "end_location": {"lat": 29.774077, "lng": -95.32630499999999}, "html_instructions": "Bus towards Downtown", "polyline": {"points": "w}utDjosdQJ??`@?v@?BAXGb@Y|ASjAEt@?~C@jMA\\@jA?~BAtD?VAjE?xD?PAnE@jD?Z?X?~A?dBAtD?VAjE?pD?X?bA?|@?h@?X?FA@?J?V?D@T@P@DF\\Nn@BJFX?bD?dB?h@[C}@?C?c@BeADa@?Q?c@@E?G?U@O?I?m@?u@@W@E?m@@G`@Kr@XAP?T?PA`A?l@CH?N?TAF?x@Cb@?b@?dDC@vG?~AzAAtA?\\?tA?^?pB?P?vA?T?@xAjHCx@?@?@@@??@@@?B@R@pD?@@xE@hD?D?V?B?TARCZOlA?N@`G@XiC@mB@Y?iC@e@?s@?[?EAOADhD?J?d@?Z?F?LAJAFEJAjH?PiAAg@As@AkABU?i@?Q?y@?A?e@?G?c@?OAO?aA?wAB?K"}, "start_location": {"lat": 29.772596, "lng": -95.296059}, "transit_details": {"arrival_stop": {"location": {"lat": 29.774077, "lng": -95.32630499999999}, "name": "Waco St @ Orange St"}, "arrival_time": {"text": "3:32pm", "time_zone": "America/Chicago", "value": 1642023130}, "departure_stop": {"location": {"lat": 29.772596, "lng": -95.296059}, "name": "Market St @ Port St"}, "departure_time": {"text": "3:18pm", "time_zone": "America/Chicago", "value": 1642022322}, "headsign": "Downtown", "line": {"agencies": [{"name": "Metropolitan Transit Authority of Harris County", "phone": "1 (713) 635-4000", "url": "http://www.ridemetro.org/"}], "color": "#004080", "name": "Market", "short_name": "48", "text_color": "#ffffff", "url": "https://www.ridemetro.org/MetroPDFs/Schedules/BusSchedules/n048-Market.pdf", "vehicle": {"icon": "//maps.gstatic.com/mapfiles/transit/iw2/6/bus2.png", "name": "Bus", "type": "BUS"}}, "num_stops": 23, "trip_short_name": "MARKET"}, "travel_mode": "TRANSIT"}, {"distance": {"text": "1.9 mi", "value": 2990}, "duration": {"text": "7 mins", "value": 444}, "end_location": {"lat": 29.800744, "lng": -95.32811699999999}, "html_instructions": "Bus towards Northline TC", "polyline": {"points": "_gvtDjlydQ?JQ?_@?]?WAI?W?u@?]?aB@_AA_@?sBHY@qCPmBFY?uA?K@i@?kC?sABY@Q@e@Bi@Fm@FYFkBb@a@HK@WDQBQ@M@Y@m@DS@c@@M@S@U@U@U?A?a@@G?[?c@@}@?c@?c@@gA?c@@c@?kB@qAJYBsDJwABG?G?u@?{@@cCBE?k@?]@m@?uBB}@@k@@a@@O@y@DSBG@k@Da@FS@o@DW@S@]@c@?iA@c@?g@?Q?cD?uADu@?W?eD?sA@c@?q@?[@]Da@BWDWDw@Rk@L_@Hu@LI@M@e@@w@@cA@cA?oA@_@@mA??K"}, "start_location": {"lat": 29.774077, "lng": -95.32630499999999}, "transit_details": {"arrival_stop": {"location": {"lat": 29.800744, "lng": -95.32811699999999}, "name": "Hirsch Rd @ Cavalcade St"}, "arrival_time": {"text": "3:55pm", "time_zone": "America/Chicago", "value": 1642024541}, "departure_stop": {"location": {"lat": 29.774077, "lng": -95.32630499999999}, "name": "Waco St @ Orange St"}, "departure_time": {"text": "3:48pm", "time_zone": "America/Chicago", "value": 1642024097}, "headsign": "Northline TC", "line": {"agencies": [{"name": "Metropolitan Transit Authority of Harris County", "phone": "1 (713) 635-4000", "url": "http://www.ridemetro.org/"}], "color": "#004080", "name": "Cullen / Hirsch", "short_name": "29", "text_color": "#ffffff", "url": "https://www.ridemetro.org/MetroPDFs/Schedules/BusSchedules/n029-Cullen-Hirsch.pdf", "vehicle": {"icon": "//maps.gstatic.com/mapfiles/transit/iw2/6/bus2.png", "name": "Bus", "type": "BUS"}}, "num_stops": 12, "trip_short_name": "CULLENHIRS"}, "travel_mode": "TRANSIT"}, {"distance": {"text": "292 ft", "value": 89}, "duration": {"text": "1 min", "value": 85}, "end_location": {"lat": 29.8005867, "lng": -95.32834079999999}, "html_instructions": "Walk to Hirsch Rd @ Cavalcade St", "polyline": {"points": "sm{tDzwydQfA??N?F@Nk@?"}, "start_location": {"lat": 29.8007437, "lng": -95.32814309999999}, "steps": [{"distance": {"text": "144 ft", "value": 44}, "duration": {"text": "1 min", "value": 32}, "end_location": {"lat": 29.8003809, "lng": -95.3282201}, "html_instructions": "Head <b>south</b> on <b>Hirsch Rd</b> toward <b>Cavalcade St</b>", "polyline": {"points": "sm{tDzwydQfA??N"}, "start_location": {"lat": 29.8007437, "lng": -95.32814309999999}, "travel_mode": "WALKING"}, {"distance": {"text": "36 ft", "value": 11}, "duration": {"text": "1 min", "value": 18}, "end_location": {"lat": 29.8003734, "lng": -95.328338}, "html_instructions": "Turn <b>right</b> onto <b>Cavalcade St</b>", "maneuver": "turn-right", "polyline": {"points": "kk{tDjxydQ?F@N"}, "start_location": {"lat": 29.8003809, "lng": -95.3282201}, "travel_mode": "WALKING"}, {"distance": {"text": "98 ft", "value": 30}, "duration": {"text": "1 min", "value": 32}, "end_location": {"lat": 29.8005867, "lng": -95.32834079999999}, "html_instructions": "Turn <b>right</b> onto <b>Hirsch Rd</b>", "maneuver": "turn-right", "polyline": {"points": "ik{tDbyydQk@?"}, "start_location": {"lat": 29.8003734, "lng": -95.328338}, "travel_mode": "WALKING"}, {"distance": {"text": "13 ft", "value": 4}, "duration": {"text": "1 min", "value": 3}, "end_location": {"lat": 29.8005867, "lng": -95.32834079999999}, "html_instructions": "Turn <b>left</b><div style=\"font-size:0.9em\">Destination will be on the right</div>", "maneuver": "turn-left", "polyline": {"points": "ul{tDbyydQ"}, "start_location": {"lat": 29.8005867, "lng": -95.32834079999999}, "travel_mode": "WALKING"}], "travel_mode": "WALKING"}, {"distance": {"text": "7.7 mi", "value": 12342}, "duration": {"text": "30 mins", "value": 1772}, "end_location": {"lat": 29.80163, "lng": -95.454342}, "html_instructions": "Bus towards Memorial City", "polyline": {"points": "yl{tDdyydQ?It@??n@?j@@bD?p@@hA?X?x@DvCFpD?rA@zBGvAEpAGjBARC\\K`AEb@]fBKb@EPGVYdAUdAMx@W|AOjAMx@EZGd@WbBKj@Ib@EVAFIf@ADKn@Kz@In@K|@SdBK|@Gb@K~@AHW|Bc@jEo@fFWlBK|@EVSbBQpAGr@Mp@Eb@CNOrAKdBCf@?HAx@?xB@d@@j@?pA@nA?X@dB?T@fAB~D@bD@ZBbEBzB@fAGrAAXGvA@vD@xC@^@tD@x@?V?v@?l@?\\BpD@nB?fA@jA?tA?T?\\?lA@nA?tA@dA?Z@bA?pB@vDAlBAV?LANAT?RAXCR?@CXQ|@Kf@Sz@ENOr@CRE\\Cb@KfCARCpAAv@AXCf@?DAT?LAHCfAAd@?D?lB?h@?VBjC?lB?x@@z@@fB?fD@fDE`BA|@?HA\\@V?lA@L?\\?x@?V@j@@t@?L?JB`@@T@NBN@N@V?f@@f@?`A?r@?L?xBAP?JALAPANIbAEb@?TAR?V?fH?p@@vD@xAC^C^CRA@ETC\\Af@?P?P?LA`@@\\BpA?^@j@?H@tA?n@?b@@b@?X?P?V@`A?v@@dA?V?vA@T?lB@jB@tA?XB|E?~A@zB@nB?V?V@t@?L?R?L@R?N?f@?h@@|@?\\?d@?b@@n@?pA@|B?d@?`@@t@?T?pA@v@@rA?v@@bD@~@?nA@H?tB@^@dC?P?j@@x@?x@?t@@P?dA@|A?\\?^@dC@zB?xA?N@V?fA@`ABfE?tABtJ?pB@rA?r@?H?|@?jB?@?j@@h@AL?\\?J@f@?|B?h@?|@?n@?N?|G?J@tE?d@@dC?p@AL@J?V@P@H?B?D@F@HBH@JDPDLDLDHDJDJHLFHFHLL?@TVTVn@v@NRh@h@NPVX^f@BJBFBFf@v@P`@DZDVBT@F?D@F?H?P@P?X?N?F?j@@pAIpB@f@?V?fA?j@?V@h@AjA?h@@~@?b@@^Af@@d@?X?bA?jA?b@@nC?J?d@Aj@?v@?P@dB?jA?bC?`A?\\@dH?`D?dC@fE?jD?T@`F@vB?jD?vC?X?`E@V@zCAb@?fAAX@fB@fA?T@|B?l@A~A?x@?XAzB?`A?dB?l@?P?F?H@^?Z?@?H?@?Z?h@?f@?j@?^?t@@j@BnAAV@|@@fB?bBG?"}, "start_location": {"lat": 29.800614, "lng": -95.32835}, "transit_details": {"arrival_stop": {"location": {"lat": 29.80163, "lng": -95.454342}, "name": "W 18th St @ Northwest Fwy"}, "arrival_time": {"text": "4:33pm", "time_zone": "America/Chicago", "value": 1642026820}, "departure_stop": {"location": {"lat": 29.800614, "lng": -95.32835}, "name": "Hirsch Rd @ Cavalcade St"}, "departure_time": {"text": "4:04pm", "time_zone": "America/Chicago", "value": 1642025048}, "headsign": "Memorial City", "line": {"agencies": [{"name": "Metropolitan Transit Authority of Harris County", "phone": "1 (713) 635-4000", "url": "http://www.ridemetro.org/"}], "color": "#004080", "name": "Long Point / Cavalcade", "short_name": "26", "text_color": "#ffffff", "url": "https://www.ridemetro.org/MetroPDFs/Schedules/BusSchedules/n026-Long-Point-Cavalcade.pdf", "vehicle": {"icon": "//maps.gstatic.com/mapfiles/transit/iw2/6/bus2.png", "name": "Bus", "type": "BUS"}}, "num_stops": 46, "trip_short_name": "LONGPOINT"}, "travel_mode": "TRANSIT"}, {"distance": {"text": "322 ft", "value": 98}, "duration": {"text": "1 min", "value": 77}, "end_location": {"lat": 29.8019199, "lng": -95.45428179999999}, "html_instructions": "Walk to 4400 W 18th St, Houston, TX 77092, USA", "polyline": {"points": "es{tDrlreQ?z@YEc@E?G@Q@a@"}, "start_location": {"lat": 29.8016264, "lng": -95.454342}, "steps": [{"distance": {"text": "95 ft", "value": 29}, "duration": {"text": "1 min", "value": 22}, "end_location": {"lat": 29.8016252, "lng": -95.45463819999999}, "html_instructions": "Head <b>west</b> on <b>W 18th St</b>/<wbr/><b>NW Mall</b>", "polyline": {"points": "es{tDrlreQ?z@"}, "start_location": {"lat": 29.8016264, "lng": -95.454342}, "travel_mode": "WALKING"}, {"distance": {"text": "131 ft", "value": 40}, "duration": {"text": "1 min", "value": 33}, "end_location": {"lat": 29.8019405, "lng": -95.4545788}, "html_instructions": "Turn <b>right</b><div style=\"font-size:0.9em\">Restricted usage road</div>", "maneuver": "turn-right", "polyline": {"points": "es{tDnnreQYEc@E"}, "start_location": {"lat": 29.8016252, "lng": -95.45463819999999}, "travel_mode": "WALKING"}, {"distance": {"text": "95 ft", "value": 29}, "duration": {"text": "1 min", "value": 22}, "end_location": {"lat": 29.8019199, "lng": -95.45428179999999}, "html_instructions": "Turn <b>right</b><div style=\"font-size:0.9em\">Restricted usage road</div><div style=\"font-size:0.9em\">Destination will be on the left</div>", "maneuver": "turn-right", "polyline": {"points": "cu{tDbnreQ?G@Q@a@"}, "start_location": {"lat": 29.8019405, "lng": -95.4545788}, "travel_mode": "WALKING"}], "travel_mode": "WALKING"}], "traffic_speed_entry": [], "via_waypoint": []}], "overview_polyline": {"points": "m_vtDltsdQ@Y\\c@`@E?{@?a@K?J??`@?z@I|@m@hDEt@?~C?hN@jECrQA~XAtRAl@Dr@b@rB?hG?h@[CaA?iBH}A@sDDs@@StArAC`FIfA?dDC@vG?~AzAArB?xF?lB?@xAjHCz@?B@BZDnRUlCBzGwFB}F@a@AOADhD?p@?b@AXGRA|HqBC_E@_D?yD@?K?Jq@?wAAuF?sCHkDRiFHuD?mBDoCTsDv@iALmERcFBsDBkB@qAJmEN}CBqFD_GFwCJiBRoBJoDBy@?yFDgI@uA?y@Fy@HoAXkAV_ANoDFaGB?K?BfA??N@Vo@@?It@??n@@nE@zB?rALhI@nEMhDI~BO~AEb@]fBQt@a@|Ac@~B{@~FgA`Hc@`Ds@dGiArKyAjL{@zGIr@OrAKdBCp@ArDDrFN`XDbEIlBGvA@vDBxDB~HDlJBpOBvG?dHAd@ErAYlBu@fDIp@OjDIvDEpAG|BBzHBjI@nIG~C?lC@|BBzBFfAFv@@dEAdDOrBEx@Aj@BjRG~@ETIr@Ax@?~ADfDDrIFrPLl[Lt^Lv]HdTDdX@|IBhX?bBBd@Hf@Vv@\\n@j@p@tAbBx@z@v@`AFRj@~@V|@Hl@B^@lA?r@@pAIpB@~@?rB@`AAtB@jDBtL?jOBtWBzO?~OBrDAjB@~E@jDAxCA|H?pA@vD@lDDlG?bBG??z@}@K@Y@a@"}, "summary": "", "warnings": ["Walking directions are in beta. Use caution \u2013 This route may be missing sidewalks or pedestrian paths."], "waypoint_order": []}, {"bounds": {"northeast": {"lat": 29.8041315, "lng": -95.296866}, "southwest": {"lat": 29.7727184, "lng": -95.45463819999999}}, "copyrights": "Map data \u00a92022", "legs": [{"arrival_time": {"text": "4:34pm", "time_zone": "America/Chicago", "value": 1642026897}, "departure_time": {"text": "3:22pm", "time_zone": "America/Chicago", "value": 1642022572}, "distance": {"text": "12.1 mi", "value": 19540}, "duration": {"text": "1 hour 12 mins", "value": 4325}, "end_address": "4400 W 18th St, Houston, TX 77092, USA", "end_location": {"lat": 29.8019199, "lng": -95.45428179999999}, "start_address": "7211 Market St, Houston, TX 77020, USA", "start_location": {"lat": 29.7728703, "lng": -95.296866}, "steps": [{"distance": {"text": "0.4 mi", "value": 660}, "duration": {"text": "8 mins", "value": 499}, "end_location": {"lat": 29.7748452, "lng": -95.3008584}, "html_instructions": "Walk to East Fwy @ Lathrop St", "polyline": {"points": "m_vtDltsdQAHGdAf@FSjAEt@?~C@bMqC?W?YAM?aAAQ?Q?O?UA_@?O?CY"}, "start_location": {"lat": 29.7728703, "lng": -95.296866}, "steps": [{"distance": {"text": "128 ft", "value": 39}, "duration": {"text": "1 min", "value": 28}, "end_location": {"lat": 29.7729197, "lng": -95.2972669}, "html_instructions": "Head <b>west</b> toward <b>Market St</b>", "polyline": {"points": "m_vtDltsdQAHGdA"}, "start_location": {"lat": 29.7728703, "lng": -95.296866}, "travel_mode": "WALKING"}, {"distance": {"text": "75 ft", "value": 23}, "duration": {"text": "1 min", "value": 17}, "end_location": {"lat": 29.7727184, "lng": -95.2973123}, "html_instructions": "Turn <b>left</b> toward <b>Market St</b>", "maneuver": "turn-left", "polyline": {"points": "w_vtD|vsdQf@F"}, "start_location": {"lat": 29.7729197, "lng": -95.2972669}, "travel_mode": "WALKING"}, {"distance": {"text": "0.2 mi", "value": 364}, "duration": {"text": "4 mins", "value": 266}, "end_location": {"lat": 29.772843, "lng": -95.3010207}, "html_instructions": "Turn <b>right</b> onto <b>Market St</b>", "maneuver": "turn-right", "polyline": {"points": "o~utDdwsdQSjAEt@?~C@bM"}, "start_location": {"lat": 29.7727184, "lng": -95.2973123}, "travel_mode": "WALKING"}, {"distance": {"text": "0.1 mi", "value": 216}, "duration": {"text": "3 mins", "value": 165}, "end_location": {"lat": 29.7748263, "lng": -95.30099059999999}, "html_instructions": "Turn <b>right</b> onto <b>Lathrop St</b>", "maneuver": "turn-right", "polyline": {"points": "g_vtDjntdQqC?W?YAM?aAAQ?Q?O?UA_@?O?"}, "start_location": {"lat": 29.772843, "lng": -95.3010207}, "travel_mode": "WALKING"}, {"distance": {"text": "59 ft", "value": 18}, "duration": {"text": "1 min", "value": 23}, "end_location": {"lat": 29.7748452, "lng": -95.3008584}, "html_instructions": "Turn <b>right</b> onto <b>East Fwy</b>/<wbr/><b>E Freeway Service Rd</b>", "maneuver": "turn-right", "polyline": {"points": "ukvtDdntdQCY"}, "start_location": {"lat": 29.7748263, "lng": -95.30099059999999}, "travel_mode": "WALKING"}], "travel_mode": "WALKING"}, {"distance": {"text": "1.8 mi", "value": 2902}, "duration": {"text": "8 mins", "value": 452}, "end_location": {"lat": 29.77623299999999, "lng": -95.32593299999999}, "html_instructions": "Bus towards Hiram Clarke TC", "polyline": {"points": "{kvtDjmtdQHADb@sA@mBJY@{BF?P?^?d@@T?`A?b@?hB?hA?XAfB?dBAbB?fA?`@?zB?n@?`@?fB?dA?X?X?~A?b@?~@AhB?jA?V?hB?`B?fB?fB?b@?R?J?b@?d@?h@?B?J@D?j@?`B?r@BxB@~@B`B@rABjAb@CXClAI`@AL_ADUy@Bc@D[DkALBjA@z@@t@?LFbF@P?`@BfDBpC?RFbDBfC?`@@xCBfD?Z@`E?zC?b@DxD@d@I?"}, "start_location": {"lat": 29.774863, "lng": -95.300861}, "transit_details": {"arrival_stop": {"location": {"lat": 29.77623299999999, "lng": -95.32593299999999}, "name": "Lyons Ave @ Waco St"}, "arrival_time": {"text": "3:38pm", "time_zone": "America/Chicago", "value": 1642023524}, "departure_stop": {"location": {"lat": 29.774863, "lng": -95.300861}, "name": "East Fwy @ Lathrop St"}, "departure_time": {"text": "3:31pm", "time_zone": "America/Chicago", "value": 1642023072}, "headsign": "Hiram Clarke TC", "line": {"agencies": [{"name": "Metropolitan Transit Authority of Harris County", "phone": "1 (713) 635-4000", "url": "http://www.ridemetro.org/"}], "color": "#004080", "name": "Almeda / Lyons", "short_name": "11", "text_color": "#ffffff", "url": "https://www.ridemetro.org/MetroPDFs/Schedules/BusSchedules/n011-Almeda-Lyons.pdf", "vehicle": {"icon": "//maps.gstatic.com/mapfiles/transit/iw2/6/bus2.png", "name": "Bus", "type": "BUS"}}, "num_stops": 15, "trip_short_name": "ALMEDALYON"}, "travel_mode": "TRANSIT"}, {"distance": {"text": "344 ft", "value": 105}, "duration": {"text": "1 min", "value": 76}, "end_location": {"lat": 29.7767468, "lng": -95.3263571}, "html_instructions": "Walk to Waco St @ New Orleans St", "polyline": {"points": "ktvtD`jydQBjAmBH"}, "start_location": {"lat": 29.7762163, "lng": -95.325932}, "steps": [{"distance": {"text": "131 ft", "value": 40}, "duration": {"text": "1 min", "value": 30}, "end_location": {"lat": 29.7761998, "lng": -95.32630840000002}, "html_instructions": "Head <b>west</b> on <b>Lyons Ave</b> toward <b>Waco St</b>", "polyline": {"points": "ktvtD`jydQBjA"}, "start_location": {"lat": 29.7762163, "lng": -95.325932}, "travel_mode": "WALKING"}, {"distance": {"text": "213 ft", "value": 65}, "duration": {"text": "1 min", "value": 46}, "end_location": {"lat": 29.7767468, "lng": -95.3263571}, "html_instructions": "Turn <b>right</b> onto <b>Waco St</b><div style=\"font-size:0.9em\">Destination will be on the right</div>", "maneuver": "turn-right", "polyline": {"points": "gtvtDllydQmBH"}, "start_location": {"lat": 29.7761998, "lng": -95.32630840000002}, "travel_mode": "WALKING"}], "travel_mode": "WALKING"}, {"distance": {"text": "1.9 mi", "value": 3021}, "duration": {"text": "7 mins", "value": 437}, "end_location": {"lat": 29.803702, "lng": -95.328178}, "html_instructions": "Bus towards Northline TC", "polyline": {"points": "uwvtDrlydQ@JY@qCPmBFY?uA?K@i@?kC?sABY@Q@e@Bi@Fm@FYFkBb@a@HK@WDQBQ@M@Y@m@DS@c@@M@S@U@U@U?A?a@@G?[?c@@}@?c@?c@@gA?c@@c@?kB@qAJYBsDJwABG?G?u@?{@@cCBE?k@?]@m@?uBB}@@k@@a@@O@y@DSBG@k@Da@FS@o@DW@S@]@c@?iA@c@?g@?Q?cD?uADu@?W?eD?sA@c@?q@?[@]Da@BWDWDw@Rk@L_@Hu@LI@M@e@@w@@cA@cA?oA@_@@mA?uEBs@@u@?_B@K?uA@_A?M??I"}, "start_location": {"lat": 29.776748, "lng": -95.32633899999999}, "transit_details": {"arrival_stop": {"location": {"lat": 29.803702, "lng": -95.328178}, "name": "Hirsch Rd @ Rand St"}, "arrival_time": {"text": "3:56pm", "time_zone": "America/Chicago", "value": 1642024589}, "departure_stop": {"location": {"lat": 29.776748, "lng": -95.32633899999999}, "name": "Waco St @ New Orleans St"}, "departure_time": {"text": "3:49pm", "time_zone": "America/Chicago", "value": 1642024152}, "headsign": "Northline TC", "line": {"agencies": [{"name": "Metropolitan Transit Authority of Harris County", "phone": "1 (713) 635-4000", "url": "http://www.ridemetro.org/"}], "color": "#004080", "name": "Cullen / Hirsch", "short_name": "29", "text_color": "#ffffff", "url": "https://www.ridemetro.org/MetroPDFs/Schedules/BusSchedules/n029-Cullen-Hirsch.pdf", "vehicle": {"icon": "//maps.gstatic.com/mapfiles/transit/iw2/6/bus2.png", "name": "Bus", "type": "BUS"}}, "num_stops": 11, "trip_short_name": "CULLENHIRS"}, "travel_mode": "TRANSIT"}, {"distance": {"text": "128 ft", "value": 39}, "duration": {"text": "1 min", "value": 49}, "end_location": {"lat": 29.8039524, "lng": -95.32838989999999}, "html_instructions": "Walk to Hirsch Rd @ Rand St", "polyline": {"points": "c`|tDdxydQW?G??NAD@PQ?"}, "start_location": {"lat": 29.8037023, "lng": -95.328188}, "steps": [{"distance": {"text": "46 ft", "value": 14}, "duration": {"text": "1 min", "value": 10}, "end_location": {"lat": 29.8038633, "lng": -95.3282701}, "html_instructions": "Head <b>north</b> on <b>Hirsch Rd</b> toward <b>Rand St</b>", "polyline": {"points": "c`|tDdxydQW?G??N"}, "start_location": {"lat": 29.8037023, "lng": -95.328188}, "travel_mode": "WALKING"}, {"distance": {"text": "36 ft", "value": 11}, "duration": {"text": "1 min", "value": 20}, "end_location": {"lat": 29.8038639, "lng": -95.3283879}, "html_instructions": "Turn <b>left</b> onto <b>Rand St</b>", "maneuver": "turn-left", "polyline": {"points": "ca|tDtxydQAD@P"}, "start_location": {"lat": 29.8038633, "lng": -95.3282701}, "travel_mode": "WALKING"}, {"distance": {"text": "46 ft", "value": 14}, "duration": {"text": "1 min", "value": 19}, "end_location": {"lat": 29.8039524, "lng": -95.32838989999999}, "html_instructions": "Turn <b>right</b> onto <b>Hirsch Rd</b>", "maneuver": "turn-right", "polyline": {"points": "ca|tDlyydQQ?"}, "start_location": {"lat": 29.8038639, "lng": -95.3283879}, "travel_mode": "WALKING"}], "travel_mode": "WALKING"}, {"distance": {"text": "7.9 mi", "value": 12715}, "duration": {"text": "30 mins", "value": 1826}, "end_location": {"lat": 29.80163, "lng": -95.454342}, "html_instructions": "Bus towards Memorial City", "polyline": {"points": "ua|tDpyydQ?KV?\\?zFEdA?H?z@Ah@?v@?vAAb@?t@??n@?j@@bD?p@@hA?X?x@DvCFpD?rA@zBGvAEpAGjBARC\\K`AEb@]fBKb@EPGVYdAUdAMx@W|AOjAMx@EZGd@WbBKj@Ib@EVAFIf@ADKn@Kz@In@K|@SdBK|@Gb@K~@AHW|Bc@jEo@fFWlBK|@EVSbBQpAGr@Mp@Eb@CNOrAKdBCf@?HAx@?xB@d@@j@?pA@nA?X@dB?T@fAB~D@bD@ZBbEBzB@fAGrAAXGvA@vD@xC@^@tD@x@?V?v@?l@?\\BpD@nB?fA@jA?tA?T?\\?lA@nA?tA@dA?Z@bA?pB@vDAlBAV?LANAT?RAXCR?@CXQ|@Kf@Sz@ENOr@CRE\\Cb@KfCARCpAAv@AXCf@?DAT?LAHCfAAd@?D?lB?h@?VBjC?lB?x@@z@@fB?fD@fDE`BA|@?HA\\@V?lA@L?\\?x@?V@j@@t@?L?JB`@@T@NBN@N@V?f@@f@?`A?r@?L?xBAP?JALAPANIbAEb@?TAR?V?fH?p@@vD@xAC^C^CRA@ETC\\Af@?P?P?LA`@@\\BpA?^@j@?H@tA?n@?b@@b@?X?P?V@`A?v@@dA?V?vA@T?lB@jB@tA?XB|E?~A@zB@nB?V?V@t@?L?R?L@R?N?f@?h@@|@?\\?d@?b@@n@?pA@|B?d@?`@@t@?T?pA@v@@rA?v@@bD@~@?nA@H?tB@^@dC?P?j@@x@?x@?t@@P?dA@|A?\\?^@dC@zB?xA?N@V?fA@`ABfE?tABtJ?pB@rA?r@?H?|@?jB?@?j@@h@AL?\\?J@f@?|B?h@?|@?n@?N?|G?J@tE?d@@dC?p@AL@J?V@P@H?B?D@F@HBH@JDPDLDLDHDJDJHLFHFHLL?@TVTVn@v@NRh@h@NPVX^f@BJBFBFf@v@P`@DZDVBT@F?D@F?H?P@P?X?N?F?j@@pAIpB@f@?V?fA?j@?V@h@AjA?h@@~@?b@@^Af@@d@?X?bA?jA?b@@nC?J?d@Aj@?v@?P@dB?jA?bC?`A?\\@dH?`D?dC@fE?jD?T@`F@vB?jD?vC?X?`E@V@zCAb@?fAAX@fB@fA?T@|B?l@A~A?x@?XAzB?`A?dB?l@?P?F?H@^?Z?@?H?@?Z?h@?f@?j@?^?t@@j@BnAAV@|@@fB?bBG?"}, "start_location": {"lat": 29.803952, "lng": -95.328411}, "transit_details": {"arrival_stop": {"location": {"lat": 29.80163, "lng": -95.454342}, "name": "W 18th St @ Northwest Fwy"}, "arrival_time": {"text": "4:33pm", "time_zone": "America/Chicago", "value": 1642026820}, "departure_stop": {"location": {"lat": 29.803952, "lng": -95.328411}, "name": "Hirsch Rd @ Rand St"}, "departure_time": {"text": "4:03pm", "time_zone": "America/Chicago", "value": 1642024994}, "headsign": "Memorial City", "line": {"agencies": [{"name": "Metropolitan Transit Authority of Harris County", "phone": "1 (713) 635-4000", "url": "http://www.ridemetro.org/"}], "color": "#004080", "name": "Long Point / Cavalcade", "short_name": "26", "text_color": "#ffffff", "url": "https://www.ridemetro.org/MetroPDFs/Schedules/BusSchedules/n026-Long-Point-Cavalcade.pdf", "vehicle": {"icon": "//maps.gstatic.com/mapfiles/transit/iw2/6/bus2.png", "name": "Bus", "type": "BUS"}}, "num_stops": 47, "trip_short_name": "LONGPOINT"}, "travel_mode": "TRANSIT"}, {"distance": {"text": "322 ft", "value": 98}, "duration": {"text": "1 min", "value": 77}, "end_location": {"lat": 29.8019199, "lng": -95.45428179999999}, "html_instructions": "Walk to 4400 W 18th St, Houston, TX 77092, USA", "polyline": {"points": "es{tDrlreQ?z@YEc@E?G@Q@a@"}, "start_location": {"lat": 29.8016264, "lng": -95.454342}, "steps": [{"distance": {"text": "95 ft", "value": 29}, "duration": {"text": "1 min", "value": 22}, "end_location": {"lat": 29.8016252, "lng": -95.45463819999999}, "html_instructions": "Head <b>west</b> on <b>W 18th St</b>/<wbr/><b>NW Mall</b>", "polyline": {"points": "es{tDrlreQ?z@"}, "start_location": {"lat": 29.8016264, "lng": -95.454342}, "travel_mode": "WALKING"}, {"distance": {"text": "131 ft", "value": 40}, "duration": {"text": "1 min", "value": 33}, "end_location": {"lat": 29.8019405, "lng": -95.4545788}, "html_instructions": "Turn <b>right</b><div style=\"font-size:0.9em\">Restricted usage road</div>", "maneuver": "turn-right", "polyline": {"points": "es{tDnnreQYEc@E"}, "start_location": {"lat": 29.8016252, "lng": -95.45463819999999}, "travel_mode": "WALKING"}, {"distance": {"text": "95 ft", "value": 29}, "duration": {"text": "1 min", "value": 22}, "end_location": {"lat": 29.8019199, "lng": -95.45428179999999}, "html_instructions": "Turn <b>right</b><div style=\"font-size:0.9em\">Restricted usage road</div><div style=\"font-size:0.9em\">Destination will be on the left</div>", "maneuver": "turn-right", "polyline": {"points": "cu{tDbnreQ?G@Q@a@"}, "start_location": {"lat": 29.8019405, "lng": -95.4545788}, "travel_mode": "WALKING"}], "travel_mode": "WALKING"}], "traffic_speed_entry": [], "via_waypoint": []}], "overview_polyline": {"points": "m_vtDltsdQInAf@FSjAEt@?~C@bMqC?q@AoAAs@?u@AO?CYA?HADb@sA@gCL{BF?P?dA@vA?pFCxJ?pMAz\\DzJJ`IlDSRuA}AHgBRDfCJxHFnJJjH@zDD`PD|E@d@I?@?BjAmBH?C@JY@qCPmBFoB?u@@_FBk@BoAJgANmCl@c@FkAHiEPqFD{FBkBNkGNaC@sEDmGFq@BmAHiBPyBJyD@uD?kCDuH@mA@_AHo@JcB`@uAVWB}ABgC@sKFuEBuC@M??IW@G??N?VQ??B?KV?xGEtDArDAt@??n@@nE@nELhI@nEWhHO~AEb@]fBQt@a@|Ac@~Bg@hDs@~E[fBYdBu@nGa@jD{@hIgAtIw@jG_@xCOrAKdBCp@ArDBpAB`HF`MJbLIlBGvA@vDBxDBnF?zCFlSBfG@tD?dHEjAEbAUvA_@bBUbAIp@OjDEdBG~BGtBAbEH~XIfEBpCBrDDpAFn@BfB?|FE|@QlCAdKBpGG~@OhAAxABpDDnHDjMNf^Zn{@FlPHt]@bH@dX?jFD~@BZPt@Vn@f@n@dDxDv@`AFRj@~@V|@Jz@Bt@?|A@pAIpB@~@@tDAtB@bB@fC@bI?|MBv`@BxI?bIBnKAlFBhGCnH?fF@vBBfJBdD?bBG??z@}@KB{@"}, "summary": "", "warnings": ["Walking directions are in beta. Use caution \u2013 This route may be missing sidewalks or pedestrian paths."], "waypoint_order": []}], "status": "OK"}