{"geocoded_waypoints": [{"geocoder_status": "OK", "place_id": "ChIJvyghIVKjQIYRG4nBZRlEiWk", "types": ["establishment", "point_of_interest", "primary_school", "school"]}, {"geocoder_status": "OK", "place_id": "ChIJ9_tphxzHQIYRIMyPy_d3VZU", "types": ["establishment", "point_of_interest"]}], "routes": [{"bounds": {"northeast": {"lat": 29.8144249, "lng": -95.2204259}, "southwest": {"lat": 29.7681321, "lng": -95.45463819999999}}, "copyrights": "Map data \u00a92022", "legs": [{"arrival_time": {"text": "4:34pm", "time_zone": "America/Chicago", "value": 1642026897}, "departure_time": {"text": "3:07pm", "time_zone": "America/Chicago", "value": 1642021660}, "distance": {"text": "18.5 mi", "value": 29708}, "duration": {"text": "1 hour 27 mins", "value": 5237}, "end_address": "4400 W 18th St, Houston, TX 77092, USA", "end_location": {"lat": 29.8019199, "lng": -95.45428179999999}, "start_address": "1262 Mae Dr, Houston, TX 77015, USA", "start_location": {"lat": 29.7688993, "lng": -95.22163499999999}, "steps": [{"distance": {"text": "0.4 mi", "value": 705}, "duration": {"text": "9 mins", "value": 568}, "end_location": {"lat": 29.7709336, "lng": -95.2213854}, "html_instructions": "Walk to East Fwy @ Mae Dr", "polyline": {"points": "sfutDf~ddQLHRNHBB@BA@?BEt@wAVg@FKBGBG@E?G?GCwA}@?_BBqAB[@m@@c@@CNCLEPCL?@ERCL?@CLCJERALAJA@?@?BB?@?@??A@A?G@I@G?A@?@?@@?@?@ABAF?HCH?@?@A?EAOCKCKAUEOCSEa@IGAu@OIAA@A@AJAJ?@?@?@@?@?@?@??C?C@K@CBA@@F@NBJDCR?B"}, "start_location": {"lat": 29.7688993, "lng": -95.22163499999999}, "steps": [{"distance": {"text": "0.1 mi", "value": 184}, "duration": {"text": "2 mins", "value": 132}, "end_location": {"lat": 29.7681548, "lng": -95.2204259}, "html_instructions": "Head <b>southwest</b> toward <b>Mae Dr</b>", "polyline": {"points": "sfutDf~ddQLHRNHBB@BA@?BEt@wAVg@FKBGBG@E?G?GCwA"}, "start_location": {"lat": 29.7688993, "lng": -95.22163499999999}, "travel_mode": "WALKING"}, {"distance": {"text": "0.1 mi", "value": 194}, "duration": {"text": "2 mins", "value": 147}, "end_location": {"lat": 29.7699014, "lng": -95.220501}, "html_instructions": "Turn <b>left</b> onto <b>Mae Dr</b>", "maneuver": "turn-left", "polyline": {"points": "}autDtvddQ}@?_BBqAB[@m@@c@@"}, "start_location": {"lat": 29.7681548, "lng": -95.2204259}, "travel_mode": "WALKING"}, {"distance": {"text": "0.2 mi", "value": 315}, "duration": {"text": "5 mins", "value": 281}, "end_location": {"lat": 29.7709095, "lng": -95.221266}, "html_instructions": "Turn <b>left</b>", "maneuver": "turn-left", "polyline": {"points": "{lutDbwddQCNCLEPCL?@ERCL?@CLCJERALAJA@?@?BB?@?@??A@A?G@I@G?A@?@?@@?@?@ABAF?HCH?@?@A?EAOCKCKAUEOCSEa@IGAu@OIAA@A@AJAJ?@?@?@@?@?@?@??C?C@K@CBA@@F@NBJD"}, "start_location": {"lat": 29.7699014, "lng": -95.220501}, "travel_mode": "WALKING"}, {"distance": {"text": "39 ft", "value": 12}, "duration": {"text": "1 min", "value": 8}, "end_location": {"lat": 29.7709336, "lng": -95.2213854}, "html_instructions": "Turn <b>right</b> onto <b>East Fwy</b>/<wbr/><b>E Freeway Service Rd</b><div style=\"font-size:0.9em\">Destination will be on the right</div>", "maneuver": "turn-right", "polyline": {"points": "esutD|{ddQCR?B"}, "start_location": {"lat": 29.7709095, "lng": -95.221266}, "travel_mode": "WALKING"}], "travel_mode": "WALKING"}, {"distance": {"text": "5.8 mi", "value": 9326}, "duration": {"text": "13 mins", "value": 772}, "end_location": {"lat": 29.77535, "lng": -95.31537499999999}, "html_instructions": "Bus towards Downtown", "polyline": {"points": "qsutDp|ddQLBG`@In@c@lCK~@QfAYvBQnAc@zC_@rCMbAEXGf@M~@g@pDQnAo@rEYzAIb@EZQfAGVUzAq@~EADKz@Gh@ARIj@CLCPO`AUfBKn@SrAOlAARGh@Ir@ALAd@CdAC`A?jA?V?bA@f@?lA?dA?j@@nC?l@@xCDR?Z?l@?xD?p@Ad@?n@?Z?T@n@?fA?dAAdAE|BAN@vC@|B?jC?\\@hA?z@?Z?l@@x@?l@?j@@vABF@F@L@\\Fj@Fl@@J?J@JBP?JDl@?Z?@?`@?D?^@NBJFPAPAp@Cx@CpAGhAGjAOzBG~@QrBShCEn@]lDG|@Ix@E`@W`DAJABo@hHIz@UjC{@tJC\\EPc@bF?@Ef@Eh@A@?B?BAFC\\E^ANADc@~E_@bEa@rEMxAIp@CXC\\OxAQtBQdBSxBMnAEb@ADQxBAJM|AGf@Gp@I|@AH_@jEE\\Eh@KnAEV_@rDWrCg@dGOnCQhD?rCAh@?|@?dA?^?Z@d@?tABtC@h@@pA?`@?J@b@?@?B?b@?P?@?R@pB?X@v@?z@@pA?V?r@@`A@`@?h@@pA?dA@h@?h@?f@?h@@~@@bB?@?N@`A?JBr@?J?LBd@Dt@Dz@D^?BHp@Fn@@BBPL~@Hf@@BF^Ll@J`@\\lA?@HVDLNh@L^BHJZHTVx@bC`IBHNf@^hAfCnI@Bf@dBBHDPLb@R|@Jj@Hb@Hb@BR@HBPJl@Jl@Dl@Dn@DlBBhB?~A?lB?xD?vB?dC?bC?|@?~A?d@?B?L?N?d@?dDAzD?dC@tD?lEC~BQb@ATAXGrAE^Ep@CTAVANAZAN?@?f@?h@?p@u@@W@E?m@@G`@?A"}, "start_location": {"lat": 29.770971, "lng": -95.221374}, "transit_details": {"arrival_stop": {"location": {"lat": 29.77535, "lng": -95.31537499999999}, "name": "Fifth Ward/Denver Harbor Transit Center"}, "arrival_time": {"text": "3:30pm", "time_zone": "America/Chicago", "value": 1642023000}, "departure_stop": {"location": {"lat": 29.770971, "lng": -95.221374}, "name": "East Fwy @ Mae Dr"}, "departure_time": {"text": "3:17pm", "time_zone": "America/Chicago", "value": 1642022228}, "headsign": "Downtown", "line": {"agencies": [{"name": "Metropolitan Transit Authority of Harris County", "phone": "1 (713) 635-4000", "url": "http://www.ridemetro.org/"}], "color": "#004080", "name": "Northshore Express", "short_name": "137", "text_color": "#ffffff", "url": "https://www.ridemetro.org/MetroPDFs/Schedules/BusSchedules/n137-Northshore-Express.pdf", "vehicle": {"icon": "//maps.gstatic.com/mapfiles/transit/iw2/6/bus2.png", "name": "Bus", "type": "BUS"}}, "num_stops": 7, "trip_short_name": "NORTHSHO"}, "travel_mode": "TRANSIT"}, {"distance": {"text": "420 ft", "value": 128}, "duration": {"text": "2 mins", "value": 103}, "end_location": {"lat": 29.7762979, "lng": -95.3152978}, "html_instructions": "Walk to Lockwood Dr @ Lyons Ave", "polyline": {"points": "}nvtDbhwdQDY@O]@{@Bc@D[Dk@F"}, "start_location": {"lat": 29.7753454, "lng": -95.31537639999999}, "steps": [{"distance": {"text": "56 ft", "value": 17}, "duration": {"text": "1 min", "value": 12}, "end_location": {"lat": 29.7753077, "lng": -95.315167}, "html_instructions": "Head <b>east</b> toward <b>Lockwood Dr</b>", "polyline": {"points": "}nvtDbhwdQDY@O"}, "start_location": {"lat": 29.7753454, "lng": -95.31537639999999}, "travel_mode": "WALKING"}, {"distance": {"text": "364 ft", "value": 111}, "duration": {"text": "2 mins", "value": 91}, "end_location": {"lat": 29.7762979, "lng": -95.3152978}, "html_instructions": "Turn <b>left</b> onto <b>Lockwood Dr</b><div style=\"font-size:0.9em\">Pass by Taco Bell (on the right in 75&nbsp;ft)</div><div style=\"font-size:0.9em\">Destination will be on the right</div>", "maneuver": "turn-left", "polyline": {"points": "unvtDxfwdQ]@{@Bc@D[Dk@F"}, "start_location": {"lat": 29.7753077, "lng": -95.315167}, "travel_mode": "WALKING"}], "travel_mode": "WALKING"}, {"distance": {"text": "3.3 mi", "value": 5378}, "duration": {"text": "11 mins", "value": 660}, "end_location": {"lat": 29.81412, "lng": -95.327876}, "html_instructions": "Bus towards Kashmere TC", "polyline": {"points": "{tvtDpgwdQ@H_@DkCf@yA\\w@Jo@B_@@O@_E@oD?O?iDDW?}D@eD@[?{@?i@Ac@?WAE?YCwBCCBA?A?A@A?C?W?iABuA?sD@S@E?M?I?A?O?M?cC?G?E?U?[?C?I@m@?wE@gA@[?G@MDoBD[@_DTI?M?S?oEBW?k@BY?C?I@K@_@BQ@S?SHKDi@VMFm@\\C?ULYLUJi@PmABS?mF@Q?s@@eB@gD@g@@Y?s@@e@?W@_@KKEaA@U?a@@k@@]?]?o@?sB?{BHGBUD}@?m@@E?c@?C?Y?U?]?W?W?a@?c@@w@?S?aIDi@@{@@i@@UGg@Aa@AQ?A?q@?k@?_@?]?QAMCQ@kA@Q?m@@Q?c@?K?W?M?U?c@?{@?kA@I?G?cB@kC@C?gA@i@?eCBmA@q@@?^BzI@~IB~I@hA@zGBbH@~G?lAi@b@u@l@y@l@OWCIAA@QDG@Aj@YFN"}, "start_location": {"lat": 29.77629899999999, "lng": -95.31528899999999}, "transit_details": {"arrival_stop": {"location": {"lat": 29.81412, "lng": -95.327876}, "name": "Kashmere Transit Center"}, "arrival_time": {"text": "3:50pm", "time_zone": "America/Chicago", "value": 1642024200}, "departure_stop": {"location": {"lat": 29.77629899999999, "lng": -95.31528899999999}, "name": "Lockwood Dr @ Lyons Ave"}, "departure_time": {"text": "3:39pm", "time_zone": "America/Chicago", "value": 1642023540}, "headsign": "Kashmere TC", "line": {"agencies": [{"name": "Metropolitan Transit Authority of Harris County", "phone": "1 (713) 635-4000", "url": "http://www.ridemetro.org/"}], "color": "#004080", "name": "MLK / Lockwood", "short_name": "80", "text_color": "#ffffff", "url": "https://www.ridemetro.org/MetroPDFs/Schedules/BusSchedules/n080-MLK-Lockwood.pdf", "vehicle": {"icon": "//maps.gstatic.com/mapfiles/transit/iw2/6/bus2.png", "name": "Bus", "type": "BUS"}}, "num_stops": 19, "trip_short_name": "MLKLOCK"}, "travel_mode": "TRANSIT"}, {"distance": {"text": "8.7 mi", "value": 14073}, "duration": {"text": "34 mins", "value": 2020}, "end_location": {"lat": 29.80163, "lng": -95.454342}, "html_instructions": "Bus towards Memorial City", "polyline": {"points": "ga~tDfvydQGOp@s@RB@@HLA\\u@l@y@l@AzAl@?DAjBAr@?vFC?L|DCdEAV?~@Av@?BAX?ZAHAJ?NCVEHAD?DAVAJA@?D?r@ErAMBAb@Cl@Ez@CN?B?L?@?fAAt@?|@AP?tHCd@AX?V?\\?zFEdA?H?z@Ah@?v@?vAAb@?t@??n@?j@@bD?p@@hA?X?x@DvCFpD?rA@zBGvAEpAGjBARC\\K`AEb@]fBKb@EPGVYdAUdAMx@W|AOjAMx@EZGd@WbBKj@Ib@EVAFIf@ADKn@Kz@In@K|@SdBK|@Gb@K~@AHW|Bc@jEo@fFWlBK|@EVSbBQpAGr@Mp@Eb@CNOrAKdBCf@?HAx@?xB@d@@j@?pA@nA?X@dB?T@fAB~D@bD@ZBbEBzB@fAGrAAXGvA@vD@xC@^@tD@x@?V?v@?l@?\\BpD@nB?fA@jA?tA?T?\\?lA@nA?tA@dA?Z@bA?pB@vDAlBAV?LANAT?RAXCR?@CXQ|@Kf@Sz@ENOr@CRE\\Cb@KfCARCpAAv@AXCf@?DAT?LAHCfAAd@?D?lB?h@?VBjC?lB?x@@z@@fB?fD@fDE`BA|@?HA\\@V?lA@L?\\?x@?V@j@@t@?L?JB`@@T@NBN@N@V?f@@f@?`A?r@?L?xBAP?JALAPANIbAEb@?TAR?V?fH?p@@vD@xAC^C^CRA@ETC\\Af@?P?P?LA`@@\\BpA?^@j@?H@tA?n@?b@@b@?X?P?V@`A?v@@dA?V?vA@T?lB@jB@tA?XB|E?~A@zB@nB?V?V@t@?L?R?L@R?N?f@?h@@|@?\\?d@?b@@n@?pA@|B?d@?`@@t@?T?pA@v@@rA?v@@bD@~@?nA@H?tB@^@dC?P?j@@x@?x@?t@@P?dA@|A?\\?^@dC@zB?xA?N@V?fA@`ABfE?tABtJ?pB@rA?r@?H?|@?jB?@?j@@h@AL?\\?J@f@?|B?h@?|@?n@?N?|G?J@tE?d@@dC?p@AL@J?V@P@H?B?D@F@HBH@JDPDLDLDHDJDJHLFHFHLL?@TVTVn@v@NRh@h@NPVX^f@BJBFBFf@v@P`@DZDVBT@F?D@F?H?P@P?X?N?F?j@@pAIpB@f@?V?fA?j@?V@h@AjA?h@@~@?b@@^Af@@d@?X?bA?jA?b@@nC?J?d@Aj@?v@?P@dB?jA?bC?`A?\\@dH?`D?dC@fE?jD?T@`F@vB?jD?vC?X?`E@V@zCAb@?fAAX@fB@fA?T@|B?l@A~A?x@?XAzB?`A?dB?l@?P?F?H@^?Z?@?H?@?Z?h@?f@?j@?^?t@@j@BnAAV@|@@fB?bBG?"}, "start_location": {"lat": 29.81412, "lng": -95.327876}, "transit_details": {"arrival_stop": {"location": {"lat": 29.80163, "lng": -95.454342}, "name": "W 18th St @ Northwest Fwy"}, "arrival_time": {"text": "4:33pm", "time_zone": "America/Chicago", "value": 1642026820}, "departure_stop": {"location": {"lat": 29.81412, "lng": -95.327876}, "name": "Kashmere Transit Center"}, "departure_time": {"text": "4:00pm", "time_zone": "America/Chicago", "value": 1642024800}, "headsign": "Memorial City", "line": {"agencies": [{"name": "Metropolitan Transit Authority of Harris County", "phone": "1 (713) 635-4000", "url": "http://www.ridemetro.org/"}], "color": "#004080", "name": "Long Point / Cavalcade", "short_name": "26", "text_color": "#ffffff", "url": "https://www.ridemetro.org/MetroPDFs/Schedules/BusSchedules/n026-Long-Point-Cavalcade.pdf", "vehicle": {"icon": "//maps.gstatic.com/mapfiles/transit/iw2/6/bus2.png", "name": "Bus", "type": "BUS"}}, "num_stops": 52, "trip_short_name": "LONGPOINT"}, "travel_mode": "TRANSIT"}, {"distance": {"text": "322 ft", "value": 98}, "duration": {"text": "1 min", "value": 77}, "end_location": {"lat": 29.8019199, "lng": -95.45428179999999}, "html_instructions": "Walk to 4400 W 18th St, Houston, TX 77092, USA", "polyline": {"points": "es{tDrlreQ?z@YEc@E?G@Q@a@"}, "start_location": {"lat": 29.8016264, "lng": -95.454342}, "steps": [{"distance": {"text": "95 ft", "value": 29}, "duration": {"text": "1 min", "value": 22}, "end_location": {"lat": 29.8016252, "lng": -95.45463819999999}, "html_instructions": "Head <b>west</b> on <b>W 18th St</b>/<wbr/><b>NW Mall</b>", "polyline": {"points": "es{tDrlreQ?z@"}, "start_location": {"lat": 29.8016264, "lng": -95.454342}, "travel_mode": "WALKING"}, {"distance": {"text": "131 ft", "value": 40}, "duration": {"text": "1 min", "value": 33}, "end_location": {"lat": 29.8019405, "lng": -95.4545788}, "html_instructions": "Turn <b>right</b><div style=\"font-size:0.9em\">Restricted usage road</div>", "maneuver": "turn-right", "polyline": {"points": "es{tDnnreQYEc@E"}, "start_location": {"lat": 29.8016252, "lng": -95.45463819999999}, "travel_mode": "WALKING"}, {"distance": {"text": "95 ft", "value": 29}, "duration": {"text": "1 min", "value": 22}, "end_location": {"lat": 29.8019199, "lng": -95.45428179999999}, "html_instructions": "Turn <b>right</b><div style=\"font-size:0.9em\">Restricted usage road</div><div style=\"font-size:0.9em\">Destination will be on the left</div>", "maneuver": "turn-right", "polyline": {"points": "cu{tDbnreQ?G@Q@a@"}, "start_location": {"lat": 29.8019405, "lng": -95.4545788}, "travel_mode": "WALKING"}], "travel_mode": "WALKING"}], "traffic_speed_entry": [], "via_waypoint": []}], "overview_polyline": {"points": "sfutDf~ddQ`@XLDDAx@}Af@cA@UCwA}@?qDFiABc@@CNI^CNMp@Mx@ABBBB?BUDI@@Gd@?@c@IoDo@GZ@DB?BS@CD?VDJDCR?BGCLBG`@m@|D]fCoBvNi@dEy@`GiAnHi@~CgAzHM`AWvBu@jFc@`DI|@K`AEjBChF@fF@|D@xCDR?hA?jFAfC?bGE|B?fDBpJ@~D?xA@vABFBTHhAJpAB\\DhA?hADZFPAPEjBKzCq@zJiBnTqAtN_ArKi@tFMtAEl@}BfWgBhRcAdLm@|GiAnLg@dGOnCQhD?rCAfB?dBDlHB|C@jBDfJLnWBxATvDRhB\\|BTlAh@nB^pAvEhOpEbOj@|Bb@fC\\vBJ|AHvE?~N?nNAlO@bKC~BQb@Cn@MrBMnBCtA?zAmABs@@G^DW@O]@_BHgAL@FkDl@yA\\w@JoADoKBaEDcJBeDAoDIIDeKFaE?sIBcB@UFkCFiDTiGBsADqAFwAn@aBx@_A\\aBByKD}GD}@@k@QeDD_F?cCLUD}@?s@@g@?eB?qQJi@@UGiACqB?}@?_@E}CD}E?cMFsEDq@@?^DzTDhLF~Y?lAi@b@u@l@y@l@Sa@?SFIj@YFNGOp@s@TDHLA\\u@l@y@l@AzAl@?pBCjHC?L|DC|EAvBAbAE|@KjBKhDY|ACdQI~OGpDA@pHFtHFdG@zBGvAM|DEp@QdBi@jC}@tDcA|GcAtGKl@WjBu@pGm@jFc@jEo@fFc@jDs@`Gg@xDOlCAbAB|GLlTF~H@fAGrAIpBBpIDfHBtHDjPBzF@hHCdCCfAIhA]dBYjASfAI`ASdHG|AGdC?tDDnJ@nG@fDE`BAfA?t@@rDBfCFrAD^BhDAlEEz@OfBAh@@hPAxBGr@GVEdAArAFzDBzGPhf@Xbu@Prb@Fnd@@lU@pEBv@F`@Rx@Zn@\\b@|DpE^f@BJFNf@v@P`@Jr@Fj@@fA@tCIpB@f@?~A?xDBlD@vL?rODve@BnZ@pG@rCAlCApG?lD@xC?hDDpE@jEG??z@YEc@E?GBs@"}, "summary": "", "warnings": ["Walking directions are in beta. Use caution \u2013 This route may be missing sidewalks or pedestrian paths."], "waypoint_order": []}, {"bounds": {"northeast": {"lat": 29.804029, "lng": -95.2204259}, "southwest": {"lat": 29.755077, "lng": -95.45463819999999}}, "copyrights": "Map data \u00a92022", "legs": [{"arrival_time": {"text": "4:34pm", "time_zone": "America/Chicago", "value": 1642026897}, "departure_time": {"text": "3:07pm", "time_zone": "America/Chicago", "value": 1642021660}, "distance": {"text": "19.1 mi", "value": 30739}, "duration": {"text": "1 hour 27 mins", "value": 5237}, "end_address": "4400 W 18th St, Houston, TX 77092, USA", "end_location": {"lat": 29.8019199, "lng": -95.45428179999999}, "start_address": "1262 Mae Dr, Houston, TX 77015, USA", "start_location": {"lat": 29.7688993, "lng": -95.22163499999999}, "steps": [{"distance": {"text": "0.4 mi", "value": 705}, "duration": {"text": "9 mins", "value": 568}, "end_location": {"lat": 29.7709336, "lng": -95.2213854}, "html_instructions": "Walk to East Fwy @ Mae Dr", "polyline": {"points": "sfutDf~ddQLHRNHBB@BA@?BEt@wAVg@FKBGBG@E?G?GCwA}@?_BBqAB[@m@@c@@CNCLEPCL?@ERCL?@CLCJERALAJA@?@?BB?@?@??A@A?G@I@G?A@?@?@@?@?@ABAF?HCH?@?@A?EAOCKCKAUEOCSEa@IGAu@OIAA@A@AJAJ?@?@?@@?@?@?@??C?C@K@CBA@@F@NBJDCR?B"}, "start_location": {"lat": 29.7688993, "lng": -95.22163499999999}, "steps": [{"distance": {"text": "0.1 mi", "value": 184}, "duration": {"text": "2 mins", "value": 132}, "end_location": {"lat": 29.7681548, "lng": -95.2204259}, "html_instructions": "Head <b>southwest</b> toward <b>Mae Dr</b>", "polyline": {"points": "sfutDf~ddQLHRNHBB@BA@?BEt@wAVg@FKBGBG@E?G?GCwA"}, "start_location": {"lat": 29.7688993, "lng": -95.22163499999999}, "travel_mode": "WALKING"}, {"distance": {"text": "0.1 mi", "value": 194}, "duration": {"text": "2 mins", "value": 147}, "end_location": {"lat": 29.7699014, "lng": -95.220501}, "html_instructions": "Turn <b>left</b> onto <b>Mae Dr</b>", "maneuver": "turn-left", "polyline": {"points": "}autDtvddQ}@?_BBqAB[@m@@c@@"}, "start_location": {"lat": 29.7681548, "lng": -95.2204259}, "travel_mode": "WALKING"}, {"distance": {"text": "0.2 mi", "value": 315}, "duration": {"text": "5 mins", "value": 281}, "end_location": {"lat": 29.7709095, "lng": -95.221266}, "html_instructions": "Turn <b>left</b>", "maneuver": "turn-left", "polyline": {"points": "{lutDbwddQCNCLEPCL?@ERCL?@CLCJERALAJA@?@?BB?@?@??A@A?G@I@G?A@?@?@@?@?@ABAF?HCH?@?@A?EAOCKCKAUEOCSEa@IGAu@OIAA@A@AJAJ?@?@?@@?@?@?@??C?C@K@CBA@@F@NBJD"}, "start_location": {"lat": 29.7699014, "lng": -95.220501}, "travel_mode": "WALKING"}, {"distance": {"text": "39 ft", "value": 12}, "duration": {"text": "1 min", "value": 8}, "end_location": {"lat": 29.7709336, "lng": -95.2213854}, "html_instructions": "Turn <b>right</b> onto <b>East Fwy</b>/<wbr/><b>E Freeway Service Rd</b><div style=\"font-size:0.9em\">Destination will be on the right</div>", "maneuver": "turn-right", "polyline": {"points": "esutD|{ddQCR?B"}, "start_location": {"lat": 29.7709095, "lng": -95.221266}, "travel_mode": "WALKING"}], "travel_mode": "WALKING"}, {"distance": {"text": "9.7 mi", "value": 15587}, "duration": {"text": "28 mins", "value": 1672}, "end_location": {"lat": 29.7551357, "lng": -95.3652108}, "html_instructions": "Bus towards Downtown", "polyline": {"points": "qsutDp|ddQLBG`@In@c@lCK~@QfAYvBQnAc@zC_@rCMbAEXGf@M~@g@pDQnAo@rEYzAIb@EZQfAGVUzAq@~EADKz@Gh@ARIj@CLCPO`AUfBKn@SrAOlAARGh@Ir@ALAd@CdAC`A?jA?V?bA@f@?lA?dA?j@@nC?l@@xCDR?Z?l@?xD?p@Ad@?n@?Z?T@n@?fA?dAAdAE|BAN@vC@|B?jC?\\@hA?z@?Z?l@@x@?l@?j@@vABF@F@L@\\Fj@Fl@@J?J@JBP?JDl@?Z?@?`@?D?^@NBJFPAPAp@Cx@CpAGhAGjAOzBG~@QrBShCEn@]lDG|@Ix@E`@W`DAJABo@hHIz@UjC{@tJC\\EPc@bF?@Ef@Eh@A@?B?BAFC\\E^ANADc@~E_@bEa@rEMxAIp@CXC\\OxAQtBQdBSxBMnAEb@ADQxBAJM|AGf@Gp@I|@AH_@jEE\\Eh@KnAEV_@rDWrCg@dGOnCQhD?rCAh@?|@?dA?^?Z@d@?tABtC@h@@pA?`@?J@b@?@?B?b@?P?@?R@pB?X@v@?z@@pA?V?r@@`A@`@?h@@pA?dA@h@?h@?f@?h@@~@@bB?@?N@`A?JBr@?J?LBd@Dt@Dz@D^?BHp@Fn@@BBPL~@Hf@@BF^Ll@J`@\\lA?@HVDLNh@L^BHJZHTVx@bC`IBHNf@^hAfCnI@Bf@dBBHDPLb@R|@Jj@Hb@Hb@BR@HBPJl@Jl@Dl@Dn@DlBBhB?~A?lB?xD?vB?dC?bC?|@?~A?d@?B?L?N?d@?dDAzD?dC@tD?lEC~BQb@ATAXGrAE^Ep@CTAVANAZAN?@?f@?h@?p@u@@W@E?m@@G`@Kr@XAP?T?PA`A?@n@?n@?jAAzA?V?d@?p@?LHB?NB^@P?N?T@T?r@?bA?L@\\?N@~@?B@V?j@@J?P?H@b@?B@Z@H?T?T@z@@T?D@DPb@@f@@`@@ZB`@B\\Fp@B^F^Jr@F\\Nz@Nv@Lh@T~@Pp@FTFTLd@Tt@~@bDFRFRJ\\BD@FDLBJBJ@Db@vAV|@T`A`@rAb@`BNf@@JjA|DhBpGHXDPN^J\\Jh@j@pBj@jB^tAV`Aj@nB^tAFLFRPl@DPDLHZFVH\\FXDXAD@JDXJxAFpABpA?FBrCDH@D@F@F@H?R?Z?^?f@@h@?f@?j@@Z?H?^AP?Z@j@?N?XBx@@^Dv@@T@DAH@VBr@BZDd@H|@DVFd@Lr@Jn@Pt@VhA@B\\tARv@Vx@Rp@Ph@FTd@rAj@dBBFN^Pd@P`@HPJPR\\NVLTR^TZ^f@j@n@f@f@b@\\b@\\JFl@`@B@@@^RPLVNF@TLNFb@Pb@LPH\\H@@D@VFtAV|ARRJt@Ld@JXDB@`AP@?`@F@?^HD@h@Hf@HPBf@BJBv@R@?RFJD@?^N?@RHLHf@Zb@f@x@n@\\VXRfAt@PLJFn@b@hAz@h@^^Zm@nAc@z@S`@y@`B]n@GLCFw@zAQ^KPO\\U`@KPSb@OVYj@KRo@nAs@tAw@zAGJ[l@EJGHcBnDOXs@tACH]l@vB~AVRJHbAt@dAx@~B`B\\XfCjBRNFDlBvAZRvCxBRLjBrARNxCvBrB|AKR"}, "start_location": {"lat": 29.770971, "lng": -95.221374}, "transit_details": {"arrival_stop": {"location": {"lat": 29.7551357, "lng": -95.3652108}, "name": "Fannin St @ Dallas St"}, "arrival_time": {"text": "3:45pm", "time_zone": "America/Chicago", "value": 1642023900}, "departure_stop": {"location": {"lat": 29.770971, "lng": -95.221374}, "name": "East Fwy @ Mae Dr"}, "departure_time": {"text": "3:17pm", "time_zone": "America/Chicago", "value": 1642022228}, "headsign": "Downtown", "line": {"agencies": [{"name": "Metropolitan Transit Authority of Harris County", "phone": "1 (713) 635-4000", "url": "http://www.ridemetro.org/"}], "color": "#004080", "name": "Northshore Express", "short_name": "137", "text_color": "#ffffff", "url": "https://www.ridemetro.org/MetroPDFs/Schedules/BusSchedules/n137-Northshore-Express.pdf", "vehicle": {"icon": "//maps.gstatic.com/mapfiles/transit/iw2/6/bus2.png", "name": "Bus", "type": "BUS"}}, "num_stops": 16, "trip_short_name": "NORTHSHO"}, "travel_mode": "TRANSIT"}, {"distance": {"text": "0.1 mi", "value": 165}, "duration": {"text": "2 mins", "value": 121}, "end_location": {"lat": 29.7561365, "lng": -95.36533639999999}, "html_instructions": "Walk to Lamar St @ Main St", "polyline": {"points": "kprtDd_aeQmByAKIMTgArB"}, "start_location": {"lat": 29.7550966, "lng": -95.3651496}, "steps": [{"distance": {"text": "262 ft", "value": 80}, "duration": {"text": "1 min", "value": 57}, "end_location": {"lat": 29.7557126, "lng": -95.36465249999999}, "html_instructions": "Head <b>northeast</b> on <b>Fannin St</b> toward <b>Lamar St</b>", "polyline": {"points": "kprtDd_aeQmByAKI"}, "start_location": {"lat": 29.7550966, "lng": -95.3651496}, "travel_mode": "WALKING"}, {"distance": {"text": "279 ft", "value": 85}, "duration": {"text": "1 min", "value": 64}, "end_location": {"lat": 29.7561365, "lng": -95.36533639999999}, "html_instructions": "Turn <b>left</b> onto <b>Lamar St</b><div style=\"font-size:0.9em\">Destination will be on the right</div>", "maneuver": "turn-left", "polyline": {"points": "etrtD`|`eQMTgArB"}, "start_location": {"lat": 29.7557126, "lng": -95.36465249999999}, "travel_mode": "WALKING"}], "travel_mode": "WALKING"}, {"distance": {"text": "5.4 mi", "value": 8742}, "duration": {"text": "23 mins", "value": 1380}, "end_location": {"lat": 29.804029, "lng": -95.398901}, "html_instructions": "Bus towards N Shepherd P&R", "polyline": {"points": "awrtDd`aeQJHMTADABCFA@OVwAnCuAnCMT_@x@gAtB]p@{@bB?@KViBdDIRMTkA|BdAz@t@f@RNbBnAj@r@Lj@BvA?TBVGT?b@?bBB|A@n@?L?B?@?f@?B?Z?@?F@b@?B?DAX@l@@T?\\@nA?h@?h@A|A@V?\\?nA?f@@d@AJAL?HCJGTEREp@C`@ANAd@?@?h@?nA@tA?R@dB?F@v@?H?T?JBt@BTDRLp@D^Dn@?b@@tA?`@@x@?h@@d@?X@`AB|C?v@@n@@R?H?P@p@?~@@dA@h@?rA@F?^@rA@f@@|B?lA?p@@P?LB|D@`C@lB@P?@?F@\\?Z?dA@fA@vABjB@dA?`@?^@T?hB@p@@|B@^B|C@rA?R?V?r@_B@{ABk@@uA@yAAa@A{A?O?aC?Y?O?I?Y@[@A?G@E?G@UBMDMFOF}@^_A^QHSH]NQFC@MBEB[DWDW@Y@m@Em@GMCIACAOCEAMCe@QSISIUM_@Q[KGEWMCAUMCCAAWQ[UECSOYUOKGG[WSKSIYMKCKEqCm@c@E_ABq@@yB@O?k@Bc@BQJO@Q@MBWNB[y@?c@?[?o@?oA@qA@S?O@G?cA?{EDm@?{ABa@@C?eA?[?aB?YAmA@kA@S@C?O@g@?[?s@BG?C?U?M?E?s@A}@@}A@I?gJDI?sHD{@@eJDK?S?E?{@@m@@yEBO?_JFS?gIFW?M?yDB{C@Y?kFBsB@Q?aC@mB@iB@W?yB@c@@_E@S?cJHK?qHF]?O?O@iE?_EDK?{@?i@@cB?gBBs@@_@?Q??R?L@R?N?f@?h@@|@M?"}, "start_location": {"lat": 29.756171, "lng": -95.365308}, "transit_details": {"arrival_stop": {"location": {"lat": 29.804029, "lng": -95.398901}, "name": "W 20th St @ Yale St"}, "arrival_time": {"text": "4:16pm", "time_zone": "America/Chicago", "value": 1642025760}, "departure_stop": {"location": {"lat": 29.756171, "lng": -95.365308}, "name": "Lamar St @ Main St"}, "departure_time": {"text": "3:53pm", "time_zone": "America/Chicago", "value": 1642024380}, "headsign": "N Shepherd P&R", "line": {"agencies": [{"name": "Metropolitan Transit Authority of Harris County", "phone": "1 (713) 635-4000", "url": "http://www.ridemetro.org/"}], "color": "#004080", "name": "Telephone / Heights", "short_name": "40", "text_color": "#ffffff", "url": "https://www.ridemetro.org/MetroPDFs/Schedules/BusSchedules/n040-Telephone-Heights.pdf", "vehicle": {"icon": "//maps.gstatic.com/mapfiles/transit/iw2/6/bus2.png", "name": "Bus", "type": "BUS"}}, "num_stops": 39, "trip_short_name": "TELEHEIGHT"}, "travel_mode": "TRANSIT"}, {"distance": {"text": "3.4 mi", "value": 5442}, "duration": {"text": "12 mins", "value": 725}, "end_location": {"lat": 29.80163, "lng": -95.454342}, "html_instructions": "Bus towards Memorial City", "polyline": {"points": "eb|tDbrgeQL??\\?d@?b@@n@?pA@|B?d@?`@@t@?T?pA@v@@rA?v@@bD@~@?nA@H?tB@^@dC?P?j@@x@?x@?t@@P?dA@|A?\\?^@dC@zB?xA?N@V?fA@`ABfE?tABtJ?pB@rA?r@?H?|@?jB?@?j@@h@AL?\\?J@f@?|B?h@?|@?n@?N?|G?J@tE?d@@dC?p@AL@J?V@P@H?B?D@F@HBH@JDPDLDLDHDJDJHLFHFHLL?@TVTVn@v@NRh@h@NPVX^f@BJBFBFf@v@P`@DZDVBT@F?D@F?H?P@P?X?N?F?j@@pAIpB@f@?V?fA?j@?V@h@AjA?h@@~@?b@@^Af@@d@?X?bA?jA?b@@nC?J?d@Aj@?v@?P@dB?jA?bC?`A?\\@dH?`D?dC@fE?jD?T@`F@vB?jD?vC?X?`E@V@zCAb@?fAAX@fB@fA?T@|B?l@A~A?x@?XAzB?`A?dB?l@?P?F?H@^?Z?@?H?@?Z?h@?f@?j@?^?t@@j@BnAAV@|@@fB?bBG?"}, "start_location": {"lat": 29.804029, "lng": -95.398901}, "transit_details": {"arrival_stop": {"location": {"lat": 29.80163, "lng": -95.454342}, "name": "W 18th St @ Northwest Fwy"}, "arrival_time": {"text": "4:33pm", "time_zone": "America/Chicago", "value": 1642026820}, "departure_stop": {"location": {"lat": 29.804029, "lng": -95.398901}, "name": "W 20th St @ Yale St"}, "departure_time": {"text": "4:21pm", "time_zone": "America/Chicago", "value": 1642026095}, "headsign": "Memorial City", "line": {"agencies": [{"name": "Metropolitan Transit Authority of Harris County", "phone": "1 (713) 635-4000", "url": "http://www.ridemetro.org/"}], "color": "#004080", "name": "Long Point / Cavalcade", "short_name": "26", "text_color": "#ffffff", "url": "https://www.ridemetro.org/MetroPDFs/Schedules/BusSchedules/n026-Long-Point-Cavalcade.pdf", "vehicle": {"icon": "//maps.gstatic.com/mapfiles/transit/iw2/6/bus2.png", "name": "Bus", "type": "BUS"}}, "num_stops": 18, "trip_short_name": "LONGPOINT"}, "travel_mode": "TRANSIT"}, {"distance": {"text": "322 ft", "value": 98}, "duration": {"text": "1 min", "value": 77}, "end_location": {"lat": 29.8019199, "lng": -95.45428179999999}, "html_instructions": "Walk to 4400 W 18th St, Houston, TX 77092, USA", "polyline": {"points": "es{tDrlreQ?z@YEc@E?G@Q@a@"}, "start_location": {"lat": 29.8016264, "lng": -95.454342}, "steps": [{"distance": {"text": "95 ft", "value": 29}, "duration": {"text": "1 min", "value": 22}, "end_location": {"lat": 29.8016252, "lng": -95.45463819999999}, "html_instructions": "Head <b>west</b> on <b>W 18th St</b>/<wbr/><b>NW Mall</b>", "polyline": {"points": "es{tDrlreQ?z@"}, "start_location": {"lat": 29.8016264, "lng": -95.454342}, "travel_mode": "WALKING"}, {"distance": {"text": "131 ft", "value": 40}, "duration": {"text": "1 min", "value": 33}, "end_location": {"lat": 29.8019405, "lng": -95.4545788}, "html_instructions": "Turn <b>right</b><div style=\"font-size:0.9em\">Restricted usage road</div>", "maneuver": "turn-right", "polyline": {"points": "es{tDnnreQYEc@E"}, "start_location": {"lat": 29.8016252, "lng": -95.45463819999999}, "travel_mode": "WALKING"}, {"distance": {"text": "95 ft", "value": 29}, "duration": {"text": "1 min", "value": 22}, "end_location": {"lat": 29.8019199, "lng": -95.45428179999999}, "html_instructions": "Turn <b>right</b><div style=\"font-size:0.9em\">Restricted usage road</div><div style=\"font-size:0.9em\">Destination will be on the left</div>", "maneuver": "turn-right", "polyline": {"points": "cu{tDbnreQ?G@Q@a@"}, "start_location": {"lat": 29.8019405, "lng": -95.4545788}, "travel_mode": "WALKING"}], "travel_mode": "WALKING"}], "traffic_speed_entry": [], "via_waypoint": []}], "overview_polyline": {"points": "sfutDf~ddQ`@XLDDAx@}Af@cA@UCwA}@?qDFiABc@@CNI^CNMp@Mx@ABBBB?BUDI@@Gd@?@c@IoDo@GZ@DB?BS@CD?VDJDCR?BGCLBG`@m@|D]fCoBvNi@dEy@`GiAnHi@~CgAzHM`AWvBu@jFc@`DI|@K`AEjBChF@fF@|D@xCDR?hA?jFAfC?bGE|B?fDBpJ@~D?xA@vABFBTHhAJpAB\\DhA?hADZFPAPEjBKzCq@zJiBnTqAtN_ArKi@tFMtAEl@}BfWgBhRcAdLm@|GiAnLg@dGOnCQhD?rCAfB?dBDlHB|C@jBDfJLnWBxATvDRhB\\|BTlAh@nB^pAvEhOpEbOj@|Bb@fC\\vBJ|AHvE?~N?nNAlO@bKC~BQb@Cn@MrBMnBCtA?zAmABs@@StArAC`A?@n@?zBAjE?LHBBn@@v@DlGFnDBpB@ZRh@HfCVnCr@dE|@pDjC`JbBjGvAhFdEzNZ|@v@zCnCrJ`AdD\\rAPv@B^Fd@RjDBxABrCDHBLBP?vBBxCAvADnCJrBFpB\\`DXbBh@~BjAjErAdEpArDz@bBfAhBjAvAjAdA`BhAjAr@pAh@tAb@\\HrDj@RJt@L~@PhBZpATlBTxA`@t@Zt@d@b@f@x@n@v@j@xAbAnDfC^Zm@nAw@|AcBfDkDzGkFfKoDhHa@v@nCrBtGzE`EzCbUlPKRFKyBcBuAhCEEJHOZEJ_ExHsCvFqDbHWh@kA|BdAz@hAv@bBnAj@r@Lj@BvABl@GT?b@B`E@`A?l@@zCBlD?|D?hDAVK`@EREp@Ep@A`DDzHFjARdAJnA@xBBjDDpHH`IFtNJhNJrNL`R?j@?r@_B@gCDoD?oGAmA@k@BG@c@H{CnAuAj@s@NiAH{AMMCc@IgA_@i@W{@]y@c@y@m@cAu@c@_@g@Ue@Q}Cs@c@E_ABkDB{@Bc@BQJa@BMBWNB[y@?_A?qEBoB@gKJgE?gB?_BBwA@uABeC?yMFeZPec@Va[Lk`@VyPH_HDQ??R@`@@~CM?L??bABbH@rCHrQDbORfo@BrK?tJ@zVD~@BZPt@Vn@f@n@zAhBhAnAv@`AFRj@~@V|@Jz@BrC@pAIpB@~@@tDAtB@bB@fC?xMBnZ@nOBxI?bIBnKAlFBhGCnH@tH?fEBhEBdD?bBG??z@}@KB{@"}, "summary": "", "warnings": ["Walking directions are in beta. Use caution \u2013 This route may be missing sidewalks or pedestrian paths."], "waypoint_order": []}, {"bounds": {"northeast": {"lat": 29.804135, "lng": -95.2204259}, "southwest": {"lat": 29.7573003, "lng": -95.45463819999999}}, "copyrights": "Map data \u00a92022", "legs": [{"arrival_time": {"text": "4:34pm", "time_zone": "America/Chicago", "value": 1642026897}, "departure_time": {"text": "3:07pm", "time_zone": "America/Chicago", "value": 1642021660}, "distance": {"text": "20.0 mi", "value": 32251}, "duration": {"text": "1 hour 27 mins", "value": 5237}, "end_address": "4400 W 18th St, Houston, TX 77092, USA", "end_location": {"lat": 29.8019199, "lng": -95.45428179999999}, "start_address": "1262 Mae Dr, Houston, TX 77015, USA", "start_location": {"lat": 29.7688993, "lng": -95.22163499999999}, "steps": [{"distance": {"text": "0.4 mi", "value": 705}, "duration": {"text": "9 mins", "value": 568}, "end_location": {"lat": 29.7709336, "lng": -95.2213854}, "html_instructions": "Walk to East Fwy @ Mae Dr", "polyline": {"points": "sfutDf~ddQLHRNHBB@BA@?BEt@wAVg@FKBGBG@E?G?GCwA}@?_BBqAB[@m@@c@@CNCLEPCL?@ERCL?@CLCJERALAJA@?@?BB?@?@??A@A?G@I@G?A@?@?@@?@?@ABAF?HCH?@?@A?EAOCKCKAUEOCSEa@IGAu@OIAA@A@AJAJ?@?@?@@?@?@?@??C?C@K@CBA@@F@NBJDCR?B"}, "start_location": {"lat": 29.7688993, "lng": -95.22163499999999}, "steps": [{"distance": {"text": "0.1 mi", "value": 184}, "duration": {"text": "2 mins", "value": 132}, "end_location": {"lat": 29.7681548, "lng": -95.2204259}, "html_instructions": "Head <b>southwest</b> toward <b>Mae Dr</b>", "polyline": {"points": "sfutDf~ddQLHRNHBB@BA@?BEt@wAVg@FKBGBG@E?G?GCwA"}, "start_location": {"lat": 29.7688993, "lng": -95.22163499999999}, "travel_mode": "WALKING"}, {"distance": {"text": "0.1 mi", "value": 194}, "duration": {"text": "2 mins", "value": 147}, "end_location": {"lat": 29.7699014, "lng": -95.220501}, "html_instructions": "Turn <b>left</b> onto <b>Mae Dr</b>", "maneuver": "turn-left", "polyline": {"points": "}autDtvddQ}@?_BBqAB[@m@@c@@"}, "start_location": {"lat": 29.7681548, "lng": -95.2204259}, "travel_mode": "WALKING"}, {"distance": {"text": "0.2 mi", "value": 315}, "duration": {"text": "5 mins", "value": 281}, "end_location": {"lat": 29.7709095, "lng": -95.221266}, "html_instructions": "Turn <b>left</b>", "maneuver": "turn-left", "polyline": {"points": "{lutDbwddQCNCLEPCL?@ERCL?@CLCJERALAJA@?@?BB?@?@??A@A?G@I@G?A@?@?@@?@?@ABAF?HCH?@?@A?EAOCKCKAUEOCSEa@IGAu@OIAA@A@AJAJ?@?@?@@?@?@?@??C?C@K@CBA@@F@NBJD"}, "start_location": {"lat": 29.7699014, "lng": -95.220501}, "travel_mode": "WALKING"}, {"distance": {"text": "39 ft", "value": 12}, "duration": {"text": "1 min", "value": 8}, "end_location": {"lat": 29.7709336, "lng": -95.2213854}, "html_instructions": "Turn <b>right</b> onto <b>East Fwy</b>/<wbr/><b>E Freeway Service Rd</b><div style=\"font-size:0.9em\">Destination will be on the right</div>", "maneuver": "turn-right", "polyline": {"points": "esutD|{ddQCR?B"}, "start_location": {"lat": 29.7709095, "lng": -95.221266}, "travel_mode": "WALKING"}], "travel_mode": "WALKING"}, {"distance": {"text": "8.9 mi", "value": 14278}, "duration": {"text": "23 mins", "value": 1352}, "end_location": {"lat": 29.759659, "lng": -95.3563}, "html_instructions": "Bus towards Downtown", "polyline": {"points": "qsutDp|ddQLBG`@In@c@lCK~@QfAYvBQnAc@zC_@rCMbAEXGf@M~@g@pDQnAo@rEYzAIb@EZQfAGVUzAq@~EADKz@Gh@ARIj@CLCPO`AUfBKn@SrAOlAARGh@Ir@ALAd@CdAC`A?jA?V?bA@f@?lA?dA?j@@nC?l@@xCDR?Z?l@?xD?p@Ad@?n@?Z?T@n@?fA?dAAdAE|BAN@vC@|B?jC?\\@hA?z@?Z?l@@x@?l@?j@@vABF@F@L@\\Fj@Fl@@J?J@JBP?JDl@?Z?@?`@?D?^@NBJFPAPAp@Cx@CpAGhAGjAOzBG~@QrBShCEn@]lDG|@Ix@E`@W`DAJABo@hHIz@UjC{@tJC\\EPc@bF?@Ef@Eh@A@?B?BAFC\\E^ANADc@~E_@bEa@rEMxAIp@CXC\\OxAQtBQdBSxBMnAEb@ADQxBAJM|AGf@Gp@I|@AH_@jEE\\Eh@KnAEV_@rDWrCg@dGOnCQhD?rCAh@?|@?dA?^?Z@d@?tABtC@h@@pA?`@?J@b@?@?B?b@?P?@?R@pB?X@v@?z@@pA?V?r@@`A@`@?h@@pA?dA@h@?h@?f@?h@@~@@bB?@?N@`A?JBr@?J?LBd@Dt@Dz@D^?BHp@Fn@@BBPL~@Hf@@BF^Ll@J`@\\lA?@HVDLNh@L^BHJZHTVx@bC`IBHNf@^hAfCnI@Bf@dBBHDPLb@R|@Jj@Hb@Hb@BR@HBPJl@Jl@Dl@Dn@DlBBhB?~A?lB?xD?vB?dC?bC?|@?~A?d@?B?L?N?d@?dDAzD?dC@tD?lEC~BQb@ATAXGrAE^Ep@CTAVANAZAN?@?f@?h@?p@u@@W@E?m@@G`@Kr@XAP?T?PA`A?@n@?n@?jAAzA?V?d@?p@?LHB?NB^@P?N?T@T?r@?bA?L@\\?N@~@?B@V?j@@J?P?H@b@?B@Z@H?T?T@z@@T?D@DPb@@f@@`@@ZB`@B\\Fp@B^F^Jr@F\\Nz@Nv@Lh@T~@Pp@FTFTLd@Tt@~@bDFRFRJ\\BD@FDLBJBJ@Db@vAV|@T`A`@rAb@`BNf@@JjA|DhBpGHXDPN^J\\Jh@j@pBj@jB^tAV`Aj@nB^tAFLFRPl@DPDLHZFVH\\FXDXAD@JDXJxAFpABpA?FBrCDH@D@F@F@H?R?Z?^?f@@h@?f@?j@@Z?H?^AP?Z@j@?N?XBx@@^Dv@@T@DAH@VBr@BZDd@H|@DVFd@Lr@Jn@Pt@VhA@B\\tARv@Vx@Rp@Ph@FTd@rAj@dBBFN^Pd@P`@HPJPR\\NVLTR^TZ^f@j@n@f@f@b@\\b@\\JFl@`@B@@@^RPLVNF@TLNFb@Pb@LPH\\H@@D@VFtAV|ARRJt@Ld@JXDB@`AP@?`@F@?^HD@h@Hf@HPBf@BJBv@R@?RFJD@?^N?@RHLHf@Zb@f@x@n@\\VXRfAt@PLJFn@b@hAz@h@^^Zm@nAc@z@S`@y@`B]n@GLCFw@zAQ^KPO\\U`@KPSb@OVYj@KI"}, "start_location": {"lat": 29.770971, "lng": -95.221374}, "transit_details": {"arrival_stop": {"location": {"lat": 29.759659, "lng": -95.3563}, "name": "Congress St @ La Branch St"}, "arrival_time": {"text": "3:39pm", "time_zone": "America/Chicago", "value": 1642023580}, "departure_stop": {"location": {"lat": 29.770971, "lng": -95.221374}, "name": "East Fwy @ Mae Dr"}, "departure_time": {"text": "3:17pm", "time_zone": "America/Chicago", "value": 1642022228}, "headsign": "Downtown", "line": {"agencies": [{"name": "Metropolitan Transit Authority of Harris County", "phone": "1 (713) 635-4000", "url": "http://www.ridemetro.org/"}], "color": "#004080", "name": "Northshore Express", "short_name": "137", "text_color": "#ffffff", "url": "https://www.ridemetro.org/MetroPDFs/Schedules/BusSchedules/n137-Northshore-Express.pdf", "vehicle": {"icon": "//maps.gstatic.com/mapfiles/transit/iw2/6/bus2.png", "name": "Bus", "type": "BUS"}}, "num_stops": 10, "trip_short_name": "NORTHSHO"}, "travel_mode": "TRANSIT"}, {"distance": {"text": "0.1 mi", "value": 202}, "duration": {"text": "2 mins", "value": 149}, "end_location": {"lat": 29.75992239999999, "lng": -95.3551232}, "html_instructions": "Walk to Franklin St @ Crawford St", "polyline": {"points": "ulstD~g_eQGLYSy@m@GEUOWQLWN[R_@NYNYDK"}, "start_location": {"lat": 29.7596287, "lng": -95.3563243}, "steps": [{"distance": {"text": "39 ft", "value": 12}, "duration": {"text": "1 min", "value": 9}, "end_location": {"lat": 29.7596705, "lng": -95.35639359999999}, "html_instructions": "Head <b>northwest</b> on <b>Congress St</b> toward <b>La Branch St</b>", "polyline": {"points": "ulstD~g_eQGL"}, "start_location": {"lat": 29.7596287, "lng": -95.3563243}, "travel_mode": "WALKING"}, {"distance": {"text": "328 ft", "value": 100}, "duration": {"text": "1 min", "value": 74}, "end_location": {"lat": 29.760358, "lng": -95.35585499999999}, "html_instructions": "Turn <b>right</b> onto <b>La Branch St</b>", "maneuver": "turn-right", "polyline": {"points": "}lstDlh_eQYSy@m@GEUOWQ"}, "start_location": {"lat": 29.7596705, "lng": -95.35639359999999}, "travel_mode": "WALKING"}, {"distance": {"text": "295 ft", "value": 90}, "duration": {"text": "1 min", "value": 66}, "end_location": {"lat": 29.75992239999999, "lng": -95.3551232}, "html_instructions": "Turn <b>right</b> onto <b>Franklin St</b><div style=\"font-size:0.9em\">Destination will be on the right</div>", "maneuver": "turn-right", "polyline": {"points": "gqstDbe_eQLWN[R_@NYNYDK"}, "start_location": {"lat": 29.760358, "lng": -95.35585499999999}, "travel_mode": "WALKING"}], "travel_mode": "WALKING"}, {"distance": {"text": "3.7 mi", "value": 5947}, "duration": {"text": "15 mins", "value": 921}, "end_location": {"lat": 29.801755, "lng": -95.342097}, "html_instructions": "Bus towards Greenspoint TC", "polyline": {"points": "knstDr`_eQIGLWP]`@w@LUBEHQZk@^w@NYN[`@u@^{@NWRa@`@y@Zm@BCFMFODIDG\\w@TI~AiD?]?CAK?MAK?AAOC]EUGUGYEOSq@GOGSOe@aA_DUw@GQQs@CISs@c@y@MWc@{@MUA?KWCGCKAAGWIa@Ke@C[Uo@EKMWMQEGKKQOAAAASMi@_@OCg@_@s@i@s@g@c@[MKOMWOEC_@Uc@SYMAAKCUIe@Si@Sa@O_@KOEQEa@AeCAu@?oA?y@@{@@K?sA?M?c@?u@Ca@@k@?M?gBBK?s@?S?}@@E?K@C?A?SDODKBA?A@C@OFKBA@ODEBm@Rc@Pa@B[BQ?e@?cAAC?U?MAA?Y?YAM?k@Ac@?W?O?C?M?q@AMAMAICIAGCICIEOKYQWQKMyAcBq@u@WYYYMIIEME]KSAWAw@?]?]A{BBy@?w@?_@?i@B]?c@?K?_B@A?O@e@?_@?]?i@?c@?Q?Q?mC@c@?S?cEB[?M@a@?_A?I?E?m@?O?sA?I?uA?q@@I?oB@I?Q?q@?g@?A?E?_@?K?K?M?[?W?Q?U@qB@]?Q@S?{B?C?U?_@?sIDY?{FBc@@eD@U?iGDc@@cDB_FFQ?aA@_A?A?oC@kIDO?wCBgKFK?qA@kB@o@AgBCu@?k@?m@?AS"}, "start_location": {"lat": 29.759905, "lng": -95.355137}, "transit_details": {"arrival_stop": {"location": {"lat": 29.801755, "lng": -95.342097}, "name": "Jensen Dr @ Cavalcade St"}, "arrival_time": {"text": "4:01pm", "time_zone": "America/Chicago", "value": 1642024860}, "departure_stop": {"location": {"lat": 29.759905, "lng": -95.355137}, "name": "Franklin St @ Crawford St"}, "departure_time": {"text": "3:45pm", "time_zone": "America/Chicago", "value": 1642023939}, "headsign": "Greenspoint TC", "line": {"agencies": [{"name": "Metropolitan Transit Authority of Harris County", "phone": "1 (713) 635-4000", "url": "http://www.ridemetro.org/"}], "color": "#004080", "name": "Jensen / Greens", "short_name": "6", "text_color": "#ffffff", "url": "https://www.ridemetro.org/MetroPDFs/Schedules/BusSchedules/n006-Jensen-Greens.pdf", "vehicle": {"icon": "//maps.gstatic.com/mapfiles/transit/iw2/6/bus2.png", "name": "Bus", "type": "BUS"}}, "num_stops": 24, "trip_short_name": "JENSENGREE"}, "travel_mode": "TRANSIT"}, {"distance": {"text": "207 ft", "value": 63}, "duration": {"text": "1 min", "value": 66}, "end_location": {"lat": 29.8021569, "lng": -95.34201689999999}, "html_instructions": "Walk to Cavalcade St @ Jensen Dr", "polyline": {"points": "}s{tDno|dQi@?M?O?O?D["}, "start_location": {"lat": 29.8017549, "lng": -95.3421599}, "steps": [{"distance": {"text": "148 ft", "value": 45}, "duration": {"text": "1 min", "value": 43}, "end_location": {"lat": 29.8021865, "lng": -95.3421642}, "html_instructions": "Head <b>north</b> on <b>Jensen Dr</b> toward <b>Cavalcade St</b>", "polyline": {"points": "}s{tDno|dQi@?M?O?O?"}, "start_location": {"lat": 29.8017549, "lng": -95.3421599}, "travel_mode": "WALKING"}, {"distance": {"text": "59 ft", "value": 18}, "duration": {"text": "1 min", "value": 23}, "end_location": {"lat": 29.8021569, "lng": -95.34201689999999}, "html_instructions": "Turn <b>right</b> onto <b>Cavalcade St</b>", "maneuver": "turn-right", "polyline": {"points": "uv{tDno|dQD["}, "start_location": {"lat": 29.8021865, "lng": -95.3421642}, "travel_mode": "WALKING"}], "travel_mode": "WALKING"}, {"distance": {"text": "6.8 mi", "value": 10958}, "duration": {"text": "26 mins", "value": 1569}, "end_location": {"lat": 29.80163, "lng": -95.454342}, "html_instructions": "Bus towards Memorial City", "polyline": {"points": "qv{tDpn|dQHBGb@K~@AHW|Bc@jEo@fFWlBK|@EVSbBQpAGr@Mp@Eb@CNOrAKdBCf@?HAx@?xB@d@@j@?pA@nA?X@dB?T@fAB~D@bD@ZBbEBzB@fAGrAAXGvA@vD@xC@^@tD@x@?V?v@?l@?\\BpD@nB?fA@jA?tA?T?\\?lA@nA?tA@dA?Z@bA?pB@vDAlBAV?LANAT?RAXCR?@CXQ|@Kf@Sz@ENOr@CRE\\Cb@KfCARCpAAv@AXCf@?DAT?LAHCfAAd@?D?lB?h@?VBjC?lB?x@@z@@fB?fD@fDE`BA|@?HA\\@V?lA@L?\\?x@?V@j@@t@?L?JB`@@T@NBN@N@V?f@@f@?`A?r@?L?xBAP?JALAPANIbAEb@?TAR?V?fH?p@@vD@xAC^C^CRA@ETC\\Af@?P?P?LA`@@\\BpA?^@j@?H@tA?n@?b@@b@?X?P?V@`A?v@@dA?V?vA@T?lB@jB@tA?XB|E?~A@zB@nB?V?V@t@?L?R?L@R?N?f@?h@@|@?\\?d@?b@@n@?pA@|B?d@?`@@t@?T?pA@v@@rA?v@@bD@~@?nA@H?tB@^@dC?P?j@@x@?x@?t@@P?dA@|A?\\?^@dC@zB?xA?N@V?fA@`ABfE?tABtJ?pB@rA?r@?H?|@?jB?@?j@@h@AL?\\?J@f@?|B?h@?|@?n@?N?|G?J@tE?d@@dC?p@AL@J?V@P@H?B?D@F@HBH@JDPDLDLDHDJDJHLFHFHLL?@TVTVn@v@NRh@h@NPVX^f@BJBFBFf@v@P`@DZDVBT@F?D@F?H?P@P?X?N?F?j@@pAIpB@f@?V?fA?j@?V@h@AjA?h@@~@?b@@^Af@@d@?X?bA?jA?b@@nC?J?d@Aj@?v@?P@dB?jA?bC?`A?\\@dH?`D?dC@fE?jD?T@`F@vB?jD?vC?X?`E@V@zCAb@?fAAX@fB@fA?T@|B?l@A~A?x@?XAzB?`A?dB?l@?P?F?H@^?Z?@?H?@?Z?h@?f@?j@?^?t@@j@BnAAV@|@@fB?bBG?"}, "start_location": {"lat": 29.802168, "lng": -95.34201399999999}, "transit_details": {"arrival_stop": {"location": {"lat": 29.80163, "lng": -95.454342}, "name": "W 18th St @ Northwest Fwy"}, "arrival_time": {"text": "4:33pm", "time_zone": "America/Chicago", "value": 1642026820}, "departure_stop": {"location": {"lat": 29.802168, "lng": -95.34201399999999}, "name": "Cavalcade St @ Jensen Dr"}, "departure_time": {"text": "4:07pm", "time_zone": "America/Chicago", "value": 1642025251}, "headsign": "Memorial City", "line": {"agencies": [{"name": "Metropolitan Transit Authority of Harris County", "phone": "1 (713) 635-4000", "url": "http://www.ridemetro.org/"}], "color": "#004080", "name": "Long Point / Cavalcade", "short_name": "26", "text_color": "#ffffff", "url": "https://www.ridemetro.org/MetroPDFs/Schedules/BusSchedules/n026-Long-Point-Cavalcade.pdf", "vehicle": {"icon": "//maps.gstatic.com/mapfiles/transit/iw2/6/bus2.png", "name": "Bus", "type": "BUS"}}, "num_stops": 41, "trip_short_name": "LONGPOINT"}, "travel_mode": "TRANSIT"}, {"distance": {"text": "322 ft", "value": 98}, "duration": {"text": "1 min", "value": 77}, "end_location": {"lat": 29.8019199, "lng": -95.45428179999999}, "html_instructions": "Walk to 4400 W 18th St, Houston, TX 77092, USA", "polyline": {"points": "es{tDrlreQ?z@YEc@E?G@Q@a@"}, "start_location": {"lat": 29.8016264, "lng": -95.454342}, "steps": [{"distance": {"text": "95 ft", "value": 29}, "duration": {"text": "1 min", "value": 22}, "end_location": {"lat": 29.8016252, "lng": -95.45463819999999}, "html_instructions": "Head <b>west</b> on <b>W 18th St</b>/<wbr/><b>NW Mall</b>", "polyline": {"points": "es{tDrlreQ?z@"}, "start_location": {"lat": 29.8016264, "lng": -95.454342}, "travel_mode": "WALKING"}, {"distance": {"text": "131 ft", "value": 40}, "duration": {"text": "1 min", "value": 33}, "end_location": {"lat": 29.8019405, "lng": -95.4545788}, "html_instructions": "Turn <b>right</b><div style=\"font-size:0.9em\">Restricted usage road</div>", "maneuver": "turn-right", "polyline": {"points": "es{tDnnreQYEc@E"}, "start_location": {"lat": 29.8016252, "lng": -95.45463819999999}, "travel_mode": "WALKING"}, {"distance": {"text": "95 ft", "value": 29}, "duration": {"text": "1 min", "value": 22}, "end_location": {"lat": 29.8019199, "lng": -95.45428179999999}, "html_instructions": "Turn <b>right</b><div style=\"font-size:0.9em\">Restricted usage road</div><div style=\"font-size:0.9em\">Destination will be on the left</div>", "maneuver": "turn-right", "polyline": {"points": "cu{tDbnreQ?G@Q@a@"}, "start_location": {"lat": 29.8019405, "lng": -95.4545788}, "travel_mode": "WALKING"}], "travel_mode": "WALKING"}], "traffic_speed_entry": [], "via_waypoint": []}], "overview_polyline": {"points": "sfutDf~ddQ`@XLDDAx@}Af@cA@UCwA}@?qDFiABc@@CNI^CNMp@Mx@ABBBB?BUDI@@Gd@?@c@IoDo@GZ@DB?BS@CD?VDJDCR?BGCLBG`@m@|D]fCoBvNi@dEy@`GiAnHi@~CgAzHM`AWvBu@jFc@`DI|@K`AEjBChF@fF@|D@xCDR?hA?jFAfC?bGE|B?fDBpJ@~D?xA@vABFBTHhAJpAB\\DhA?hADZFPAPEjBKzCq@zJiBnTqAtN_ArKi@tFMtAEl@}BfWgBhRcAdLm@|GiAnLg@dGOnCQhD?rCAfB?dBDlHB|C@jBDfJLnWBxATvDRhB\\|BTlAh@nB^pAvEhOpEbOj@|Bb@fC\\vBJ|AHvE?~N?nNAlO@bKC~BQb@Cn@MrBMnBCtA?zAmABs@@StArAC`A?@n@?zBAjE?LHBBn@@v@DlGFnDBpB@ZRh@HfCVnCr@dE|@pDjC`JbBjGvAhFdEzNZ|@v@zCnCrJ`AdD\\rAPv@B^Fd@RjDBxABrCDHBLBP?vBBxCAvADnCJrBFpB\\`DXbBh@~BjAjErAdEpArDz@bBfAhBjAvAjAdA`BhAjAr@pAh@tAb@\\HrDj@RJt@L~@PhBZpATlBTxA`@t@Zt@d@b@f@x@n@v@j@xAbAnDfC^Zm@nAw@|AcBfDkDzGYj@KIDBGLsAaA]UWQLWb@{@^s@DKBBIGLWr@uAv@yAfEsIn@oAJQ\\w@TI~AiD?]AOCk@Is@Oo@i@eBoBoGU}@Ss@c@y@q@sAOUUm@Qy@OaA[{@[i@e@e@UOi@_@OC{AiAwAcA{@m@_By@qBu@aA[a@KgDCeC?uEBq@?wAAmDBkC@Q@q@Ny@ZqAd@}@F{BAwCEoA?_AA[Ce@MkAu@oDaEg@c@WKq@MoAA{@AuDB_DBqC@eF@uOFsH@yKBcn@XwML}OF{PJ}DBwCEaB?m@?AS@Ji@?]?O?D[F@m@jFc@jEo@fFc@jDs@`Gg@xDOlCAbAB|GBdFHfMF~H@fAGrAIpBBpIDfHFnSDlM@hHCdCCfAIhA]dBYjASfAI`ASdHObF?tDDnJ@nG@fDE`BAfA?t@@rDBfCLrBBhDAlEEz@OfBAh@@hPAxBGr@GVEdAArAFzD@rDD~HHtVH|SN|a@Ll^Lz^?lI@nE?fDBvVBv@F`@Rx@Zn@xBjC`BhB^f@BJFNf@v@P`@Jr@Fj@B|EIpB@f@?~A?xDBxIBjk@D`a@@xK@pG@rCAlCApG@tF?zFDpE@jEG??z@YEc@E?GBs@"}, "summary": "", "warnings": ["Walking directions are in beta. Use caution \u2013 This route may be missing sidewalks or pedestrian paths."], "waypoint_order": []}, {"bounds": {"northeast": {"lat": 29.8026478, "lng": -95.2204259}, "southwest": {"lat": 29.7575968, "lng": -95.4593211}}, "copyrights": "Map data \u00a92022", "legs": [{"arrival_time": {"text": "4:35pm", "time_zone": "America/Chicago", "value": 1642026935}, "departure_time": {"text": "3:07pm", "time_zone": "America/Chicago", "value": 1642021660}, "distance": {"text": "18.6 mi", "value": 29930}, "duration": {"text": "1 hour 28 mins", "value": 5275}, "end_address": "4400 W 18th St, Houston, TX 77092, USA", "end_location": {"lat": 29.8019199, "lng": -95.45428179999999}, "start_address": "1262 Mae Dr, Houston, TX 77015, USA", "start_location": {"lat": 29.7688993, "lng": -95.22163499999999}, "steps": [{"distance": {"text": "0.4 mi", "value": 705}, "duration": {"text": "9 mins", "value": 568}, "end_location": {"lat": 29.7709336, "lng": -95.2213854}, "html_instructions": "Walk to East Fwy @ Mae Dr", "polyline": {"points": "sfutDf~ddQLHRNHBB@BA@?BEt@wAVg@FKBGBG@E?G?GCwA}@?_BBqAB[@m@@c@@CNCLEPCL?@ERCL?@CLCJERALAJA@?@?BB?@?@??A@A?G@I@G?A@?@?@@?@?@ABAF?HCH?@?@A?EAOCKCKAUEOCSEa@IGAu@OIAA@A@AJAJ?@?@?@@?@?@?@??C?C@K@CBA@@F@NBJDCR?B"}, "start_location": {"lat": 29.7688993, "lng": -95.22163499999999}, "steps": [{"distance": {"text": "0.1 mi", "value": 184}, "duration": {"text": "2 mins", "value": 132}, "end_location": {"lat": 29.7681548, "lng": -95.2204259}, "html_instructions": "Head <b>southwest</b> toward <b>Mae Dr</b>", "polyline": {"points": "sfutDf~ddQLHRNHBB@BA@?BEt@wAVg@FKBGBG@E?G?GCwA"}, "start_location": {"lat": 29.7688993, "lng": -95.22163499999999}, "travel_mode": "WALKING"}, {"distance": {"text": "0.1 mi", "value": 194}, "duration": {"text": "2 mins", "value": 147}, "end_location": {"lat": 29.7699014, "lng": -95.220501}, "html_instructions": "Turn <b>left</b> onto <b>Mae Dr</b>", "maneuver": "turn-left", "polyline": {"points": "}autDtvddQ}@?_BBqAB[@m@@c@@"}, "start_location": {"lat": 29.7681548, "lng": -95.2204259}, "travel_mode": "WALKING"}, {"distance": {"text": "0.2 mi", "value": 315}, "duration": {"text": "5 mins", "value": 281}, "end_location": {"lat": 29.7709095, "lng": -95.221266}, "html_instructions": "Turn <b>left</b>", "maneuver": "turn-left", "polyline": {"points": "{lutDbwddQCNCLEPCL?@ERCL?@CLCJERALAJA@?@?BB?@?@??A@A?G@I@G?A@?@?@@?@?@ABAF?HCH?@?@A?EAOCKCKAUEOCSEa@IGAu@OIAA@A@AJAJ?@?@?@@?@?@?@??C?C@K@CBA@@F@NBJD"}, "start_location": {"lat": 29.7699014, "lng": -95.220501}, "travel_mode": "WALKING"}, {"distance": {"text": "39 ft", "value": 12}, "duration": {"text": "1 min", "value": 8}, "end_location": {"lat": 29.7709336, "lng": -95.2213854}, "html_instructions": "Turn <b>right</b> onto <b>East Fwy</b>/<wbr/><b>E Freeway Service Rd</b><div style=\"font-size:0.9em\">Destination will be on the right</div>", "maneuver": "turn-right", "polyline": {"points": "esutD|{ddQCR?B"}, "start_location": {"lat": 29.7709095, "lng": -95.221266}, "travel_mode": "WALKING"}], "travel_mode": "WALKING"}, {"distance": {"text": "9.3 mi", "value": 14978}, "duration": {"text": "25 mins", "value": 1522}, "end_location": {"lat": 29.7596482, "lng": -95.3616397}, "html_instructions": "Bus towards Downtown", "polyline": {"points": "qsutDp|ddQLBG`@In@c@lCK~@QfAYvBQnAc@zC_@rCMbAEXGf@M~@g@pDQnAo@rEYzAIb@EZQfAGVUzAq@~EADKz@Gh@ARIj@CLCPO`AUfBKn@SrAOlAARGh@Ir@ALAd@CdAC`A?jA?V?bA@f@?lA?dA?j@@nC?l@@xCDR?Z?l@?xD?p@Ad@?n@?Z?T@n@?fA?dAAdAE|BAN@vC@|B?jC?\\@hA?z@?Z?l@@x@?l@?j@@vABF@F@L@\\Fj@Fl@@J?J@JBP?JDl@?Z?@?`@?D?^@NBJFPAPAp@Cx@CpAGhAGjAOzBG~@QrBShCEn@]lDG|@Ix@E`@W`DAJABo@hHIz@UjC{@tJC\\EPc@bF?@Ef@Eh@A@?B?BAFC\\E^ANADc@~E_@bEa@rEMxAIp@CXC\\OxAQtBQdBSxBMnAEb@ADQxBAJM|AGf@Gp@I|@AH_@jEE\\Eh@KnAEV_@rDWrCg@dGOnCQhD?rCAh@?|@?dA?^?Z@d@?tABtC@h@@pA?`@?J@b@?@?B?b@?P?@?R@pB?X@v@?z@@pA?V?r@@`A@`@?h@@pA?dA@h@?h@?f@?h@@~@@bB?@?N@`A?JBr@?J?LBd@Dt@Dz@D^?BHp@Fn@@BBPL~@Hf@@BF^Ll@J`@\\lA?@HVDLNh@L^BHJZHTVx@bC`IBHNf@^hAfCnI@Bf@dBBHDPLb@R|@Jj@Hb@Hb@BR@HBPJl@Jl@Dl@Dn@DlBBhB?~A?lB?xD?vB?dC?bC?|@?~A?d@?B?L?N?d@?dDAzD?dC@tD?lEC~BQb@ATAXGrAE^Ep@CTAVANAZAN?@?f@?h@?p@u@@W@E?m@@G`@Kr@XAP?T?PA`A?@n@?n@?jAAzA?V?d@?p@?LHB?NB^@P?N?T@T?r@?bA?L@\\?N@~@?B@V?j@@J?P?H@b@?B@Z@H?T?T@z@@T?D@DPb@@f@@`@@ZB`@B\\Fp@B^F^Jr@F\\Nz@Nv@Lh@T~@Pp@FTFTLd@Tt@~@bDFRFRJ\\BD@FDLBJBJ@Db@vAV|@T`A`@rAb@`BNf@@JjA|DhBpGHXDPN^J\\Jh@j@pBj@jB^tAV`Aj@nB^tAFLFRPl@DPDLHZFVH\\FXDXAD@JDXJxAFpABpA?FBrCDH@D@F@F@H?R?Z?^?f@@h@?f@?j@@Z?H?^AP?Z@j@?N?XBx@@^Dv@@T@DAH@VBr@BZDd@H|@DVFd@Lr@Jn@Pt@VhA@B\\tARv@Vx@Rp@Ph@FTd@rAj@dBBFN^Pd@P`@HPJPR\\NVLTR^TZ^f@j@n@f@f@b@\\b@\\JFl@`@B@@@^RPLVNF@TLNFb@Pb@LPH\\H@@D@VFtAV|ARRJt@Ld@JXDB@`AP@?`@F@?^HD@h@Hf@HPBf@BJBv@R@?RFJD@?^N?@RHLHf@Zb@f@x@n@\\VXRfAt@PLJFn@b@hAz@h@^^Zm@nAc@z@S`@y@`B]n@GLCFw@zAQ^KPO\\U`@KPSb@OVYj@KRo@nAs@tAw@zAGJ[l@EJGHcBnDOXs@tACH]l@vB~AVRJHbAt@dAx@~B`BKR"}, "start_location": {"lat": 29.770971, "lng": -95.221374}, "transit_details": {"arrival_stop": {"location": {"lat": 29.7596482, "lng": -95.3616397}, "name": "Fannin St @ Texas Ave"}, "arrival_time": {"text": "3:42pm", "time_zone": "America/Chicago", "value": 1642023750}, "departure_stop": {"location": {"lat": 29.770971, "lng": -95.221374}, "name": "East Fwy @ Mae Dr"}, "departure_time": {"text": "3:17pm", "time_zone": "America/Chicago", "value": 1642022228}, "headsign": "Downtown", "line": {"agencies": [{"name": "Metropolitan Transit Authority of Harris County", "phone": "1 (713) 635-4000", "url": "http://www.ridemetro.org/"}], "color": "#004080", "name": "Northshore Express", "short_name": "137", "text_color": "#ffffff", "url": "https://www.ridemetro.org/MetroPDFs/Schedules/BusSchedules/n137-Northshore-Express.pdf", "vehicle": {"icon": "//maps.gstatic.com/mapfiles/transit/iw2/6/bus2.png", "name": "Bus", "type": "BUS"}}, "num_stops": 13, "trip_short_name": "NORTHSHO"}, "travel_mode": "TRANSIT"}, {"distance": {"text": "0.3 mi", "value": 509}, "duration": {"text": "6 mins", "value": 384}, "end_location": {"lat": 29.7621626, "lng": -95.36456489999999}, "html_instructions": "Walk to Louisiana St @ Prairie St", "polyline": {"points": "qlstDzh`eQyB_Bm@lAWf@Sb@GNCBIP{@bBGHU`@GLOVqAdCGL}AxCTN"}, "start_location": {"lat": 29.7596125, "lng": -95.36157840000001}, "steps": [{"distance": {"text": "282 ft", "value": 86}, "duration": {"text": "1 min", "value": 61}, "end_location": {"lat": 29.7602218, "lng": -95.3611044}, "html_instructions": "Head <b>northeast</b> on <b>Fannin St</b> toward <b>Prairie St</b>", "polyline": {"points": "qlstDzh`eQyB_B"}, "start_location": {"lat": 29.7596125, "lng": -95.36157840000001}, "travel_mode": "WALKING"}, {"distance": {"text": "0.3 mi", "value": 405}, "duration": {"text": "5 mins", "value": 310}, "end_location": {"lat": 29.7622658, "lng": -95.3644813}, "html_instructions": "Turn <b>left</b> onto <b>Prairie St</b>", "maneuver": "turn-left", "polyline": {"points": "kpstDze`eQm@lAWf@Sb@GNCBIP{@bBGHU`@GLOVqAdCGL}AxC"}, "start_location": {"lat": 29.7602218, "lng": -95.3611044}, "travel_mode": "WALKING"}, {"distance": {"text": "59 ft", "value": 18}, "duration": {"text": "1 min", "value": 13}, "end_location": {"lat": 29.7621626, "lng": -95.36456489999999}, "html_instructions": "Turn <b>left</b> onto <b>Louisiana St</b>", "maneuver": "turn-left", "polyline": {"points": "e}stD~z`eQTN"}, "start_location": {"lat": 29.7622658, "lng": -95.3644813}, "travel_mode": "WALKING"}], "travel_mode": "WALKING"}, {"distance": {"text": "8.1 mi", "value": 13000}, "duration": {"text": "31 mins", "value": 1848}, "end_location": {"lat": 29.801027, "lng": -95.45922999999999}, "html_instructions": "Bus towards SH 249", "polyline": {"points": "k|stDh{`eQGL[UqCqBAAqCqBa@v@k@dAINIJGHA@A@GJGDC@C@C@E?M?C?Q?M?ICIEAAEGC\\SdBGd@E^O`A?BM|@M|@EZOjAALGX?@?@CJALGl@?@A@?BAHAJAHShAETCJEPCHCLGVWdAKXQh@O`@GTGLS^IPS\\AB}@~AGFADABMv@EV?@OfAOnAEXAPGd@Gn@?XGrACb@Cr@Ev@ALEp@AVEv@ALGrAEt@G~@?BGdAATGlACj@ItACb@AT?TAFG`AATCb@GzAGtAMfCANGfA?DKtBAHMfCEbAANALCr@AVAr@Al@?d@CrAAx@Cx@?NCzBAJAz@Cv@GnAQvCEz@EbAM~B?HAp@C|@GjCCj@MtFGHAB?BALCb@Af@?R?TA`@A`@ARGt@AVGp@AXGz@KtBCZ?B?@@D?B@D@FGlACd@A`@GtACZA\\KfBG|@Ez@C`@C\\A`@El@El@Cb@CZCf@Cd@AREp@APIzACXANATALANAHC\\AZATC\\A`@IbBEp@ALCp@GfAG~@G~@Cj@AXCVAL?BCd@AL?NCl@Cd@El@Ab@Ev@ANMxCCXAXAXQtCCl@?z@@dA?|A@d@?~B@d@?N?zA?P?N@d@?b@?X?\\?^?X?N?j@?b@@`@?t@@j@?j@?N@`@?z@@dC?V@h@?RARAr@AJ?NAP?RCZAV?FCxA?XExACpAClACnAAj@CvAC|@?NA`@Ab@GxAAVIhAI|BEf@KnDEv@Cv@EpAGlACz@?DA`@APCvAAPCDABCHC`AAPAF@JC@A@A@A@A@A@?@CBc@FKDG@C?IBC@C@C@C@A@EBMLwAlAc@\\sAhA_Av@MJa@^sBbB_Av@QLq@h@IHKHOLw@p@w@n@]Z_@ZSPGFIFaAz@EBe@b@QRUVY\\q@~@s@`AOPGF?@o@v@?@CB}@hAQPKNYd@c@|@ILg@bAU`@IPA@S`@g@bAw@zAq@rA}AxCkA|Bc@v@IPYh@Uf@IP?`@?DCHI\\I`@I`@CVATARA^?\\Ar@?^@`@@@?b@?@@^@hB?f@?XCjA?D?XCXCZEVId@Ot@Ot@GVUfAAD{@`E?@Mj@?@K^[|AMn@Sx@On@I`@I^[xAGZMn@Mh@Kf@Qx@Qr@_@rBg@`DKl@Gd@CXMdA?BALGj@CXCVCXE`@IfAMzBE|AAr@AXC?Ar@CbDAjCCpF@l@@v@AzG~@@X?V?Z^?r@Ap@?bAAtA?R?d@?XEAw@B?u@@S?_@AcA@cA@w@@k@ZA^@DA`AAN??H?P?f@?j@?l@?d@JCF@D?DABA@CDIDSB[@g@BUBM@AN]FGJY@K?MCUCKCCA?OGQAGAE?E@GDQJOPMD[BY@W?aAAY@c@?AVAzAAb@?f@?L?ZAn@?`B?R?f@sBNO@Q@Y?W?K@wA@y@@K?u@?wA@U?O?}@@I?Y?_@?_@@oA@oD@eABM?A?a@?c@?qA@W?w@?cA@s@?c@@_@?uA@a@?OAY?q@@c@?_@?[@cA@a@?U?G?C?E?]@S?S@]@c@?}@@M?w@@]?mA@_B@W?E?e@Aa@EQEWG[OUM[QIG_@Ui@i@e@_@OQQQOMCCc@a@MR{A|BU\\W`@sBtCg@z@a@L{@vA]b@Sd@w@lAYh@OQ"}, "start_location": {"lat": 29.762139, "lng": -95.364532}, "transit_details": {"arrival_stop": {"location": {"lat": 29.801027, "lng": -95.45922999999999}, "name": "Hempstead Rd @ W 18th St"}, "arrival_time": {"text": "4:25pm", "time_zone": "America/Chicago", "value": 1642026348}, "departure_stop": {"location": {"lat": 29.762139, "lng": -95.364532}, "name": "Louisiana St @ Prairie St"}, "departure_time": {"text": "3:55pm", "time_zone": "America/Chicago", "value": 1642024500}, "headsign": "SH 249", "line": {"agencies": [{"name": "Metropolitan Transit Authority of Harris County", "phone": "1 (713) 635-4000", "url": "http://www.ridemetro.org/"}], "color": "#004080", "name": "Antoine / Washington", "short_name": "85", "text_color": "#ffffff", "url": "https://www.ridemetro.org/MetroPDFs/Schedules/BusSchedules/n085-Antoine-Washington.pdf", "vehicle": {"icon": "//maps.gstatic.com/mapfiles/transit/iw2/6/bus2.png", "name": "Bus", "type": "BUS"}}, "num_stops": 43, "trip_short_name": "ANTOINWAS"}, "travel_mode": "TRANSIT"}, {"distance": {"text": "0.5 mi", "value": 738}, "duration": {"text": "10 mins", "value": 587}, "end_location": {"lat": 29.8019199, "lng": -95.45428179999999}, "html_instructions": "Walk to 4400 W 18th St, Houston, TX 77092, USA", "polyline": {"points": "mo{tDdkseQKPKKKAK?I@IB?Q?aA?M?QAO?OM?M@M?mED@[Ae@?g@ASDKP]d@}@Xq@B]QOIIOMEKKAQUGGEIAE?C?A@C@EBEV_@KMNWHMJSRa@Ts@R}@Jy@Hy@?G@Q@a@"}, "start_location": {"lat": 29.8010254, "lng": -95.4592253}, "steps": [{"distance": {"text": "49 ft", "value": 15}, "duration": {"text": "1 min", "value": 11}, "end_location": {"lat": 29.8011512, "lng": -95.4592626}, "html_instructions": "Head <b>northwest</b>", "polyline": {"points": "mo{tDdkseQKPKK"}, "start_location": {"lat": 29.8010254, "lng": -95.4592253}, "travel_mode": "WALKING"}, {"distance": {"text": "102 ft", "value": 31}, "duration": {"text": "1 min", "value": 23}, "end_location": {"lat": 29.8013705, "lng": -95.4592806}, "html_instructions": "Turn <b>right</b> toward <b>W 18th St</b>", "maneuver": "turn-right", "polyline": {"points": "ep{tDjkseQKAK?I@IB"}, "start_location": {"lat": 29.8011512, "lng": -95.4592626}, "travel_mode": "WALKING"}, {"distance": {"text": "240 ft", "value": 73}, "duration": {"text": "1 min", "value": 61}, "end_location": {"lat": 29.8014508, "lng": -95.4585436}, "html_instructions": "Turn <b>right</b> onto <b>W 18th St</b>", "maneuver": "turn-right", "polyline": {"points": "qq{tDnkseQ?Q?aA?M?QAO?OM?"}, "start_location": {"lat": 29.8013705, "lng": -95.4592806}, "travel_mode": "WALKING"}, {"distance": {"text": "440 ft", "value": 134}, "duration": {"text": "2 mins", "value": 127}, "end_location": {"lat": 29.80261729999999, "lng": -95.45858140000001}, "html_instructions": "Turn <b>left</b> onto <b>Mangum Rd</b>", "maneuver": "turn-left", "polyline": {"points": "ar{tDzfseQM@M?mED"}, "start_location": {"lat": 29.8014508, "lng": -95.4585436}, "travel_mode": "WALKING"}, {"distance": {"text": "0.1 mi", "value": 168}, "duration": {"text": "2 mins", "value": 133}, "end_location": {"lat": 29.8021725, "lng": -95.45703209999999}, "html_instructions": "Turn <b>right</b>", "maneuver": "turn-right", "polyline": {"points": "ky{tDbgseQ@[Ae@?g@ASDKP]d@}@Xq@B]"}, "start_location": {"lat": 29.80261729999999, "lng": -95.45858140000001}, "travel_mode": "WALKING"}, {"distance": {"text": "348 ft", "value": 106}, "duration": {"text": "1 min", "value": 80}, "end_location": {"lat": 29.8024852, "lng": -95.4562641}, "html_instructions": "Turn <b>left</b><div style=\"font-size:0.9em\">Partial restricted usage road</div>", "maneuver": "turn-left", "polyline": {"points": "qv{tDl}reQQOIIOMEKKAQUGGEIAE?C?A@C@EBEV_@"}, "start_location": {"lat": 29.8021725, "lng": -95.45703209999999}, "travel_mode": "WALKING"}, {"distance": {"text": "33 ft", "value": 10}, "duration": {"text": "1 min", "value": 8}, "end_location": {"lat": 29.8025494, "lng": -95.456192}, "html_instructions": "Turn <b>left</b><div style=\"font-size:0.9em\">Restricted usage road</div>", "maneuver": "turn-left", "polyline": {"points": "qx{tDrxreQKM"}, "start_location": {"lat": 29.8024852, "lng": -95.4562641}, "travel_mode": "WALKING"}, {"distance": {"text": "0.1 mi", "value": 201}, "duration": {"text": "2 mins", "value": 144}, "end_location": {"lat": 29.8019199, "lng": -95.45428179999999}, "html_instructions": "Turn <b>right</b><div style=\"font-size:0.9em\">Restricted usage road</div><div style=\"font-size:0.9em\">Destination will be on the left</div>", "maneuver": "turn-right", "polyline": {"points": "}x{tDdxreQNWHMJSRa@Ts@R}@Jy@Hy@?G@Q@a@"}, "start_location": {"lat": 29.8025494, "lng": -95.456192}, "travel_mode": "WALKING"}], "travel_mode": "WALKING"}], "traffic_speed_entry": [], "via_waypoint": []}], "overview_polyline": {"points": "sfutDf~ddQn@^DAx@}Af@cA@UCwA}@?qDFiABc@@CNI^CNMp@Mx@ABBBB?BUDI@@Gd@c@GoDo@GZ@DB?BS@CD?VDJDCRG?LBG`@m@|D]fCoBvNi@dEy@`GiAnHi@~CuA|JWvBu@jFm@~EK`AEjBChF@fF@|DFlD?tHAfC?bGE|B?fDBpJ@~D?xAD~AL~AJpAHfB?hADZFPAPEjBKzCq@zJiBnToEbg@eFpj@cAdLwBlUw@tKQhD?rCAfB?dBDlHB|C@jBDfJLnWBxATvDRhB\\|B~@|D^pAvEhOpEbOj@|B`A~FJ|AHvE?~N?nNAlO@bKC~BQb@Cn@MrBMnBCtA?zAmABs@@StArAC`A?@n@?zBAjE?LHBBn@@v@DlGFnDBpB@ZRh@HfCVnCr@dE|@pDjC`JbBjG|GdVZ|@v@zCnCrJ`AdD\\rAPv@B^Fd@RjDBxABrCDHBLBP?vBBxCAvADnCRdF\\`DbAbFjAjErAdEpArDz@bBfAhBjAvAjAdA`BhAjAr@pAh@tAb@\\HrDj@RJt@L~@PhBZpATlBTxA`@t@Zt@d@b@f@x@n@v@j@xAbAnDfC^Zm@nAw@|AcBfDkDzGkFfKoDhHa@v@nCrBtGzEKRFKyB_Bm@lAk@jAKRcB`DqBxD}AxCTNBEGLmDgCsCsBaBxCSXSJi@?WCKGEGC\\[jCc@bDm@nEOpAYhBS|@o@dCq@nBs@rAiApBc@xC_@`DGn@GlBO|Ce@|Ie@zJObC_@hIm@vLIlDIlFGrEc@zIU~F]jNILAPEtBMlCS~COvCDVo@jMc@xHu@vMaArRi@`LYvFBdGB|J@rFDxKAdCC`AWhLY`M[fG[pJMpDEhBEVK`B?REBGFCDo@LYFMFsIjHwFrE}ArAcFhEw@v@o@t@}BzCoCjDiPl[_@x@?f@a@jBI`B?rCBfA@pCCdBGtAo@hDuBvJeCnLy@zDq@fDs@nEYhCQjBa@~FGpCEXKtQBdBAzG~@@p@?Z^?r@AtBAhB?~@}@@?mDB{B@k@ZAd@?pAA?nB?rARAPGJ]DcAFc@P_@Ra@@YGa@ECa@IMAMFa@\\i@Hq@@{A?c@?AVC~B?t@A`E?f@sBNa@BuCBsEBwGDuLF{JBaMJmJFgAGi@MwAw@iA_Au@q@iAeAwCpE{CpEa@L{@vA]b@Sd@qAvBOQKPKKWASD?sBA_@[@{ED?aAA{@Vi@~@oBB]QOYWEKKAY]GOBOZe@KMNWTa@Ra@h@qBTsBB{@"}, "summary": "", "warnings": ["Walking directions are in beta. Use caution \u2013 This route may be missing sidewalks or pedestrian paths."], "waypoint_order": []}], "status": "OK"}