{"geocoded_waypoints": [{"geocoder_status": "OK", "place_id": "ChIJVfqga23IQIYRSvPr9nywFpU", "types": ["establishment", "point_of_interest", "primary_school", "school"]}, {"geocoder_status": "OK", "place_id": "ChIJ9_tphxzHQIYRIMyPy_d3VZU", "types": ["establishment", "point_of_interest"]}], "routes": [{"bounds": {"northeast": {"lat": 29.8760217, "lng": -95.3973674}, "southwest": {"lat": 29.8015904, "lng": -95.45463819999999}}, "copyrights": "Map data \u00a92022", "legs": [{"arrival_time": {"text": "4:04pm", "time_zone": "America/Chicago", "value": 1642025097}, "departure_time": {"text": "3:08pm", "time_zone": "America/Chicago", "value": 1642021700}, "distance": {"text": "9.8 mi", "value": 15786}, "duration": {"text": "57 mins", "value": 3397}, "end_address": "4400 W 18th St, Houston, TX 77092, USA", "end_location": {"lat": 29.8019199, "lng": -95.45428179999999}, "start_address": "800 Ringold St, Houston, TX 77088, USA", "start_location": {"lat": 29.875666, "lng": -95.4171745}, "steps": [{"distance": {"text": "0.4 mi", "value": 715}, "duration": {"text": "9 mins", "value": 519}, "end_location": {"lat": 29.8760217, "lng": -95.4140419}, "html_instructions": "Walk to North Shepherd P&R", "polyline": {"points": "}ajuDhdkeQzAAAkEA}CG?E?GACGAI?I@G?UEO{B@AmA|FEBE?C?a@A_@?]uE@e@?C?"}, "start_location": {"lat": 29.875666, "lng": -95.4171745}, "steps": [{"distance": {"text": "167 ft", "value": 51}, "duration": {"text": "1 min", "value": 36}, "end_location": {"lat": 29.8752085, "lng": -95.41716060000002}, "html_instructions": "Head <b>south</b> toward <b>Ringold St</b>", "polyline": {"points": "}ajuDhdkeQzAA"}, "start_location": {"lat": 29.875666, "lng": -95.4171745}, "travel_mode": "WALKING"}, {"distance": {"text": "0.1 mi", "value": 175}, "duration": {"text": "2 mins", "value": 127}, "end_location": {"lat": 29.8752303, "lng": -95.4153501}, "html_instructions": "Turn <b>left</b> onto <b>Ringold St</b>", "maneuver": "turn-left", "polyline": {"points": "a_juDfdkeQAkEA}C"}, "start_location": {"lat": 29.8752085, "lng": -95.41716060000002}, "travel_mode": "WALKING"}, {"distance": {"text": "39 ft", "value": 12}, "duration": {"text": "1 min", "value": 10}, "end_location": {"lat": 29.875339, "lng": -95.41533869999999}, "html_instructions": "Turn <b>left</b> toward <b>Shepherd Pr 2 Dr</b>", "maneuver": "turn-left", "polyline": {"points": "e_juD|xjeQG?E?GA"}, "start_location": {"lat": 29.8752303, "lng": -95.4153501}, "travel_mode": "WALKING"}, {"distance": {"text": "59 ft", "value": 18}, "duration": {"text": "1 min", "value": 14}, "end_location": {"lat": 29.8753628, "lng": -95.41516329999999}, "html_instructions": "Turn <b>right</b> toward <b>Shepherd Pr 2 Dr</b>", "maneuver": "turn-right", "polyline": {"points": "{_juDzxjeQCGAI?I@G"}, "start_location": {"lat": 29.875339, "lng": -95.41533869999999}, "travel_mode": "WALKING"}, {"distance": {"text": "285 ft", "value": 87}, "duration": {"text": "1 min", "value": 63}, "end_location": {"lat": 29.8760063, "lng": -95.4149758}, "html_instructions": "Slight <b>left</b> toward <b>Shepherd Pr 2 Dr</b>", "maneuver": "turn-slight-left", "polyline": {"points": "_`juDvwjeQ?UEO{B@"}, "start_location": {"lat": 29.8753628, "lng": -95.41516329999999}, "travel_mode": "WALKING"}, {"distance": {"text": "121 ft", "value": 37}, "duration": {"text": "1 min", "value": 28}, "end_location": {"lat": 29.8760153, "lng": -95.41458870000001}, "html_instructions": "Turn <b>right</b> toward <b>Shepherd Pr 2 Dr</b>", "maneuver": "turn-right", "polyline": {"points": "adjuDrvjeQAmA"}, "start_location": {"lat": 29.8760063, "lng": -95.4149758}, "travel_mode": "WALKING"}, {"distance": {"text": "0.1 mi", "value": 192}, "duration": {"text": "2 mins", "value": 137}, "end_location": {"lat": 29.8747391, "lng": -95.41403269999999}, "html_instructions": "Turn <b>right</b> onto <b>Shepherd Pr 2 Dr</b>", "maneuver": "turn-right", "polyline": {"points": "cdjuDdtjeQ|FEBE?C?a@A_@?]"}, "start_location": {"lat": 29.8760153, "lng": -95.41458870000001}, "travel_mode": "WALKING"}, {"distance": {"text": "469 ft", "value": 143}, "duration": {"text": "2 mins", "value": 104}, "end_location": {"lat": 29.8760217, "lng": -95.4140419}, "html_instructions": "Turn <b>left</b><div style=\"font-size:0.9em\">Destination will be on the left</div>", "maneuver": "turn-left", "polyline": {"points": "c|iuDtpjeQuE@e@?C?"}, "start_location": {"lat": 29.8747391, "lng": -95.41403269999999}, "travel_mode": "WALKING"}], "travel_mode": "WALKING"}, {"distance": {"text": "5.8 mi", "value": 9298}, "duration": {"text": "21 mins", "value": 1260}, "end_location": {"lat": 29.803894, "lng": -95.398252}, "html_instructions": "Bus towards Hobby Airport", "polyline": {"points": "cdjuDbqjeQ?KB?d@?tEA?S?K?g@AsA?g@?{B\\BxBJ`CNP@`ADdCNl@BvCLR?z@@b@?^?f@@jAA`@Ad@?rAApA?l@?\\?PAV?`@?r@?T?rA?tEIl@AT?T?V?|BAP?J?\\AxAA^?p@A^AV?h@?V?VAv@?V?x@Ab@?dDA~BAXAn@?vBAzAA~AAT?AaA?}C?}@?iD?yB?OAY?{EAqEAsC?i@@aB?A?cBC_@Ay@?CCq@KoACUUyAESK_@\\QTK\\MPEj@IJAXAP?dA?b@?nDHX?vAAdA@zA?j@A\\?bBAxACd@@|BAP?hC?\\?xAAxAApA?h@?hDA^C^?l@AhEAdB?hB?n@?vAAd@ABC?AB?BAF?N?l@CDA@?AD?@ADP?p@?`A?jDA\\ApB?^?z@AX?hA?bA?rAA`@AxA?^?jCAfAAN?rC?~BAdBA~@A|@?R?xEC`A?X?l@AfD?p@?R?J?f@A`A?B?f@ANANALAj@IPA|@SLCPCh@SXMRK^UtA}@PK`C}ALGp@c@zCqBHCvA}@h@Yd@URIjBg@PCd@Gv@ITALAF?P?\\Ar@?rACz@A`@?p@AD?P?f@?v@AbB?~@AT?b@?fAA`@?t@?rBAF?RAbCApBAfAAX?dAAzA?jACp@CVGRCdA?`A?X?r@?vDCdCAL?jAAv@?dCCh@?h@?zAAZ?X?\\?n@At@Ab@?J?NAR?N?^?r@A`@?F?NAlA@P?V?JAR?r@?bBALA|@AX?lAAZ?bBAbBAb@?b@A^?\\?d@?b@AdAA\\AbB?P?h@?h@?bBAhBCb@?lAAP?`@??g@`@?A{A?i@?YN?"}, "start_location": {"lat": 29.876021, "lng": -95.414104}, "transit_details": {"arrival_stop": {"location": {"lat": 29.803894, "lng": -95.398252}, "name": "20th St @ Heights Blvd"}, "arrival_time": {"text": "3:38pm", "time_zone": "America/Chicago", "value": 1642023480}, "departure_stop": {"location": {"lat": 29.876021, "lng": -95.414104}, "name": "North Shepherd P&R"}, "departure_time": {"text": "3:17pm", "time_zone": "America/Chicago", "value": 1642022220}, "headsign": "Hobby Airport", "line": {"agencies": [{"name": "Metropolitan Transit Authority of Harris County", "phone": "1 (713) 635-4000", "url": "http://www.ridemetro.org/"}], "color": "#004080", "name": "Telephone / Heights", "short_name": "40", "text_color": "#ffffff", "url": "https://www.ridemetro.org/MetroPDFs/Schedules/BusSchedules/n040-Telephone-Heights.pdf", "vehicle": {"icon": "//maps.gstatic.com/mapfiles/transit/iw2/6/bus2.png", "name": "Bus", "type": "BUS"}}, "num_stops": 36, "trip_short_name": "TELEHEIGHT"}, "travel_mode": "TRANSIT"}, {"distance": {"text": "282 ft", "value": 86}, "duration": {"text": "1 min", "value": 71}, "end_location": {"lat": 29.804025, "lng": -95.3973684}, "html_instructions": "Walk to E 20th St @ Heights Blvd", "polyline": {"points": "sa|tD`ngeQ?M?GM??G?S?M?SAM?u@?W"}, "start_location": {"lat": 29.8039365, "lng": -95.3982528}, "steps": [{"distance": {"text": "282 ft", "value": 86}, "duration": {"text": "1 min", "value": 71}, "end_location": {"lat": 29.804025, "lng": -95.3973684}, "html_instructions": "Head <b>east</b> on <b>W 20th St</b> toward <b>Heights Blvd</b>", "polyline": {"points": "sa|tD`ngeQ?M?GM??G?S?M?SAM?u@?W"}, "start_location": {"lat": 29.8039365, "lng": -95.3982528}, "travel_mode": "WALKING"}], "travel_mode": "WALKING"}, {"distance": {"text": "3.5 mi", "value": 5589}, "duration": {"text": "12 mins", "value": 744}, "end_location": {"lat": 29.80163, "lng": -95.454342}, "html_instructions": "Bus towards Memorial City", "polyline": {"points": "ib|tDphgeQJ??V@t@?L?R?L@R?N?f@?h@@|@?\\?d@?b@@n@?pA@|B?d@?`@@t@?T?pA@v@@rA?v@@bD@~@?nA@H?tB@^@dC?P?j@@x@?x@?t@@P?dA@|A?\\?^@dC@zB?xA?N@V?fA@`ABfE?tABtJ?pB@rA?r@?H?|@?jB?@?j@@h@AL?\\?J@f@?|B?h@?|@?n@?N?|G?J@tE?d@@dC?p@AL@J?V@P@H?B?D@F@HBH@JDPDLDLDHDJDJHLFHFHLL?@TVTVn@v@NRh@h@NPVX^f@BJBFBFf@v@P`@DZDVBT@F?D@F?H?P@P?X?N?F?j@@pAIpB@f@?V?fA?j@?V@h@AjA?h@@~@?b@@^Af@@d@?X?bA?jA?b@@nC?J?d@Aj@?v@?P@dB?jA?bC?`A?\\@dH?`D?dC@fE?jD?T@`F@vB?jD?vC?X?`E@V@zCAb@?fAAX@fB@fA?T@|B?l@A~A?x@?XAzB?`A?dB?l@?P?F?H@^?Z?@?H?@?Z?h@?f@?j@?^?t@@j@BnAAV@|@@fB?bBG?"}, "start_location": {"lat": 29.804048, "lng": -95.397369}, "transit_details": {"arrival_stop": {"location": {"lat": 29.80163, "lng": -95.454342}, "name": "W 18th St @ Northwest Fwy"}, "arrival_time": {"text": "4:03pm", "time_zone": "America/Chicago", "value": 1642025020}, "departure_stop": {"location": {"lat": 29.804048, "lng": -95.397369}, "name": "E 20th St @ Heights Blvd"}, "departure_time": {"text": "3:51pm", "time_zone": "America/Chicago", "value": 1642024276}, "headsign": "Memorial City", "line": {"agencies": [{"name": "Metropolitan Transit Authority of Harris County", "phone": "1 (713) 635-4000", "url": "http://www.ridemetro.org/"}], "color": "#004080", "name": "Long Point / Cavalcade", "short_name": "26", "text_color": "#ffffff", "url": "https://www.ridemetro.org/MetroPDFs/Schedules/BusSchedules/n026-Long-Point-Cavalcade.pdf", "vehicle": {"icon": "//maps.gstatic.com/mapfiles/transit/iw2/6/bus2.png", "name": "Bus", "type": "BUS"}}, "num_stops": 19, "trip_short_name": "LONGPOINT"}, "travel_mode": "TRANSIT"}, {"distance": {"text": "322 ft", "value": 98}, "duration": {"text": "1 min", "value": 77}, "end_location": {"lat": 29.8019199, "lng": -95.45428179999999}, "html_instructions": "Walk to 4400 W 18th St, Houston, TX 77092, USA", "polyline": {"points": "es{tDrlreQ?z@YEc@E?G@Q@a@"}, "start_location": {"lat": 29.8016264, "lng": -95.454342}, "steps": [{"distance": {"text": "95 ft", "value": 29}, "duration": {"text": "1 min", "value": 22}, "end_location": {"lat": 29.8016252, "lng": -95.45463819999999}, "html_instructions": "Head <b>west</b> on <b>W 18th St</b>/<wbr/><b>NW Mall</b>", "polyline": {"points": "es{tDrlreQ?z@"}, "start_location": {"lat": 29.8016264, "lng": -95.454342}, "travel_mode": "WALKING"}, {"distance": {"text": "131 ft", "value": 40}, "duration": {"text": "1 min", "value": 33}, "end_location": {"lat": 29.8019405, "lng": -95.4545788}, "html_instructions": "Turn <b>right</b><div style=\"font-size:0.9em\">Restricted usage road</div>", "maneuver": "turn-right", "polyline": {"points": "es{tDnnreQYEc@E"}, "start_location": {"lat": 29.8016252, "lng": -95.45463819999999}, "travel_mode": "WALKING"}, {"distance": {"text": "95 ft", "value": 29}, "duration": {"text": "1 min", "value": 22}, "end_location": {"lat": 29.8019199, "lng": -95.45428179999999}, "html_instructions": "Turn <b>right</b><div style=\"font-size:0.9em\">Restricted usage road</div><div style=\"font-size:0.9em\">Destination will be on the left</div>", "maneuver": "turn-right", "polyline": {"points": "cu{tDbnreQ?G@Q@a@"}, "start_location": {"lat": 29.8019405, "lng": -95.4545788}, "travel_mode": "WALKING"}], "travel_mode": "WALKING"}], "traffic_speed_entry": [], "via_waypoint": []}], "overview_polyline": {"points": "}ajuDhdkeQzAAAkEA}CG?MAEQ@Q?UEO{B@AmA|FEBE?e@A}@{F@C??J?KB?zFAA{C?cDvCNzIf@dEPnA@vD?bJE~D?nHK|JGzGEfUKT?AaA?{EAmICkR@cBCcCA}@OaCk@cDr@]n@Sv@Kj@AdA?rEHrG?fGG~H?bHCrEA~@CfMCfCAh@ENCdAEAFADP?rB?hECfFAbGCvUG|SGxBA|BCzAOjAWPCh@Sl@YtBsArEuCdDuB`CwAx@_@|Bk@|AQb@CjBAzIIpNEtOI|BGj@KtE?hTKnDAtCC`EEbC?xDCpMIhXM?g@`@?AeC?YN?I??M?GM??[AeB?WE?J??V@bA?`@@tB@dDDdNHvRLl^Lz^?lI@nE?fDBvVBv@F`@Rx@Zn@xBjC`BhB^f@BJFNf@v@P`@Jr@Fj@B|EIpB@f@?~A?xDBxIBjk@D`a@@xK@pG@rCAlCApG@tF?zFDpE@jEG??z@YEc@E?GBs@"}, "summary": "", "warnings": ["Walking directions are in beta. Use caution \u2013 This route may be missing sidewalks or pedestrian paths."], "waypoint_order": []}, {"bounds": {"northeast": {"lat": 29.8760217, "lng": -95.39813649999999}, "southwest": {"lat": 29.8015904, "lng": -95.45463819999999}}, "copyrights": "Map data \u00a92022", "legs": [{"arrival_time": {"text": "4:04pm", "time_zone": "America/Chicago", "value": 1642025097}, "departure_time": {"text": "3:08pm", "time_zone": "America/Chicago", "value": 1642021700}, "distance": {"text": "9.7 mi", "value": 15646}, "duration": {"text": "57 mins", "value": 3397}, "end_address": "4400 W 18th St, Houston, TX 77092, USA", "end_location": {"lat": 29.8019199, "lng": -95.45428179999999}, "start_address": "800 Ringold St, Houston, TX 77088, USA", "start_location": {"lat": 29.875666, "lng": -95.4171745}, "steps": [{"distance": {"text": "0.4 mi", "value": 715}, "duration": {"text": "9 mins", "value": 519}, "end_location": {"lat": 29.8760217, "lng": -95.4140419}, "html_instructions": "Walk to North Shepherd P&R", "polyline": {"points": "}ajuDhdkeQzAAAkEA}CG?E?GACGAI?I@G?UEO{B@AmA|FEBE?C?a@A_@?]uE@e@?C?"}, "start_location": {"lat": 29.875666, "lng": -95.4171745}, "steps": [{"distance": {"text": "167 ft", "value": 51}, "duration": {"text": "1 min", "value": 36}, "end_location": {"lat": 29.8752085, "lng": -95.41716060000002}, "html_instructions": "Head <b>south</b> toward <b>Ringold St</b>", "polyline": {"points": "}ajuDhdkeQzAA"}, "start_location": {"lat": 29.875666, "lng": -95.4171745}, "travel_mode": "WALKING"}, {"distance": {"text": "0.1 mi", "value": 175}, "duration": {"text": "2 mins", "value": 127}, "end_location": {"lat": 29.8752303, "lng": -95.4153501}, "html_instructions": "Turn <b>left</b> onto <b>Ringold St</b>", "maneuver": "turn-left", "polyline": {"points": "a_juDfdkeQAkEA}C"}, "start_location": {"lat": 29.8752085, "lng": -95.41716060000002}, "travel_mode": "WALKING"}, {"distance": {"text": "39 ft", "value": 12}, "duration": {"text": "1 min", "value": 10}, "end_location": {"lat": 29.875339, "lng": -95.41533869999999}, "html_instructions": "Turn <b>left</b> toward <b>Shepherd Pr 2 Dr</b>", "maneuver": "turn-left", "polyline": {"points": "e_juD|xjeQG?E?GA"}, "start_location": {"lat": 29.8752303, "lng": -95.4153501}, "travel_mode": "WALKING"}, {"distance": {"text": "59 ft", "value": 18}, "duration": {"text": "1 min", "value": 14}, "end_location": {"lat": 29.8753628, "lng": -95.41516329999999}, "html_instructions": "Turn <b>right</b> toward <b>Shepherd Pr 2 Dr</b>", "maneuver": "turn-right", "polyline": {"points": "{_juDzxjeQCGAI?I@G"}, "start_location": {"lat": 29.875339, "lng": -95.41533869999999}, "travel_mode": "WALKING"}, {"distance": {"text": "285 ft", "value": 87}, "duration": {"text": "1 min", "value": 63}, "end_location": {"lat": 29.8760063, "lng": -95.4149758}, "html_instructions": "Slight <b>left</b> toward <b>Shepherd Pr 2 Dr</b>", "maneuver": "turn-slight-left", "polyline": {"points": "_`juDvwjeQ?UEO{B@"}, "start_location": {"lat": 29.8753628, "lng": -95.41516329999999}, "travel_mode": "WALKING"}, {"distance": {"text": "121 ft", "value": 37}, "duration": {"text": "1 min", "value": 28}, "end_location": {"lat": 29.8760153, "lng": -95.41458870000001}, "html_instructions": "Turn <b>right</b> toward <b>Shepherd Pr 2 Dr</b>", "maneuver": "turn-right", "polyline": {"points": "adjuDrvjeQAmA"}, "start_location": {"lat": 29.8760063, "lng": -95.4149758}, "travel_mode": "WALKING"}, {"distance": {"text": "0.1 mi", "value": 192}, "duration": {"text": "2 mins", "value": 137}, "end_location": {"lat": 29.8747391, "lng": -95.41403269999999}, "html_instructions": "Turn <b>right</b> onto <b>Shepherd Pr 2 Dr</b>", "maneuver": "turn-right", "polyline": {"points": "cdjuDdtjeQ|FEBE?C?a@A_@?]"}, "start_location": {"lat": 29.8760153, "lng": -95.41458870000001}, "travel_mode": "WALKING"}, {"distance": {"text": "469 ft", "value": 143}, "duration": {"text": "2 mins", "value": 104}, "end_location": {"lat": 29.8760217, "lng": -95.4140419}, "html_instructions": "Turn <b>left</b><div style=\"font-size:0.9em\">Destination will be on the left</div>", "maneuver": "turn-left", "polyline": {"points": "c|iuDtpjeQuE@e@?C?"}, "start_location": {"lat": 29.8747391, "lng": -95.41403269999999}, "travel_mode": "WALKING"}], "travel_mode": "WALKING"}, {"distance": {"text": "5.8 mi", "value": 9298}, "duration": {"text": "21 mins", "value": 1260}, "end_location": {"lat": 29.803894, "lng": -95.398252}, "html_instructions": "Bus towards Hobby Airport", "polyline": {"points": "cdjuDbqjeQ?KB?d@?tEA?S?K?g@AsA?g@?{B\\BxBJ`CNP@`ADdCNl@BvCLR?z@@b@?^?f@@jAA`@Ad@?rAApA?l@?\\?PAV?`@?r@?T?rA?tEIl@AT?T?V?|BAP?J?\\AxAA^?p@A^AV?h@?V?VAv@?V?x@Ab@?dDA~BAXAn@?vBAzAA~AAT?AaA?}C?}@?iD?yB?OAY?{EAqEAsC?i@@aB?A?cBC_@Ay@?CCq@KoACUUyAESK_@\\QTK\\MPEj@IJAXAP?dA?b@?nDHX?vAAdA@zA?j@A\\?bBAxACd@@|BAP?hC?\\?xAAxAApA?h@?hDA^C^?l@AhEAdB?hB?n@?vAAd@ABC?AB?BAF?N?l@CDA@?AD?@ADP?p@?`A?jDA\\ApB?^?z@AX?hA?bA?rAA`@AxA?^?jCAfAAN?rC?~BAdBA~@A|@?R?xEC`A?X?l@AfD?p@?R?J?f@A`A?B?f@ANANALAj@IPA|@SLCPCh@SXMRK^UtA}@PK`C}ALGp@c@zCqBHCvA}@h@Yd@URIjBg@PCd@Gv@ITALAF?P?\\Ar@?rACz@A`@?p@AD?P?f@?v@AbB?~@AT?b@?fAA`@?t@?rBAF?RAbCApBAfAAX?dAAzA?jACp@CVGRCdA?`A?X?r@?vDCdCAL?jAAv@?dCCh@?h@?zAAZ?X?\\?n@At@Ab@?J?NAR?N?^?r@A`@?F?NAlA@P?V?JAR?r@?bBALA|@AX?lAAZ?bBAbBAb@?b@A^?\\?d@?b@AdAA\\AbB?P?h@?h@?bBAhBCb@?lAAP?`@??g@`@?A{A?i@?YN?"}, "start_location": {"lat": 29.876021, "lng": -95.414104}, "transit_details": {"arrival_stop": {"location": {"lat": 29.803894, "lng": -95.398252}, "name": "20th St @ Heights Blvd"}, "arrival_time": {"text": "3:38pm", "time_zone": "America/Chicago", "value": 1642023480}, "departure_stop": {"location": {"lat": 29.876021, "lng": -95.414104}, "name": "North Shepherd P&R"}, "departure_time": {"text": "3:17pm", "time_zone": "America/Chicago", "value": 1642022220}, "headsign": "Hobby Airport", "line": {"agencies": [{"name": "Metropolitan Transit Authority of Harris County", "phone": "1 (713) 635-4000", "url": "http://www.ridemetro.org/"}], "color": "#004080", "name": "Telephone / Heights", "short_name": "40", "text_color": "#ffffff", "url": "https://www.ridemetro.org/MetroPDFs/Schedules/BusSchedules/n040-Telephone-Heights.pdf", "vehicle": {"icon": "//maps.gstatic.com/mapfiles/transit/iw2/6/bus2.png", "name": "Bus", "type": "BUS"}}, "num_stops": 36, "trip_short_name": "TELEHEIGHT"}, "travel_mode": "TRANSIT"}, {"distance": {"text": "305 ft", "value": 93}, "duration": {"text": "1 min", "value": 79}, "end_location": {"lat": 29.8039994, "lng": -95.3989005}, "html_instructions": "Walk to W 20th St @ Yale St", "polyline": {"points": "sa|tD`ngeQ?M?GM??F?h@@f@?|@"}, "start_location": {"lat": 29.8039365, "lng": -95.3982528}, "steps": [{"distance": {"text": "49 ft", "value": 15}, "duration": {"text": "1 min", "value": 11}, "end_location": {"lat": 29.8040101, "lng": -95.3981378}, "html_instructions": "Head <b>east</b> on <b>W 20th St</b> toward <b>Heights Blvd</b>", "polyline": {"points": "sa|tD`ngeQ?M?GM?"}, "start_location": {"lat": 29.8039365, "lng": -95.3982528}, "travel_mode": "WALKING"}, {"distance": {"text": "256 ft", "value": 78}, "duration": {"text": "1 min", "value": 68}, "end_location": {"lat": 29.8039994, "lng": -95.3989005}, "html_instructions": "Cross the road<div style=\"font-size:0.9em\">Destination will be on the right</div>", "polyline": {"points": "ab|tDjmgeQ?F?h@@f@?|@"}, "start_location": {"lat": 29.8040101, "lng": -95.3981378}, "travel_mode": "WALKING"}], "travel_mode": "WALKING"}, {"distance": {"text": "3.4 mi", "value": 5442}, "duration": {"text": "12 mins", "value": 725}, "end_location": {"lat": 29.80163, "lng": -95.454342}, "html_instructions": "Bus towards Memorial City", "polyline": {"points": "eb|tDbrgeQL??\\?d@?b@@n@?pA@|B?d@?`@@t@?T?pA@v@@rA?v@@bD@~@?nA@H?tB@^@dC?P?j@@x@?x@?t@@P?dA@|A?\\?^@dC@zB?xA?N@V?fA@`ABfE?tABtJ?pB@rA?r@?H?|@?jB?@?j@@h@AL?\\?J@f@?|B?h@?|@?n@?N?|G?J@tE?d@@dC?p@AL@J?V@P@H?B?D@F@HBH@JDPDLDLDHDJDJHLFHFHLL?@TVTVn@v@NRh@h@NPVX^f@BJBFBFf@v@P`@DZDVBT@F?D@F?H?P@P?X?N?F?j@@pAIpB@f@?V?fA?j@?V@h@AjA?h@@~@?b@@^Af@@d@?X?bA?jA?b@@nC?J?d@Aj@?v@?P@dB?jA?bC?`A?\\@dH?`D?dC@fE?jD?T@`F@vB?jD?vC?X?`E@V@zCAb@?fAAX@fB@fA?T@|B?l@A~A?x@?XAzB?`A?dB?l@?P?F?H@^?Z?@?H?@?Z?h@?f@?j@?^?t@@j@BnAAV@|@@fB?bBG?"}, "start_location": {"lat": 29.804029, "lng": -95.398901}, "transit_details": {"arrival_stop": {"location": {"lat": 29.80163, "lng": -95.454342}, "name": "W 18th St @ Northwest Fwy"}, "arrival_time": {"text": "4:03pm", "time_zone": "America/Chicago", "value": 1642025020}, "departure_stop": {"location": {"lat": 29.804029, "lng": -95.398901}, "name": "W 20th St @ Yale St"}, "departure_time": {"text": "3:51pm", "time_zone": "America/Chicago", "value": 1642024295}, "headsign": "Memorial City", "line": {"agencies": [{"name": "Metropolitan Transit Authority of Harris County", "phone": "1 (713) 635-4000", "url": "http://www.ridemetro.org/"}], "color": "#004080", "name": "Long Point / Cavalcade", "short_name": "26", "text_color": "#ffffff", "url": "https://www.ridemetro.org/MetroPDFs/Schedules/BusSchedules/n026-Long-Point-Cavalcade.pdf", "vehicle": {"icon": "//maps.gstatic.com/mapfiles/transit/iw2/6/bus2.png", "name": "Bus", "type": "BUS"}}, "num_stops": 18, "trip_short_name": "LONGPOINT"}, "travel_mode": "TRANSIT"}, {"distance": {"text": "322 ft", "value": 98}, "duration": {"text": "1 min", "value": 77}, "end_location": {"lat": 29.8019199, "lng": -95.45428179999999}, "html_instructions": "Walk to 4400 W 18th St, Houston, TX 77092, USA", "polyline": {"points": "es{tDrlreQ?z@YEc@E?G@Q@a@"}, "start_location": {"lat": 29.8016264, "lng": -95.454342}, "steps": [{"distance": {"text": "95 ft", "value": 29}, "duration": {"text": "1 min", "value": 22}, "end_location": {"lat": 29.8016252, "lng": -95.45463819999999}, "html_instructions": "Head <b>west</b> on <b>W 18th St</b>/<wbr/><b>NW Mall</b>", "polyline": {"points": "es{tDrlreQ?z@"}, "start_location": {"lat": 29.8016264, "lng": -95.454342}, "travel_mode": "WALKING"}, {"distance": {"text": "131 ft", "value": 40}, "duration": {"text": "1 min", "value": 33}, "end_location": {"lat": 29.8019405, "lng": -95.4545788}, "html_instructions": "Turn <b>right</b><div style=\"font-size:0.9em\">Restricted usage road</div>", "maneuver": "turn-right", "polyline": {"points": "es{tDnnreQYEc@E"}, "start_location": {"lat": 29.8016252, "lng": -95.45463819999999}, "travel_mode": "WALKING"}, {"distance": {"text": "95 ft", "value": 29}, "duration": {"text": "1 min", "value": 22}, "end_location": {"lat": 29.8019199, "lng": -95.45428179999999}, "html_instructions": "Turn <b>right</b><div style=\"font-size:0.9em\">Restricted usage road</div><div style=\"font-size:0.9em\">Destination will be on the left</div>", "maneuver": "turn-right", "polyline": {"points": "cu{tDbnreQ?G@Q@a@"}, "start_location": {"lat": 29.8019405, "lng": -95.4545788}, "travel_mode": "WALKING"}], "travel_mode": "WALKING"}], "traffic_speed_entry": [], "via_waypoint": []}], "overview_polyline": {"points": "}ajuDhdkeQzAAAkEA}CG?MAEQ@Q?UEO{B@AmA|FEBE?e@A}@{F@C??J?KB?zFAA{C?cDvCNzIf@dEPnA@vD?bJE~D?nHK|JGzGEfUKT?AaA?{EAmICkR@cBCcCA}@OaCk@cDr@]n@Sv@Kj@AdA?rEHrG?fGG~H?bHCrEA~@CfMCfCAh@ENCdAEAFADP?rB?hECfFAbGCvUG|SGxBA|BCzAOjAWPCh@Sl@YtBsArEuCdDuB`CwAx@_@|Bk@|AQb@CjBAzIIpNEtOI|BGj@KtE?hTKnDAtCC`EEbC?xDCpMIhXM?g@`@?AeC?YN?I??M?GM??p@@dBE?L??bA@rA@vGHdQLv]HdTDdX@|IBhX?bBBd@Hf@Vv@\\n@j@p@tAbBx@z@v@`AFRj@~@V|@Hl@B^@lA?r@@pAIpB@~@?rB@`AAtB@jDBtL?jOBtWBzO?~OBrDAjB@~E@jDAxCA|H?pA@vD@lDDlG?bBG??z@}@K@Y@a@"}, "summary": "", "warnings": ["Walking directions are in beta. Use caution \u2013 This route may be missing sidewalks or pedestrian paths."], "waypoint_order": []}, {"bounds": {"northeast": {"lat": 29.8760217, "lng": -95.4104636}, "southwest": {"lat": 29.8015904, "lng": -95.45463819999999}}, "copyrights": "Map data \u00a92022", "legs": [{"arrival_time": {"text": "4:04pm", "time_zone": "America/Chicago", "value": 1642025097}, "departure_time": {"text": "3:06pm", "time_zone": "America/Chicago", "value": 1642021580}, "distance": {"text": "8.3 mi", "value": 13306}, "duration": {"text": "59 mins", "value": 3517}, "end_address": "4400 W 18th St, Houston, TX 77092, USA", "end_location": {"lat": 29.8019199, "lng": -95.45428179999999}, "start_address": "800 Ringold St, Houston, TX 77088, USA", "start_location": {"lat": 29.875666, "lng": -95.4171745}, "steps": [{"distance": {"text": "0.4 mi", "value": 715}, "duration": {"text": "9 mins", "value": 519}, "end_location": {"lat": 29.8760217, "lng": -95.4140419}, "html_instructions": "Walk to North Shepherd P&R", "polyline": {"points": "}ajuDhdkeQzAAAkEA}CG?E?GACGAI?I@G?UEO{B@AmA|FEBE?C?a@A_@?]uE@e@?C?"}, "start_location": {"lat": 29.875666, "lng": -95.4171745}, "steps": [{"distance": {"text": "167 ft", "value": 51}, "duration": {"text": "1 min", "value": 36}, "end_location": {"lat": 29.8752085, "lng": -95.41716060000002}, "html_instructions": "Head <b>south</b> toward <b>Ringold St</b>", "polyline": {"points": "}ajuDhdkeQzAA"}, "start_location": {"lat": 29.875666, "lng": -95.4171745}, "travel_mode": "WALKING"}, {"distance": {"text": "0.1 mi", "value": 175}, "duration": {"text": "2 mins", "value": 127}, "end_location": {"lat": 29.8752303, "lng": -95.4153501}, "html_instructions": "Turn <b>left</b> onto <b>Ringold St</b>", "maneuver": "turn-left", "polyline": {"points": "a_juDfdkeQAkEA}C"}, "start_location": {"lat": 29.8752085, "lng": -95.41716060000002}, "travel_mode": "WALKING"}, {"distance": {"text": "39 ft", "value": 12}, "duration": {"text": "1 min", "value": 10}, "end_location": {"lat": 29.875339, "lng": -95.41533869999999}, "html_instructions": "Turn <b>left</b> toward <b>Shepherd Pr 2 Dr</b>", "maneuver": "turn-left", "polyline": {"points": "e_juD|xjeQG?E?GA"}, "start_location": {"lat": 29.8752303, "lng": -95.4153501}, "travel_mode": "WALKING"}, {"distance": {"text": "59 ft", "value": 18}, "duration": {"text": "1 min", "value": 14}, "end_location": {"lat": 29.8753628, "lng": -95.41516329999999}, "html_instructions": "Turn <b>right</b> toward <b>Shepherd Pr 2 Dr</b>", "maneuver": "turn-right", "polyline": {"points": "{_juDzxjeQCGAI?I@G"}, "start_location": {"lat": 29.875339, "lng": -95.41533869999999}, "travel_mode": "WALKING"}, {"distance": {"text": "285 ft", "value": 87}, "duration": {"text": "1 min", "value": 63}, "end_location": {"lat": 29.8760063, "lng": -95.4149758}, "html_instructions": "Slight <b>left</b> toward <b>Shepherd Pr 2 Dr</b>", "maneuver": "turn-slight-left", "polyline": {"points": "_`juDvwjeQ?UEO{B@"}, "start_location": {"lat": 29.8753628, "lng": -95.41516329999999}, "travel_mode": "WALKING"}, {"distance": {"text": "121 ft", "value": 37}, "duration": {"text": "1 min", "value": 28}, "end_location": {"lat": 29.8760153, "lng": -95.41458870000001}, "html_instructions": "Turn <b>right</b> toward <b>Shepherd Pr 2 Dr</b>", "maneuver": "turn-right", "polyline": {"points": "adjuDrvjeQAmA"}, "start_location": {"lat": 29.8760063, "lng": -95.4149758}, "travel_mode": "WALKING"}, {"distance": {"text": "0.1 mi", "value": 192}, "duration": {"text": "2 mins", "value": 137}, "end_location": {"lat": 29.8747391, "lng": -95.41403269999999}, "html_instructions": "Turn <b>right</b> onto <b>Shepherd Pr 2 Dr</b>", "maneuver": "turn-right", "polyline": {"points": "cdjuDdtjeQ|FEBE?C?a@A_@?]"}, "start_location": {"lat": 29.8760153, "lng": -95.41458870000001}, "travel_mode": "WALKING"}, {"distance": {"text": "469 ft", "value": 143}, "duration": {"text": "2 mins", "value": 104}, "end_location": {"lat": 29.8760217, "lng": -95.4140419}, "html_instructions": "Turn <b>left</b><div style=\"font-size:0.9em\">Destination will be on the left</div>", "maneuver": "turn-left", "polyline": {"points": "c|iuDtpjeQuE@e@?C?"}, "start_location": {"lat": 29.8747391, "lng": -95.41403269999999}, "travel_mode": "WALKING"}], "travel_mode": "WALKING"}, {"distance": {"text": "5.1 mi", "value": 8238}, "duration": {"text": "23 mins", "value": 1380}, "end_location": {"lat": 29.803965, "lng": -95.412369}, "html_instructions": "Bus towards TMC TC", "polyline": {"points": "cdjuDbqjeQ?KB?d@?tEA?S?K?g@AsA?g@?{B\\BxBJ`CNP@`ADdCNl@BvCLR?z@@b@?^?f@@jAA`@Ad@?rAApA?l@?\\?PAV?`@?r@?T?rA?tEIl@AT?T?V?|BAP?J?\\AxAA^?p@A^AV?h@?V?VAv@?V?x@Ab@?dDA~BAXAn@?vBAzAAlAAP?T?|C?bAAvAA`FClAAhAAhA?~C?|AClAGrAIzDYt@MXEvAU|AYr@Kv@Mn@I~@OVGh@KhBYzAUdAMFAF?d@Gr@ITChBI\\ClCCx@C|DAr@AT?vA?fECfAAZ?ZA^?h@AL?`@@l@AP?zCClA?vBCf@?h@?XAfA?F?ZA`@?jAA`A?TAlA?^AbCAhAAxAApAAT?nAA~B?pCCnA?dCCz@A`@AP?hAAX?t@?rAAVAF?l@?D?zAAZ?v@AN?h@?bBAbCEP?hA?v@AfA?hBAzCAfAA~BCf@?|@?b@AvCCjA?zBCjB@pAC|@AvAAzAAfAAb@?lAApAAr@Av@AP@H?nBC`A?fBCj@?P?J@|@HD?h@H\\HLDPBDFb@PTJDB@@F@n@\\FDTJ^TJFj@Zz@d@HD^TB@\\PFDDBp@\\THFBVHNDB@RFNDh@HVBRBH@B?F?l@BH?h@?zAArA?XAdBAdBAbBAdA?`@?bBAfBAdAA\\?hAA\\?bBAt@?n@AX?jA?z@A@N"}, "start_location": {"lat": 29.876021, "lng": -95.414104}, "transit_details": {"arrival_stop": {"location": {"lat": 29.803965, "lng": -95.412369}, "name": "N Durham Dr @ W 20th St"}, "arrival_time": {"text": "3:38pm", "time_zone": "America/Chicago", "value": 1642023480}, "departure_stop": {"location": {"lat": 29.876021, "lng": -95.414104}, "name": "North Shepherd P&R"}, "departure_time": {"text": "3:15pm", "time_zone": "America/Chicago", "value": 1642022100}, "headsign": "TMC TC", "line": {"agencies": [{"name": "Metropolitan Transit Authority of Harris County", "phone": "1 (713) 635-4000", "url": "http://www.ridemetro.org/"}], "color": "#004080", "name": "Shepherd", "short_name": "27", "text_color": "#ffffff", "url": "https://www.ridemetro.org/MetroPDFs/Schedules/BusSchedules/n027-Shepherd.pdf", "vehicle": {"icon": "//maps.gstatic.com/mapfiles/transit/iw2/6/bus2.png", "name": "Bus", "type": "BUS"}}, "num_stops": 28, "trip_short_name": "SHEPHERD"}, "travel_mode": "TRANSIT"}, {"distance": {"text": "207 ft", "value": 63}, "duration": {"text": "1 min", "value": 56}, "end_location": {"lat": 29.80381, "lng": -95.41185329999999}, "html_instructions": "Walk to W 20th St @ N Durham Dr", "polyline": {"points": "wa|tD`fjeQ^A?OAmA"}, "start_location": {"lat": 29.8039634, "lng": -95.4123288}, "steps": [{"distance": {"text": "72 ft", "value": 22}, "duration": {"text": "1 min", "value": 16}, "end_location": {"lat": 29.8038031, "lng": -95.412241}, "html_instructions": "Head <b>south</b> on <b>N Durham Dr</b> toward <b>W 20th St</b>", "polyline": {"points": "wa|tD`fjeQ^A?O"}, "start_location": {"lat": 29.8039634, "lng": -95.4123288}, "travel_mode": "WALKING"}, {"distance": {"text": "135 ft", "value": 41}, "duration": {"text": "1 min", "value": 40}, "end_location": {"lat": 29.80381, "lng": -95.41185329999999}, "html_instructions": "Turn <b>left</b> onto <b>W 20th St</b>", "maneuver": "turn-left", "polyline": {"points": "w`|tDnejeQAmA"}, "start_location": {"lat": 29.8038031, "lng": -95.412241}, "travel_mode": "WALKING"}], "travel_mode": "WALKING"}, {"distance": {"text": "2.6 mi", "value": 4192}, "duration": {"text": "9 mins", "value": 559}, "end_location": {"lat": 29.80163, "lng": -95.454342}, "html_instructions": "Bus towards Memorial City", "polyline": {"points": "_a|tD`cjeQL??tABtJ?pB@rA?r@?H?|@?jB?@?j@@h@AL?\\?J@f@?|B?h@?|@?n@?N?|G?J@tE?d@@dC?p@AL@J?V@P@H?B?D@F@HBH@JDPDLDLDHDJDJHLFHFHLL?@TVTVn@v@NRh@h@NPVX^f@BJBFBFf@v@P`@DZDVBT@F?D@F?H?P@P?X?N?F?j@@pAIpB@f@?V?fA?j@?V@h@AjA?h@@~@?b@@^Af@@d@?X?bA?jA?b@@nC?J?d@Aj@?v@?P@dB?jA?bC?`A?\\@dH?`D?dC@fE?jD?T@`F@vB?jD?vC?X?`E@V@zCAb@?fAAX@fB@fA?T@|B?l@A~A?x@?XAzB?`A?dB?l@?P?F?H@^?Z?@?H?@?Z?h@?f@?j@?^?t@@j@BnAAV@|@@fB?bBG?"}, "start_location": {"lat": 29.803836, "lng": -95.41185399999999}, "transit_details": {"arrival_stop": {"location": {"lat": 29.80163, "lng": -95.454342}, "name": "W 18th St @ Northwest Fwy"}, "arrival_time": {"text": "4:03pm", "time_zone": "America/Chicago", "value": 1642025020}, "departure_stop": {"location": {"lat": 29.803836, "lng": -95.41185399999999}, "name": "W 20th St @ N Durham Dr"}, "departure_time": {"text": "3:54pm", "time_zone": "America/Chicago", "value": 1642024461}, "headsign": "Memorial City", "line": {"agencies": [{"name": "Metropolitan Transit Authority of Harris County", "phone": "1 (713) 635-4000", "url": "http://www.ridemetro.org/"}], "color": "#004080", "name": "Long Point / Cavalcade", "short_name": "26", "text_color": "#ffffff", "url": "https://www.ridemetro.org/MetroPDFs/Schedules/BusSchedules/n026-Long-Point-Cavalcade.pdf", "vehicle": {"icon": "//maps.gstatic.com/mapfiles/transit/iw2/6/bus2.png", "name": "Bus", "type": "BUS"}}, "num_stops": 13, "trip_short_name": "LONGPOINT"}, "travel_mode": "TRANSIT"}, {"distance": {"text": "322 ft", "value": 98}, "duration": {"text": "1 min", "value": 77}, "end_location": {"lat": 29.8019199, "lng": -95.45428179999999}, "html_instructions": "Walk to 4400 W 18th St, Houston, TX 77092, USA", "polyline": {"points": "es{tDrlreQ?z@YEc@E?G@Q@a@"}, "start_location": {"lat": 29.8016264, "lng": -95.454342}, "steps": [{"distance": {"text": "95 ft", "value": 29}, "duration": {"text": "1 min", "value": 22}, "end_location": {"lat": 29.8016252, "lng": -95.45463819999999}, "html_instructions": "Head <b>west</b> on <b>W 18th St</b>/<wbr/><b>NW Mall</b>", "polyline": {"points": "es{tDrlreQ?z@"}, "start_location": {"lat": 29.8016264, "lng": -95.454342}, "travel_mode": "WALKING"}, {"distance": {"text": "131 ft", "value": 40}, "duration": {"text": "1 min", "value": 33}, "end_location": {"lat": 29.8019405, "lng": -95.4545788}, "html_instructions": "Turn <b>right</b><div style=\"font-size:0.9em\">Restricted usage road</div>", "maneuver": "turn-right", "polyline": {"points": "es{tDnnreQYEc@E"}, "start_location": {"lat": 29.8016252, "lng": -95.45463819999999}, "travel_mode": "WALKING"}, {"distance": {"text": "95 ft", "value": 29}, "duration": {"text": "1 min", "value": 22}, "end_location": {"lat": 29.8019199, "lng": -95.45428179999999}, "html_instructions": "Turn <b>right</b><div style=\"font-size:0.9em\">Restricted usage road</div><div style=\"font-size:0.9em\">Destination will be on the left</div>", "maneuver": "turn-right", "polyline": {"points": "cu{tDbnreQ?G@Q@a@"}, "start_location": {"lat": 29.8019405, "lng": -95.4545788}, "travel_mode": "WALKING"}], "travel_mode": "WALKING"}], "traffic_speed_entry": [], "via_waypoint": []}], "overview_polyline": {"points": "}ajuDhdkeQzAAAkEA}CG?MAEQ@Q?UEO{B@AmA|FEBE?e@A}@{F@C??J?KB?zFAA{C?cDvCNzIf@dEPnA@vD?bJE~D?nHK|JGzGEtTKhGApMIhF?jDKnGc@nAS`HiAnBY`ASrG_AvBUfCMfEG~IC`MGlOK~^Qp[StECvGG~SKjMEbIIrKGdIG\\@bAHfB\\dAh@nDlBnCzAv@`@dA\\VHx@Nx@HhBBnHE`RIrMG@N?G^A?OAmAE?L??tABfN@fC?tD@|IBhX?bBBd@Hf@Vv@\\n@j@p@tAbBx@z@v@`AFRj@~@V|@Hl@B^@lA?r@@pAIpB@~@?rB@`AAtB@jDBtL?jOBtWBzO?~OBrDAjB@~E@jDAxCA|H?pA@vD@lDDlG?bBG??z@}@K@Y@a@"}, "summary": "", "warnings": ["Walking directions are in beta. Use caution \u2013 This route may be missing sidewalks or pedestrian paths."], "waypoint_order": []}, {"bounds": {"northeast": {"lat": 29.8760217, "lng": -95.3973674}, "southwest": {"lat": 29.8015904, "lng": -95.45463819999999}}, "copyrights": "Map data \u00a92022", "legs": [{"arrival_time": {"text": "4:19pm", "time_zone": "America/Chicago", "value": 1642025997}, "departure_time": {"text": "3:28pm", "time_zone": "America/Chicago", "value": 1642022900}, "distance": {"text": "9.8 mi", "value": 15786}, "duration": {"text": "52 mins", "value": 3097}, "end_address": "4400 W 18th St, Houston, TX 77092, USA", "end_location": {"lat": 29.8019199, "lng": -95.45428179999999}, "start_address": "800 Ringold St, Houston, TX 77088, USA", "start_location": {"lat": 29.875666, "lng": -95.4171745}, "steps": [{"distance": {"text": "0.4 mi", "value": 715}, "duration": {"text": "9 mins", "value": 519}, "end_location": {"lat": 29.8760217, "lng": -95.4140419}, "html_instructions": "Walk to North Shepherd P&R", "polyline": {"points": "}ajuDhdkeQzAAAkEA}CG?E?GACGAI?I@G?UEO{B@AmA|FEBE?C?a@A_@?]uE@e@?C?"}, "start_location": {"lat": 29.875666, "lng": -95.4171745}, "steps": [{"distance": {"text": "167 ft", "value": 51}, "duration": {"text": "1 min", "value": 36}, "end_location": {"lat": 29.8752085, "lng": -95.41716060000002}, "html_instructions": "Head <b>south</b> toward <b>Ringold St</b>", "polyline": {"points": "}ajuDhdkeQzAA"}, "start_location": {"lat": 29.875666, "lng": -95.4171745}, "travel_mode": "WALKING"}, {"distance": {"text": "0.1 mi", "value": 175}, "duration": {"text": "2 mins", "value": 127}, "end_location": {"lat": 29.8752303, "lng": -95.4153501}, "html_instructions": "Turn <b>left</b> onto <b>Ringold St</b>", "maneuver": "turn-left", "polyline": {"points": "a_juDfdkeQAkEA}C"}, "start_location": {"lat": 29.8752085, "lng": -95.41716060000002}, "travel_mode": "WALKING"}, {"distance": {"text": "39 ft", "value": 12}, "duration": {"text": "1 min", "value": 10}, "end_location": {"lat": 29.875339, "lng": -95.41533869999999}, "html_instructions": "Turn <b>left</b> toward <b>Shepherd Pr 2 Dr</b>", "maneuver": "turn-left", "polyline": {"points": "e_juD|xjeQG?E?GA"}, "start_location": {"lat": 29.8752303, "lng": -95.4153501}, "travel_mode": "WALKING"}, {"distance": {"text": "59 ft", "value": 18}, "duration": {"text": "1 min", "value": 14}, "end_location": {"lat": 29.8753628, "lng": -95.41516329999999}, "html_instructions": "Turn <b>right</b> toward <b>Shepherd Pr 2 Dr</b>", "maneuver": "turn-right", "polyline": {"points": "{_juDzxjeQCGAI?I@G"}, "start_location": {"lat": 29.875339, "lng": -95.41533869999999}, "travel_mode": "WALKING"}, {"distance": {"text": "285 ft", "value": 87}, "duration": {"text": "1 min", "value": 63}, "end_location": {"lat": 29.8760063, "lng": -95.4149758}, "html_instructions": "Slight <b>left</b> toward <b>Shepherd Pr 2 Dr</b>", "maneuver": "turn-slight-left", "polyline": {"points": "_`juDvwjeQ?UEO{B@"}, "start_location": {"lat": 29.8753628, "lng": -95.41516329999999}, "travel_mode": "WALKING"}, {"distance": {"text": "121 ft", "value": 37}, "duration": {"text": "1 min", "value": 28}, "end_location": {"lat": 29.8760153, "lng": -95.41458870000001}, "html_instructions": "Turn <b>right</b> toward <b>Shepherd Pr 2 Dr</b>", "maneuver": "turn-right", "polyline": {"points": "adjuDrvjeQAmA"}, "start_location": {"lat": 29.8760063, "lng": -95.4149758}, "travel_mode": "WALKING"}, {"distance": {"text": "0.1 mi", "value": 192}, "duration": {"text": "2 mins", "value": 137}, "end_location": {"lat": 29.8747391, "lng": -95.41403269999999}, "html_instructions": "Turn <b>right</b> onto <b>Shepherd Pr 2 Dr</b>", "maneuver": "turn-right", "polyline": {"points": "cdjuDdtjeQ|FEBE?C?a@A_@?]"}, "start_location": {"lat": 29.8760153, "lng": -95.41458870000001}, "travel_mode": "WALKING"}, {"distance": {"text": "469 ft", "value": 143}, "duration": {"text": "2 mins", "value": 104}, "end_location": {"lat": 29.8760217, "lng": -95.4140419}, "html_instructions": "Turn <b>left</b><div style=\"font-size:0.9em\">Destination will be on the left</div>", "maneuver": "turn-left", "polyline": {"points": "c|iuDtpjeQuE@e@?C?"}, "start_location": {"lat": 29.8747391, "lng": -95.41403269999999}, "travel_mode": "WALKING"}], "travel_mode": "WALKING"}, {"distance": {"text": "5.8 mi", "value": 9298}, "duration": {"text": "21 mins", "value": 1260}, "end_location": {"lat": 29.803894, "lng": -95.398252}, "html_instructions": "Bus towards Hobby Airport", "polyline": {"points": "cdjuDbqjeQ?KB?d@?tEA?S?K?g@AsA?g@?{B\\BxBJ`CNP@`ADdCNl@BvCLR?z@@b@?^?f@@jAA`@Ad@?rAApA?l@?\\?PAV?`@?r@?T?rA?tEIl@AT?T?V?|BAP?J?\\AxAA^?p@A^AV?h@?V?VAv@?V?x@Ab@?dDA~BAXAn@?vBAzAA~AAT?AaA?}C?}@?iD?yB?OAY?{EAqEAsC?i@@aB?A?cBC_@Ay@?CCq@KoACUUyAESK_@\\QTK\\MPEj@IJAXAP?dA?b@?nDHX?vAAdA@zA?j@A\\?bBAxACd@@|BAP?hC?\\?xAAxAApA?h@?hDA^C^?l@AhEAdB?hB?n@?vAAd@ABC?AB?BAF?N?l@CDA@?AD?@ADP?p@?`A?jDA\\ApB?^?z@AX?hA?bA?rAA`@AxA?^?jCAfAAN?rC?~BAdBA~@A|@?R?xEC`A?X?l@AfD?p@?R?J?f@A`A?B?f@ANANALAj@IPA|@SLCPCh@SXMRK^UtA}@PK`C}ALGp@c@zCqBHCvA}@h@Yd@URIjBg@PCd@Gv@ITALAF?P?\\Ar@?rACz@A`@?p@AD?P?f@?v@AbB?~@AT?b@?fAA`@?t@?rBAF?RAbCApBAfAAX?dAAzA?jACp@CVGRCdA?`A?X?r@?vDCdCAL?jAAv@?dCCh@?h@?zAAZ?X?\\?n@At@Ab@?J?NAR?N?^?r@A`@?F?NAlA@P?V?JAR?r@?bBALA|@AX?lAAZ?bBAbBAb@?b@A^?\\?d@?b@AdAA\\AbB?P?h@?h@?bBAhBCb@?lAAP?`@??g@`@?A{A?i@?YN?"}, "start_location": {"lat": 29.876021, "lng": -95.414104}, "transit_details": {"arrival_stop": {"location": {"lat": 29.803894, "lng": -95.398252}, "name": "20th St @ Heights Blvd"}, "arrival_time": {"text": "3:58pm", "time_zone": "America/Chicago", "value": 1642024680}, "departure_stop": {"location": {"lat": 29.876021, "lng": -95.414104}, "name": "North Shepherd P&R"}, "departure_time": {"text": "3:37pm", "time_zone": "America/Chicago", "value": 1642023420}, "headsign": "Hobby Airport", "line": {"agencies": [{"name": "Metropolitan Transit Authority of Harris County", "phone": "1 (713) 635-4000", "url": "http://www.ridemetro.org/"}], "color": "#004080", "name": "Telephone / Heights", "short_name": "40", "text_color": "#ffffff", "url": "https://www.ridemetro.org/MetroPDFs/Schedules/BusSchedules/n040-Telephone-Heights.pdf", "vehicle": {"icon": "//maps.gstatic.com/mapfiles/transit/iw2/6/bus2.png", "name": "Bus", "type": "BUS"}}, "num_stops": 36, "trip_short_name": "TELEHEIGHT"}, "travel_mode": "TRANSIT"}, {"distance": {"text": "282 ft", "value": 86}, "duration": {"text": "1 min", "value": 71}, "end_location": {"lat": 29.804025, "lng": -95.3973684}, "html_instructions": "Walk to E 20th St @ Heights Blvd", "polyline": {"points": "sa|tD`ngeQ?M?GM??G?S?M?SAM?u@?W"}, "start_location": {"lat": 29.8039365, "lng": -95.3982528}, "steps": [{"distance": {"text": "282 ft", "value": 86}, "duration": {"text": "1 min", "value": 71}, "end_location": {"lat": 29.804025, "lng": -95.3973684}, "html_instructions": "Head <b>east</b> on <b>W 20th St</b> toward <b>Heights Blvd</b>", "polyline": {"points": "sa|tD`ngeQ?M?GM??G?S?M?SAM?u@?W"}, "start_location": {"lat": 29.8039365, "lng": -95.3982528}, "travel_mode": "WALKING"}], "travel_mode": "WALKING"}, {"distance": {"text": "3.5 mi", "value": 5589}, "duration": {"text": "12 mins", "value": 744}, "end_location": {"lat": 29.80163, "lng": -95.454342}, "html_instructions": "Bus towards Memorial City", "polyline": {"points": "ib|tDphgeQJ??V@t@?L?R?L@R?N?f@?h@@|@?\\?d@?b@@n@?pA@|B?d@?`@@t@?T?pA@v@@rA?v@@bD@~@?nA@H?tB@^@dC?P?j@@x@?x@?t@@P?dA@|A?\\?^@dC@zB?xA?N@V?fA@`ABfE?tABtJ?pB@rA?r@?H?|@?jB?@?j@@h@AL?\\?J@f@?|B?h@?|@?n@?N?|G?J@tE?d@@dC?p@AL@J?V@P@H?B?D@F@HBH@JDPDLDLDHDJDJHLFHFHLL?@TVTVn@v@NRh@h@NPVX^f@BJBFBFf@v@P`@DZDVBT@F?D@F?H?P@P?X?N?F?j@@pAIpB@f@?V?fA?j@?V@h@AjA?h@@~@?b@@^Af@@d@?X?bA?jA?b@@nC?J?d@Aj@?v@?P@dB?jA?bC?`A?\\@dH?`D?dC@fE?jD?T@`F@vB?jD?vC?X?`E@V@zCAb@?fAAX@fB@fA?T@|B?l@A~A?x@?XAzB?`A?dB?l@?P?F?H@^?Z?@?H?@?Z?h@?f@?j@?^?t@@j@BnAAV@|@@fB?bBG?"}, "start_location": {"lat": 29.804048, "lng": -95.397369}, "transit_details": {"arrival_stop": {"location": {"lat": 29.80163, "lng": -95.454342}, "name": "W 18th St @ Northwest Fwy"}, "arrival_time": {"text": "4:18pm", "time_zone": "America/Chicago", "value": 1642025920}, "departure_stop": {"location": {"lat": 29.804048, "lng": -95.397369}, "name": "E 20th St @ Heights Blvd"}, "departure_time": {"text": "4:06pm", "time_zone": "America/Chicago", "value": 1642025176}, "headsign": "Memorial City", "line": {"agencies": [{"name": "Metropolitan Transit Authority of Harris County", "phone": "1 (713) 635-4000", "url": "http://www.ridemetro.org/"}], "color": "#004080", "name": "Long Point / Cavalcade", "short_name": "26", "text_color": "#ffffff", "url": "https://www.ridemetro.org/MetroPDFs/Schedules/BusSchedules/n026-Long-Point-Cavalcade.pdf", "vehicle": {"icon": "//maps.gstatic.com/mapfiles/transit/iw2/6/bus2.png", "name": "Bus", "type": "BUS"}}, "num_stops": 19, "trip_short_name": "LONGPOINT"}, "travel_mode": "TRANSIT"}, {"distance": {"text": "322 ft", "value": 98}, "duration": {"text": "1 min", "value": 77}, "end_location": {"lat": 29.8019199, "lng": -95.45428179999999}, "html_instructions": "Walk to 4400 W 18th St, Houston, TX 77092, USA", "polyline": {"points": "es{tDrlreQ?z@YEc@E?G@Q@a@"}, "start_location": {"lat": 29.8016264, "lng": -95.454342}, "steps": [{"distance": {"text": "95 ft", "value": 29}, "duration": {"text": "1 min", "value": 22}, "end_location": {"lat": 29.8016252, "lng": -95.45463819999999}, "html_instructions": "Head <b>west</b> on <b>W 18th St</b>/<wbr/><b>NW Mall</b>", "polyline": {"points": "es{tDrlreQ?z@"}, "start_location": {"lat": 29.8016264, "lng": -95.454342}, "travel_mode": "WALKING"}, {"distance": {"text": "131 ft", "value": 40}, "duration": {"text": "1 min", "value": 33}, "end_location": {"lat": 29.8019405, "lng": -95.4545788}, "html_instructions": "Turn <b>right</b><div style=\"font-size:0.9em\">Restricted usage road</div>", "maneuver": "turn-right", "polyline": {"points": "es{tDnnreQYEc@E"}, "start_location": {"lat": 29.8016252, "lng": -95.45463819999999}, "travel_mode": "WALKING"}, {"distance": {"text": "95 ft", "value": 29}, "duration": {"text": "1 min", "value": 22}, "end_location": {"lat": 29.8019199, "lng": -95.45428179999999}, "html_instructions": "Turn <b>right</b><div style=\"font-size:0.9em\">Restricted usage road</div><div style=\"font-size:0.9em\">Destination will be on the left</div>", "maneuver": "turn-right", "polyline": {"points": "cu{tDbnreQ?G@Q@a@"}, "start_location": {"lat": 29.8019405, "lng": -95.4545788}, "travel_mode": "WALKING"}], "travel_mode": "WALKING"}], "traffic_speed_entry": [], "via_waypoint": []}], "overview_polyline": {"points": "}ajuDhdkeQzAAAkEA}CG?MAEQ@Q?UEO{B@AmA|FEBE?e@A}@{F@C??J?KB?zFAA{C?cDvCNzIf@dEPnA@vD?bJE~D?nHK|JGzGEfUKT?AaA?{EAmICkR@cBCcCA}@OaCk@cDr@]n@Sv@Kj@AdA?rEHrG?fGG~H?bHCrEA~@CfMCfCAh@ENCdAEAFADP?rB?hECfFAbGCvUG|SGxBA|BCzAOjAWPCh@Sl@YtBsArEuCdDuB`CwAx@_@|Bk@|AQb@CjBAzIIpNEtOI|BGj@KtE?hTKnDAtCC`EEbC?xDCpMIhXM?g@`@?AeC?YN?I??M?GM??[AeB?WE?J??V@bA?`@@tB@dDDdNHvRLl^Lz^?lI@nE?fDBvVBv@F`@Rx@Zn@xBjC`BhB^f@BJFNf@v@P`@Jr@Fj@B|EIpB@f@?~A?xDBxIBjk@D`a@@xK@pG@rCAlCApG@tF?zFDpE@jEG??z@YEc@E?GBs@"}, "summary": "", "warnings": ["Walking directions are in beta. Use caution \u2013 This route may be missing sidewalks or pedestrian paths."], "waypoint_order": []}], "status": "OK"}