{"geocoded_waypoints": [{"geocoder_status": "OK", "place_id": "ChIJOVxSQWC7QIYRk1trHTtvlCs", "types": ["establishment", "point_of_interest", "school", "secondary_school"]}, {"geocoder_status": "OK", "place_id": "ChIJ9_tphxzHQIYRIMyPy_d3VZU", "types": ["establishment", "point_of_interest"]}], "routes": [{"bounds": {"northeast": {"lat": 29.8144283, "lng": -95.24646620000001}, "southwest": {"lat": 29.7737917, "lng": -95.45463819999999}}, "copyrights": "Map data \u00a92022", "legs": [{"arrival_time": {"text": "5:34pm", "time_zone": "America/Chicago", "value": 1642030497}, "departure_time": {"text": "4:14pm", "time_zone": "America/Chicago", "value": 1642025692}, "distance": {"text": "16.8 mi", "value": 27116}, "duration": {"text": "1 hour 20 mins", "value": 4805}, "end_address": "4400 W 18th St, Houston, TX 77092, USA", "end_location": {"lat": 29.8019199, "lng": -95.45428179999999}, "start_address": "500 Mercury Dr, Houston, TX 77013, USA", "start_location": {"lat": 29.7785648, "lng": -95.2470618}, "steps": [{"distance": {"text": "0.4 mi", "value": 580}, "duration": {"text": "7 mins", "value": 428}, "end_location": {"lat": 29.7741253, "lng": -95.2464664}, "html_instructions": "Walk to East Fwy @ Mercury Dr", "polyline": {"points": "_cwtDb}idQL@j@D|ANbD\\bDLzC?LHD?@ONEPAxAGh@A~@E?s@?iAA]"}, "start_location": {"lat": 29.7785648, "lng": -95.2470618}, "steps": [{"distance": {"text": "0.2 mi", "value": 369}, "duration": {"text": "5 mins", "value": 273}, "end_location": {"lat": 29.7752745, "lng": -95.2473672}, "html_instructions": "Head <b>south</b> on <b>Mercury Dr</b> toward <b>Lafferty Oaks St</b>", "polyline": {"points": "_cwtDb}idQL@j@D|ANbD\\bDLzC?LHD?@O"}, "start_location": {"lat": 29.7785648, "lng": -95.2470618}, "travel_mode": "WALKING"}, {"distance": {"text": "433 ft", "value": 132}, "duration": {"text": "2 mins", "value": 98}, "end_location": {"lat": 29.7741191, "lng": -95.2472493}, "html_instructions": "Slight <b>left</b> to stay on <b>Mercury Dr</b>", "maneuver": "turn-slight-left", "polyline": {"points": "mnvtD`_jdQNEPAxAGh@A~@E"}, "start_location": {"lat": 29.7752745, "lng": -95.2473672}, "travel_mode": "WALKING"}, {"distance": {"text": "259 ft", "value": 79}, "duration": {"text": "1 min", "value": 57}, "end_location": {"lat": 29.7741253, "lng": -95.2464664}, "html_instructions": "Turn <b>left</b> onto <b>East Fwy</b>/<wbr/><b>E Freeway Service Rd</b>", "maneuver": "turn-left", "polyline": {"points": "ggvtDh~idQ?s@?iAA]"}, "start_location": {"lat": 29.7741191, "lng": -95.2472493}, "travel_mode": "WALKING"}], "travel_mode": "WALKING"}, {"distance": {"text": "4.3 mi", "value": 6859}, "duration": {"text": "8 mins", "value": 480}, "end_location": {"lat": 29.77535, "lng": -95.31537499999999}, "html_instructions": "Bus towards Downtown", "polyline": {"points": "ogvtDlyidQL??\\@hA?z@?Z?l@@x@?l@?j@@vABF@F@L@\\Fj@Fl@@J?J@JBP?JDl@?Z?@?`@?D?^@NBJFPAPAp@Cx@CpAGhAGjAOzBG~@QrBShCEn@]lDG|@Ix@E`@W`DAJABo@hHIz@UjC{@tJC\\EPc@bF?@Ef@Eh@A@?B?BAFC\\E^ANADc@~E_@bEa@rEMxAIp@CXC\\OxAQtBQdBSxBMnAEb@ADQxBAJM|AGf@Gp@I|@AH_@jEE\\Eh@KnAEV_@rDWrCg@dGOnCQhD?rCAh@?|@?dA?^?Z@d@?tABtC@h@@pA?`@?J@b@?@?B?b@?P?@?R@pB?X@v@?z@@pA?V?r@@`A@`@?h@@pA?dA@h@?h@?f@?h@@~@@bB?@?N@`A?JBr@?J?LBd@Dt@Dz@D^?BHp@Fn@@BBPL~@Hf@@BF^Ll@J`@\\lA?@HVDLNh@L^BHJZHTVx@bC`IBHNf@^hAfCnI@Bf@dBBHDPLb@R|@Jj@Hb@Hb@BR@HBPJl@Jl@Dl@Dn@DlBBhB?~A?lB?xD?vB?dC?bC?|@?~A?d@?B?L?N?d@?dDAzD?dC@tD?lEC~BQb@ATAXGrAE^Ep@CTAVANAZAN?@?f@?h@?p@u@@W@E?m@@G`@?A"}, "start_location": {"lat": 29.7741562, "lng": -95.2464667}, "transit_details": {"arrival_stop": {"location": {"lat": 29.77535, "lng": -95.31537499999999}, "name": "Fifth Ward/Denver Harbor Transit Center"}, "arrival_time": {"text": "4:30pm", "time_zone": "America/Chicago", "value": 1642026600}, "departure_stop": {"location": {"lat": 29.7741562, "lng": -95.2464667}, "name": "East Fwy @ Mercury Dr"}, "departure_time": {"text": "4:22pm", "time_zone": "America/Chicago", "value": 1642026120}, "headsign": "Downtown", "line": {"agencies": [{"name": "Metropolitan Transit Authority of Harris County", "phone": "1 (713) 635-4000", "url": "http://www.ridemetro.org/"}], "color": "#004080", "name": "Northshore Express", "short_name": "137", "text_color": "#ffffff", "url": "https://www.ridemetro.org/MetroPDFs/Schedules/BusSchedules/n137-Northshore-Express.pdf", "vehicle": {"icon": "//maps.gstatic.com/mapfiles/transit/iw2/6/bus2.png", "name": "Bus", "type": "BUS"}}, "num_stops": 1, "trip_short_name": "NORTHSHO"}, "travel_mode": "TRANSIT"}, {"distance": {"text": "420 ft", "value": 128}, "duration": {"text": "2 mins", "value": 103}, "end_location": {"lat": 29.7762979, "lng": -95.3152978}, "html_instructions": "Walk to Lockwood Dr @ Lyons Ave", "polyline": {"points": "}nvtDbhwdQDY@O]@{@Bc@D[Dk@F"}, "start_location": {"lat": 29.7753454, "lng": -95.31537639999999}, "steps": [{"distance": {"text": "56 ft", "value": 17}, "duration": {"text": "1 min", "value": 12}, "end_location": {"lat": 29.7753077, "lng": -95.315167}, "html_instructions": "Head <b>east</b> toward <b>Lockwood Dr</b>", "polyline": {"points": "}nvtDbhwdQDY@O"}, "start_location": {"lat": 29.7753454, "lng": -95.31537639999999}, "travel_mode": "WALKING"}, {"distance": {"text": "364 ft", "value": 111}, "duration": {"text": "2 mins", "value": 91}, "end_location": {"lat": 29.7762979, "lng": -95.3152978}, "html_instructions": "Turn <b>left</b> onto <b>Lockwood Dr</b><div style=\"font-size:0.9em\">Pass by Taco Bell (on the right in 75&nbsp;ft)</div><div style=\"font-size:0.9em\">Destination will be on the right</div>", "maneuver": "turn-left", "polyline": {"points": "unvtDxfwdQ]@{@Bc@D[Dk@F"}, "start_location": {"lat": 29.7753077, "lng": -95.315167}, "travel_mode": "WALKING"}], "travel_mode": "WALKING"}, {"distance": {"text": "3.3 mi", "value": 5378}, "duration": {"text": "12 mins", "value": 720}, "end_location": {"lat": 29.81412, "lng": -95.327876}, "html_instructions": "Bus towards Tidwell TC", "polyline": {"points": "{tvtDpgwdQ@H_@DkCf@yA\\w@Jo@B_@@O@_E@oD?O?iDDW?}D@eD@[?{@?i@Ac@?WAE?YCwBCCBA?A?A@A?C?W?iABuA?sD@S@E?M?I?A?O?M?cC?G?E?U?[?C?I@m@?wE@gA@[?G@MDoBD[@_DTI?M?S?oEBW?k@BY?C?I@K@_@BQ@S?SHKDi@VMFm@\\C?ULYLUJi@PmABS?mF@Q?s@@eB@gD@g@@Y?s@@e@?W@_@KKEaA@U?a@@k@@]?]?o@?sB?{BHGBUD}@?m@@E?c@?C?Y?U?]?W?W?a@?c@@w@?S?aIDi@@{@@i@@UGg@Aa@AQ?A?q@?k@?_@?]?QAMCQ@kA@Q?m@@Q?c@?K?W?M?U?c@?{@?kA@I?G?cB@kC@C?gA@i@?eCBmA@q@@?^BzI@~IB~I@hA@zGBbH@~G?lAi@b@u@l@y@l@OWCIAA@QDG@Aj@YFN"}, "start_location": {"lat": 29.77629899999999, "lng": -95.31528899999999}, "transit_details": {"arrival_stop": {"location": {"lat": 29.81412, "lng": -95.327876}, "name": "Kashmere Transit Center"}, "arrival_time": {"text": "4:54pm", "time_zone": "America/Chicago", "value": 1642028040}, "departure_stop": {"location": {"lat": 29.77629899999999, "lng": -95.31528899999999}, "name": "Lockwood Dr @ Lyons Ave"}, "departure_time": {"text": "4:42pm", "time_zone": "America/Chicago", "value": 1642027320}, "headsign": "Tidwell TC", "line": {"agencies": [{"name": "Metropolitan Transit Authority of Harris County", "phone": "1 (713) 635-4000", "url": "http://www.ridemetro.org/"}], "color": "#004080", "name": "MLK / Lockwood", "short_name": "80", "text_color": "#ffffff", "url": "https://www.ridemetro.org/MetroPDFs/Schedules/BusSchedules/n080-MLK-Lockwood.pdf", "vehicle": {"icon": "//maps.gstatic.com/mapfiles/transit/iw2/6/bus2.png", "name": "Bus", "type": "BUS"}}, "num_stops": 19, "trip_short_name": "MLKLOCK"}, "travel_mode": "TRANSIT"}, {"distance": {"text": "8.7 mi", "value": 14073}, "duration": {"text": "34 mins", "value": 2020}, "end_location": {"lat": 29.80163, "lng": -95.454342}, "html_instructions": "Bus towards Memorial City", "polyline": {"points": "ga~tDfvydQGOp@s@RB@@HLA\\u@l@y@l@AzAl@?DAjBAr@?vFC?L|DCdEAV?~@Av@?BAX?ZAHAJ?NCVEHAD?DAVAJA@?D?r@ErAMBAb@Cl@Ez@CN?B?L?@?fAAt@?|@AP?tHCd@AX?V?\\?zFEdA?H?z@Ah@?v@?vAAb@?t@??n@?j@@bD?p@@hA?X?x@DvCFpD?rA@zBGvAEpAGjBARC\\K`AEb@]fBKb@EPGVYdAUdAMx@W|AOjAMx@EZGd@WbBKj@Ib@EVAFIf@ADKn@Kz@In@K|@SdBK|@Gb@K~@AHW|Bc@jEo@fFWlBK|@EVSbBQpAGr@Mp@Eb@CNOrAKdBCf@?HAx@?xB@d@@j@?pA@nA?X@dB?T@fAB~D@bD@ZBbEBzB@fAGrAAXGvA@vD@xC@^@tD@x@?V?v@?l@?\\BpD@nB?fA@jA?tA?T?\\?lA@nA?tA@dA?Z@bA?pB@vDAlBAV?LANAT?RAXCR?@CXQ|@Kf@Sz@ENOr@CRE\\Cb@KfCARCpAAv@AXCf@?DAT?LAHCfAAd@?D?lB?h@?VBjC?lB?x@@z@@fB?fD@fDE`BA|@?HA\\@V?lA@L?\\?x@?V@j@@t@?L?JB`@@T@NBN@N@V?f@@f@?`A?r@?L?xBAP?JALAPANIbAEb@?TAR?V?fH?p@@vD@xAC^C^CRA@ETC\\Af@?P?P?LA`@@\\BpA?^@j@?H@tA?n@?b@@b@?X?P?V@`A?v@@dA?V?vA@T?lB@jB@tA?XB|E?~A@zB@nB?V?V@t@?L?R?L@R?N?f@?h@@|@?\\?d@?b@@n@?pA@|B?d@?`@@t@?T?pA@v@@rA?v@@bD@~@?nA@H?tB@^@dC?P?j@@x@?x@?t@@P?dA@|A?\\?^@dC@zB?xA?N@V?fA@`ABfE?tABtJ?pB@rA?r@?H?|@?jB?@?j@@h@AL?\\?J@f@?|B?h@?|@?n@?N?|G?J@tE?d@@dC?p@AL@J?V@P@H?B?D@F@HBH@JDPDLDLDHDJDJHLFHFHLL?@TVTVn@v@NRh@h@NPVX^f@BJBFBFf@v@P`@DZDVBT@F?D@F?H?P@P?X?N?F?j@@pAIpB@f@?V?fA?j@?V@h@AjA?h@@~@?b@@^Af@@d@?X?bA?jA?b@@nC?J?d@Aj@?v@?P@dB?jA?bC?`A?\\@dH?`D?dC@fE?jD?T@`F@vB?jD?vC?X?`E@V@zCAb@?fAAX@fB@fA?T@|B?l@A~A?x@?XAzB?`A?dB?l@?P?F?H@^?Z?@?H?@?Z?h@?f@?j@?^?t@@j@BnAAV@|@@fB?bBG?"}, "start_location": {"lat": 29.81412, "lng": -95.327876}, "transit_details": {"arrival_stop": {"location": {"lat": 29.80163, "lng": -95.454342}, "name": "W 18th St @ Northwest Fwy"}, "arrival_time": {"text": "5:33pm", "time_zone": "America/Chicago", "value": 1642030420}, "departure_stop": {"location": {"lat": 29.81412, "lng": -95.327876}, "name": "Kashmere Transit Center"}, "departure_time": {"text": "5:00pm", "time_zone": "America/Chicago", "value": 1642028400}, "headsign": "Memorial City", "line": {"agencies": [{"name": "Metropolitan Transit Authority of Harris County", "phone": "1 (713) 635-4000", "url": "http://www.ridemetro.org/"}], "color": "#004080", "name": "Long Point / Cavalcade", "short_name": "26", "text_color": "#ffffff", "url": "https://www.ridemetro.org/MetroPDFs/Schedules/BusSchedules/n026-Long-Point-Cavalcade.pdf", "vehicle": {"icon": "//maps.gstatic.com/mapfiles/transit/iw2/6/bus2.png", "name": "Bus", "type": "BUS"}}, "num_stops": 52, "trip_short_name": "LONGPOINT"}, "travel_mode": "TRANSIT"}, {"distance": {"text": "322 ft", "value": 98}, "duration": {"text": "1 min", "value": 77}, "end_location": {"lat": 29.8019199, "lng": -95.45428179999999}, "html_instructions": "Walk to 4400 W 18th St, Houston, TX 77092, USA", "polyline": {"points": "es{tDrlreQ?z@YEc@E?G@Q@a@"}, "start_location": {"lat": 29.8016264, "lng": -95.454342}, "steps": [{"distance": {"text": "95 ft", "value": 29}, "duration": {"text": "1 min", "value": 22}, "end_location": {"lat": 29.8016252, "lng": -95.45463819999999}, "html_instructions": "Head <b>west</b> on <b>W 18th St</b>/<wbr/><b>NW Mall</b>", "polyline": {"points": "es{tDrlreQ?z@"}, "start_location": {"lat": 29.8016264, "lng": -95.454342}, "travel_mode": "WALKING"}, {"distance": {"text": "131 ft", "value": 40}, "duration": {"text": "1 min", "value": 33}, "end_location": {"lat": 29.8019405, "lng": -95.4545788}, "html_instructions": "Turn <b>right</b><div style=\"font-size:0.9em\">Restricted usage road</div>", "maneuver": "turn-right", "polyline": {"points": "es{tDnnreQYEc@E"}, "start_location": {"lat": 29.8016252, "lng": -95.45463819999999}, "travel_mode": "WALKING"}, {"distance": {"text": "95 ft", "value": 29}, "duration": {"text": "1 min", "value": 22}, "end_location": {"lat": 29.8019199, "lng": -95.45428179999999}, "html_instructions": "Turn <b>right</b><div style=\"font-size:0.9em\">Restricted usage road</div><div style=\"font-size:0.9em\">Destination will be on the left</div>", "maneuver": "turn-right", "polyline": {"points": "cu{tDbnreQ?G@Q@a@"}, "start_location": {"lat": 29.8019405, "lng": -95.4545788}, "travel_mode": "WALKING"}], "travel_mode": "WALKING"}], "traffic_speed_entry": [], "via_waypoint": []}], "overview_polyline": {"points": "_cwtDb}idQzHt@bDLzC?RH@ONEjBIhBG?}BA]E?L??\\@dC?hABjFDNBj@PpBJvA?dA@n@J\\KnEOtCWzDiAzMo@zH}@tJqA`OIn@o@vHCPsBjUgBrRgAvLq@pHw@dI_AxKa@xHA`IHjND`KL~WDlCNdDVdC\\|Bb@rBl@tBvEjOxDdM~@dDr@pDT|APzAJ|CBhE?fH?~L?vCAvKAhSQb@ATIlBQ~BE|@?pA?p@u@@]@m@@G`@Fi@yAD_AJk@D@H_@DeFdAgBN_LDoKFgH?{AEwBCCBC?_@@gJF}@?_G@cIDMDoBD{DV{FBaBBgAHS?SHu@\\uAr@o@Xi@PmABaG@eA@oIDyA@W@_@KKEaA@w@@wC@sB?{BH]HuC@qA?mPHeBBUGg@As@As@?kA?o@A}B?oE@uMFoHFHz`@FhS@lJ_BpAy@l@OWEK@QDGl@[FNGOp@s@RBJNA\\u@l@y@l@AzAr@A~CAvFC?LbKEvAApBCTAf@Il@ERAnDY|BIxPI`OGrDAt@??n@@nE@nELhI@nEWhHO~AEb@]fBQt@a@|Ac@~Bg@hDs@~E[fBYdBu@nGa@jD{@hIgAtIw@jG_@xCOrAKdBCp@ArDBpAB`HF`MJbLIlBGvA@vDBxDBnF?zCFlSBfG@tD?dHEjAEbAUvA_@bBUbAIp@OjDEdBG~BGtBAbEH~XIfEBpCBrDDpAFn@BfB?|FE|@QlCAdKBpGG~@OhAAxABpDDnHPhf@Xnt@Lv]Ht]@bH@dX?jFD~@BZPt@Vn@f@n@dDxDv@`AFRj@~@V|@Jz@Bt@?|A@pAIpB@~@@tDAtB@bB@fC@bI?|MBv`@BxI?bIBnKAlFBhGCnH?fF@vBBfJBdD?bBG??z@}@KB{@"}, "summary": "", "warnings": ["Walking directions are in beta. Use caution \u2013 This route may be missing sidewalks or pedestrian paths."], "waypoint_order": []}, {"bounds": {"northeast": {"lat": 29.8041315, "lng": -95.24646620000001}, "southwest": {"lat": 29.7573003, "lng": -95.45463819999999}}, "copyrights": "Map data \u00a92022", "legs": [{"arrival_time": {"text": "5:34pm", "time_zone": "America/Chicago", "value": 1642030497}, "departure_time": {"text": "4:14pm", "time_zone": "America/Chicago", "value": 1642025692}, "distance": {"text": "18.4 mi", "value": 29659}, "duration": {"text": "1 hour 20 mins", "value": 4805}, "end_address": "4400 W 18th St, Houston, TX 77092, USA", "end_location": {"lat": 29.8019199, "lng": -95.45428179999999}, "start_address": "500 Mercury Dr, Houston, TX 77013, USA", "start_location": {"lat": 29.7785648, "lng": -95.2470618}, "steps": [{"distance": {"text": "0.4 mi", "value": 580}, "duration": {"text": "7 mins", "value": 428}, "end_location": {"lat": 29.7741253, "lng": -95.2464664}, "html_instructions": "Walk to East Fwy @ Mercury Dr", "polyline": {"points": "_cwtDb}idQL@j@D|ANbD\\bDLzC?LHD?@ONEPAxAGh@A~@E?s@?iAA]"}, "start_location": {"lat": 29.7785648, "lng": -95.2470618}, "steps": [{"distance": {"text": "0.2 mi", "value": 369}, "duration": {"text": "5 mins", "value": 273}, "end_location": {"lat": 29.7752745, "lng": -95.2473672}, "html_instructions": "Head <b>south</b> on <b>Mercury Dr</b> toward <b>Lafferty Oaks St</b>", "polyline": {"points": "_cwtDb}idQL@j@D|ANbD\\bDLzC?LHD?@O"}, "start_location": {"lat": 29.7785648, "lng": -95.2470618}, "travel_mode": "WALKING"}, {"distance": {"text": "433 ft", "value": 132}, "duration": {"text": "2 mins", "value": 98}, "end_location": {"lat": 29.7741191, "lng": -95.2472493}, "html_instructions": "Slight <b>left</b> to stay on <b>Mercury Dr</b>", "maneuver": "turn-slight-left", "polyline": {"points": "mnvtD`_jdQNEPAxAGh@A~@E"}, "start_location": {"lat": 29.7752745, "lng": -95.2473672}, "travel_mode": "WALKING"}, {"distance": {"text": "259 ft", "value": 79}, "duration": {"text": "1 min", "value": 57}, "end_location": {"lat": 29.7741253, "lng": -95.2464664}, "html_instructions": "Turn <b>left</b> onto <b>East Fwy</b>/<wbr/><b>E Freeway Service Rd</b>", "maneuver": "turn-left", "polyline": {"points": "ggvtDh~idQ?s@?iAA]"}, "start_location": {"lat": 29.7741191, "lng": -95.2472493}, "travel_mode": "WALKING"}], "travel_mode": "WALKING"}, {"distance": {"text": "7.3 mi", "value": 11811}, "duration": {"text": "18 mins", "value": 1060}, "end_location": {"lat": 29.759659, "lng": -95.3563}, "html_instructions": "Bus towards Downtown", "polyline": {"points": "ogvtDlyidQL??\\@hA?z@?Z?l@@x@?l@?j@@vABF@F@L@\\Fj@Fl@@J?J@JBP?JDl@?Z?@?`@?D?^@NBJFPAPAp@Cx@CpAGhAGjAOzBG~@QrBShCEn@]lDG|@Ix@E`@W`DAJABo@hHIz@UjC{@tJC\\EPc@bF?@Ef@Eh@A@?B?BAFC\\E^ANADc@~E_@bEa@rEMxAIp@CXC\\OxAQtBQdBSxBMnAEb@ADQxBAJM|AGf@Gp@I|@AH_@jEE\\Eh@KnAEV_@rDWrCg@dGOnCQhD?rCAh@?|@?dA?^?Z@d@?tABtC@h@@pA?`@?J@b@?@?B?b@?P?@?R@pB?X@v@?z@@pA?V?r@@`A@`@?h@@pA?dA@h@?h@?f@?h@@~@@bB?@?N@`A?JBr@?J?LBd@Dt@Dz@D^?BHp@Fn@@BBPL~@Hf@@BF^Ll@J`@\\lA?@HVDLNh@L^BHJZHTVx@bC`IBHNf@^hAfCnI@Bf@dBBHDPLb@R|@Jj@Hb@Hb@BR@HBPJl@Jl@Dl@Dn@DlBBhB?~A?lB?xD?vB?dC?bC?|@?~A?d@?B?L?N?d@?dDAzD?dC@tD?lEC~BQb@ATAXGrAE^Ep@CTAVANAZAN?@?f@?h@?p@u@@W@E?m@@G`@Kr@XAP?T?PA`A?@n@?n@?jAAzA?V?d@?p@?LHB?NB^@P?N?T@T?r@?bA?L@\\?N@~@?B@V?j@@J?P?H@b@?B@Z@H?T?T@z@@T?D@DPb@@f@@`@@ZB`@B\\Fp@B^F^Jr@F\\Nz@Nv@Lh@T~@Pp@FTFTLd@Tt@~@bDFRFRJ\\BD@FDLBJBJ@Db@vAV|@T`A`@rAb@`BNf@@JjA|DhBpGHXDPN^J\\Jh@j@pBj@jB^tAV`Aj@nB^tAFLFRPl@DPDLHZFVH\\FXDXAD@JDXJxAFpABpA?FBrCDH@D@F@F@H?R?Z?^?f@@h@?f@?j@@Z?H?^AP?Z@j@?N?XBx@@^Dv@@T@DAH@VBr@BZDd@H|@DVFd@Lr@Jn@Pt@VhA@B\\tARv@Vx@Rp@Ph@FTd@rAj@dBBFN^Pd@P`@HPJPR\\NVLTR^TZ^f@j@n@f@f@b@\\b@\\JFl@`@B@@@^RPLVNF@TLNFb@Pb@LPH\\H@@D@VFtAV|ARRJt@Ld@JXDB@`AP@?`@F@?^HD@h@Hf@HPBf@BJBv@R@?RFJD@?^N?@RHLHf@Zb@f@x@n@\\VXRfAt@PLJFn@b@hAz@h@^^Zm@nAc@z@S`@y@`B]n@GLCFw@zAQ^KPO\\U`@KPSb@OVYj@KI"}, "start_location": {"lat": 29.7741562, "lng": -95.2464667}, "transit_details": {"arrival_stop": {"location": {"lat": 29.759659, "lng": -95.3563}, "name": "Congress St @ La Branch St"}, "arrival_time": {"text": "4:39pm", "time_zone": "America/Chicago", "value": 1642027180}, "departure_stop": {"location": {"lat": 29.7741562, "lng": -95.2464667}, "name": "East Fwy @ Mercury Dr"}, "departure_time": {"text": "4:22pm", "time_zone": "America/Chicago", "value": 1642026120}, "headsign": "Downtown", "line": {"agencies": [{"name": "Metropolitan Transit Authority of Harris County", "phone": "1 (713) 635-4000", "url": "http://www.ridemetro.org/"}], "color": "#004080", "name": "Northshore Express", "short_name": "137", "text_color": "#ffffff", "url": "https://www.ridemetro.org/MetroPDFs/Schedules/BusSchedules/n137-Northshore-Express.pdf", "vehicle": {"icon": "//maps.gstatic.com/mapfiles/transit/iw2/6/bus2.png", "name": "Bus", "type": "BUS"}}, "num_stops": 4, "trip_short_name": "NORTHSHO"}, "travel_mode": "TRANSIT"}, {"distance": {"text": "0.1 mi", "value": 202}, "duration": {"text": "2 mins", "value": 149}, "end_location": {"lat": 29.75992239999999, "lng": -95.3551232}, "html_instructions": "Walk to Franklin St @ Crawford St", "polyline": {"points": "ulstD~g_eQGLYSy@m@GEUOWQLWN[R_@NYNYDK"}, "start_location": {"lat": 29.7596287, "lng": -95.3563243}, "steps": [{"distance": {"text": "39 ft", "value": 12}, "duration": {"text": "1 min", "value": 9}, "end_location": {"lat": 29.7596705, "lng": -95.35639359999999}, "html_instructions": "Head <b>northwest</b> on <b>Congress St</b> toward <b>La Branch St</b>", "polyline": {"points": "ulstD~g_eQGL"}, "start_location": {"lat": 29.7596287, "lng": -95.3563243}, "travel_mode": "WALKING"}, {"distance": {"text": "328 ft", "value": 100}, "duration": {"text": "1 min", "value": 74}, "end_location": {"lat": 29.760358, "lng": -95.35585499999999}, "html_instructions": "Turn <b>right</b> onto <b>La Branch St</b>", "maneuver": "turn-right", "polyline": {"points": "}lstDlh_eQYSy@m@GEUOWQ"}, "start_location": {"lat": 29.7596705, "lng": -95.35639359999999}, "travel_mode": "WALKING"}, {"distance": {"text": "295 ft", "value": 90}, "duration": {"text": "1 min", "value": 66}, "end_location": {"lat": 29.75992239999999, "lng": -95.3551232}, "html_instructions": "Turn <b>right</b> onto <b>Franklin St</b><div style=\"font-size:0.9em\">Destination will be on the right</div>", "maneuver": "turn-right", "polyline": {"points": "gqstDbe_eQLWN[R_@NYNYDK"}, "start_location": {"lat": 29.760358, "lng": -95.35585499999999}, "travel_mode": "WALKING"}], "travel_mode": "WALKING"}, {"distance": {"text": "3.7 mi", "value": 5947}, "duration": {"text": "15 mins", "value": 921}, "end_location": {"lat": 29.801755, "lng": -95.342097}, "html_instructions": "Bus towards Greenspoint TC", "polyline": {"points": "knstDr`_eQIGLWP]`@w@LUBEHQZk@^w@NYN[`@u@^{@NWRa@`@y@Zm@BCFMFODIDG\\w@TI~AiD?]?CAK?MAK?AAOC]EUGUGYEOSq@GOGSOe@aA_DUw@GQQs@CISs@c@y@MWc@{@MUA?KWCGCKAAGWIa@Ke@C[Uo@EKMWMQEGKKQOAAAASMi@_@OCg@_@s@i@s@g@c@[MKOMWOEC_@Uc@SYMAAKCUIe@Si@Sa@O_@KOEQEa@AeCAu@?oA?y@@{@@K?sA?M?c@?u@Ca@@k@?M?gBBK?s@?S?}@@E?K@C?A?SDODKBA?A@C@OFKBA@ODEBm@Rc@Pa@B[BQ?e@?cAAC?U?MAA?Y?YAM?k@Ac@?W?O?C?M?q@AMAMAICIAGCICIEOKYQWQKMyAcBq@u@WYYYMIIEME]KSAWAw@?]?]A{BBy@?w@?_@?i@B]?c@?K?_B@A?O@e@?_@?]?i@?c@?Q?Q?mC@c@?S?cEB[?M@a@?_A?I?E?m@?O?sA?I?uA?q@@I?oB@I?Q?q@?g@?A?E?_@?K?K?M?[?W?Q?U@qB@]?Q@S?{B?C?U?_@?sIDY?{FBc@@eD@U?iGDc@@cDB_FFQ?aA@_A?A?oC@kIDO?wCBgKFK?qA@kB@o@AgBCu@?k@?m@?AS"}, "start_location": {"lat": 29.759905, "lng": -95.355137}, "transit_details": {"arrival_stop": {"location": {"lat": 29.801755, "lng": -95.342097}, "name": "Jensen Dr @ Cavalcade St"}, "arrival_time": {"text": "5:01pm", "time_zone": "America/Chicago", "value": 1642028460}, "departure_stop": {"location": {"lat": 29.759905, "lng": -95.355137}, "name": "Franklin St @ Crawford St"}, "departure_time": {"text": "4:45pm", "time_zone": "America/Chicago", "value": 1642027539}, "headsign": "Greenspoint TC", "line": {"agencies": [{"name": "Metropolitan Transit Authority of Harris County", "phone": "1 (713) 635-4000", "url": "http://www.ridemetro.org/"}], "color": "#004080", "name": "Jensen / Greens", "short_name": "6", "text_color": "#ffffff", "url": "https://www.ridemetro.org/MetroPDFs/Schedules/BusSchedules/n006-Jensen-Greens.pdf", "vehicle": {"icon": "//maps.gstatic.com/mapfiles/transit/iw2/6/bus2.png", "name": "Bus", "type": "BUS"}}, "num_stops": 24, "trip_short_name": "JENSENGREE"}, "travel_mode": "TRANSIT"}, {"distance": {"text": "207 ft", "value": 63}, "duration": {"text": "1 min", "value": 66}, "end_location": {"lat": 29.8021569, "lng": -95.34201689999999}, "html_instructions": "Walk to Cavalcade St @ Jensen Dr", "polyline": {"points": "}s{tDno|dQi@?M?O?O?D["}, "start_location": {"lat": 29.8017549, "lng": -95.3421599}, "steps": [{"distance": {"text": "148 ft", "value": 45}, "duration": {"text": "1 min", "value": 43}, "end_location": {"lat": 29.8021865, "lng": -95.3421642}, "html_instructions": "Head <b>north</b> on <b>Jensen Dr</b> toward <b>Cavalcade St</b>", "polyline": {"points": "}s{tDno|dQi@?M?O?O?"}, "start_location": {"lat": 29.8017549, "lng": -95.3421599}, "travel_mode": "WALKING"}, {"distance": {"text": "59 ft", "value": 18}, "duration": {"text": "1 min", "value": 23}, "end_location": {"lat": 29.8021569, "lng": -95.34201689999999}, "html_instructions": "Turn <b>right</b> onto <b>Cavalcade St</b>", "maneuver": "turn-right", "polyline": {"points": "uv{tDno|dQD["}, "start_location": {"lat": 29.8021865, "lng": -95.3421642}, "travel_mode": "WALKING"}], "travel_mode": "WALKING"}, {"distance": {"text": "6.8 mi", "value": 10958}, "duration": {"text": "26 mins", "value": 1569}, "end_location": {"lat": 29.80163, "lng": -95.454342}, "html_instructions": "Bus towards Memorial City", "polyline": {"points": "qv{tDpn|dQHBGb@K~@AHW|Bc@jEo@fFWlBK|@EVSbBQpAGr@Mp@Eb@CNOrAKdBCf@?HAx@?xB@d@@j@?pA@nA?X@dB?T@fAB~D@bD@ZBbEBzB@fAGrAAXGvA@vD@xC@^@tD@x@?V?v@?l@?\\BpD@nB?fA@jA?tA?T?\\?lA@nA?tA@dA?Z@bA?pB@vDAlBAV?LANAT?RAXCR?@CXQ|@Kf@Sz@ENOr@CRE\\Cb@KfCARCpAAv@AXCf@?DAT?LAHCfAAd@?D?lB?h@?VBjC?lB?x@@z@@fB?fD@fDE`BA|@?HA\\@V?lA@L?\\?x@?V@j@@t@?L?JB`@@T@NBN@N@V?f@@f@?`A?r@?L?xBAP?JALAPANIbAEb@?TAR?V?fH?p@@vD@xAC^C^CRA@ETC\\Af@?P?P?LA`@@\\BpA?^@j@?H@tA?n@?b@@b@?X?P?V@`A?v@@dA?V?vA@T?lB@jB@tA?XB|E?~A@zB@nB?V?V@t@?L?R?L@R?N?f@?h@@|@?\\?d@?b@@n@?pA@|B?d@?`@@t@?T?pA@v@@rA?v@@bD@~@?nA@H?tB@^@dC?P?j@@x@?x@?t@@P?dA@|A?\\?^@dC@zB?xA?N@V?fA@`ABfE?tABtJ?pB@rA?r@?H?|@?jB?@?j@@h@AL?\\?J@f@?|B?h@?|@?n@?N?|G?J@tE?d@@dC?p@AL@J?V@P@H?B?D@F@HBH@JDPDLDLDHDJDJHLFHFHLL?@TVTVn@v@NRh@h@NPVX^f@BJBFBFf@v@P`@DZDVBT@F?D@F?H?P@P?X?N?F?j@@pAIpB@f@?V?fA?j@?V@h@AjA?h@@~@?b@@^Af@@d@?X?bA?jA?b@@nC?J?d@Aj@?v@?P@dB?jA?bC?`A?\\@dH?`D?dC@fE?jD?T@`F@vB?jD?vC?X?`E@V@zCAb@?fAAX@fB@fA?T@|B?l@A~A?x@?XAzB?`A?dB?l@?P?F?H@^?Z?@?H?@?Z?h@?f@?j@?^?t@@j@BnAAV@|@@fB?bBG?"}, "start_location": {"lat": 29.802168, "lng": -95.34201399999999}, "transit_details": {"arrival_stop": {"location": {"lat": 29.80163, "lng": -95.454342}, "name": "W 18th St @ Northwest Fwy"}, "arrival_time": {"text": "5:33pm", "time_zone": "America/Chicago", "value": 1642030420}, "departure_stop": {"location": {"lat": 29.802168, "lng": -95.34201399999999}, "name": "Cavalcade St @ Jensen Dr"}, "departure_time": {"text": "5:07pm", "time_zone": "America/Chicago", "value": 1642028851}, "headsign": "Memorial City", "line": {"agencies": [{"name": "Metropolitan Transit Authority of Harris County", "phone": "1 (713) 635-4000", "url": "http://www.ridemetro.org/"}], "color": "#004080", "name": "Long Point / Cavalcade", "short_name": "26", "text_color": "#ffffff", "url": "https://www.ridemetro.org/MetroPDFs/Schedules/BusSchedules/n026-Long-Point-Cavalcade.pdf", "vehicle": {"icon": "//maps.gstatic.com/mapfiles/transit/iw2/6/bus2.png", "name": "Bus", "type": "BUS"}}, "num_stops": 41, "trip_short_name": "LONGPOINT"}, "travel_mode": "TRANSIT"}, {"distance": {"text": "322 ft", "value": 98}, "duration": {"text": "1 min", "value": 77}, "end_location": {"lat": 29.8019199, "lng": -95.45428179999999}, "html_instructions": "Walk to 4400 W 18th St, Houston, TX 77092, USA", "polyline": {"points": "es{tDrlreQ?z@YEc@E?G@Q@a@"}, "start_location": {"lat": 29.8016264, "lng": -95.454342}, "steps": [{"distance": {"text": "95 ft", "value": 29}, "duration": {"text": "1 min", "value": 22}, "end_location": {"lat": 29.8016252, "lng": -95.45463819999999}, "html_instructions": "Head <b>west</b> on <b>W 18th St</b>/<wbr/><b>NW Mall</b>", "polyline": {"points": "es{tDrlreQ?z@"}, "start_location": {"lat": 29.8016264, "lng": -95.454342}, "travel_mode": "WALKING"}, {"distance": {"text": "131 ft", "value": 40}, "duration": {"text": "1 min", "value": 33}, "end_location": {"lat": 29.8019405, "lng": -95.4545788}, "html_instructions": "Turn <b>right</b><div style=\"font-size:0.9em\">Restricted usage road</div>", "maneuver": "turn-right", "polyline": {"points": "es{tDnnreQYEc@E"}, "start_location": {"lat": 29.8016252, "lng": -95.45463819999999}, "travel_mode": "WALKING"}, {"distance": {"text": "95 ft", "value": 29}, "duration": {"text": "1 min", "value": 22}, "end_location": {"lat": 29.8019199, "lng": -95.45428179999999}, "html_instructions": "Turn <b>right</b><div style=\"font-size:0.9em\">Restricted usage road</div><div style=\"font-size:0.9em\">Destination will be on the left</div>", "maneuver": "turn-right", "polyline": {"points": "cu{tDbnreQ?G@Q@a@"}, "start_location": {"lat": 29.8019405, "lng": -95.4545788}, "travel_mode": "WALKING"}], "travel_mode": "WALKING"}], "traffic_speed_entry": [], "via_waypoint": []}], "overview_polyline": {"points": "_cwtDb}idQzHt@bDLzC?RH@ONEjBIhBG?}BA]E?L??\\@dC?hABjFDNBj@PpBJvA?dA@n@J\\KnEOtCWzDiAzMo@zH}@tJqA`OIn@o@vHCPsBjUgBrRgAvLq@pHw@dI_AxKa@xHA`IHjND`KL~WDlCNdDVdC\\|Bb@rBl@tBvEjOxDdM~@dDr@pDT|APzAJ|CBhE?fH?~L?vCAvKAhSQb@ATIlBQ~BE|@?pA?p@u@@]@m@@G`@Kr@XAf@?rAA@~AAdF?~@HB?NDp@?N@bDBzBDvCHnDPb@@f@B|@RpCj@lDdArEnCpJpAnEjB~G`EtNTp@VfAnCtJzAfFf@hB^hBPdCJbDBzCJ^B~F@hERbGXvCTxA\\dBjAzEdAjDdB`Fx@jBdAjBt@bArAvAfAz@x@h@v@d@dAf@vBr@tBb@|ARRJzAX`BXhARpARx@FxA^l@V`@Rf@Zb@f@vAfA`BhAvCtBhAz@qAjCsB`E_DjGi@bAKIDBGLYSaAs@m@a@\\s@x@_BBBIG^u@|@eB`EeIzBsETI~AiD?a@Cg@Em@Mk@i@kBaDuKcBcDUk@_@aBC[Uo@Sc@SY][aAq@OCg@_@gBqAyAeAe@Y}@a@iAc@kAc@o@Qs@G{DAqEBaB?yACcEDqC@U@q@N{@Zm@Rc@Pa@Bm@BiBAg@AcAAwBAqACi@K}@g@c@_@kCyCq@s@WOk@Qk@CoF@{DBmD@uE@gNFaI?uLBaJDsb@RyLLsGB{ZPyF@wFCAS@Jw@?_@?B]HBGb@MhA{@hIgAtIw@jG_@xCOrAKdBCp@ArDBpAB`HRdZIlBGvA@vDBxDBnF?zCFtLB~M@tD?dHEjAEbAUvA_@bBUbAIp@OjDEdBG~BGtBAbEBjIDrNIfEFdIDpAFn@BfB?|FE|@QlCAdKBpGG~@OhAAxABpDBzDDjIHlTHxUNj_@Lra@Jv\\BrK?tJ@zVD~@BZPt@Vn@f@n@zAhBhAnAv@`AFRj@~@V|@Jz@BrC@pAIpB@~@@tDAtB@bB@fC?xMBnZ@nOBxI?bIBnKAlFBhGCnH@tH?fEBhEBdD?bBG??z@}@KB{@"}, "summary": "", "warnings": ["Walking directions are in beta. Use caution \u2013 This route may be missing sidewalks or pedestrian paths."], "waypoint_order": []}, {"bounds": {"northeast": {"lat": 29.8041315, "lng": -95.24646620000001}, "southwest": {"lat": 29.7575968, "lng": -95.45463819999999}}, "copyrights": "Map data \u00a92022", "legs": [{"arrival_time": {"text": "5:34pm", "time_zone": "America/Chicago", "value": 1642030497}, "departure_time": {"text": "4:14pm", "time_zone": "America/Chicago", "value": 1642025692}, "distance": {"text": "16.8 mi", "value": 26964}, "duration": {"text": "1 hour 20 mins", "value": 4805}, "end_address": "4400 W 18th St, Houston, TX 77092, USA", "end_location": {"lat": 29.8019199, "lng": -95.45428179999999}, "start_address": "500 Mercury Dr, Houston, TX 77013, USA", "start_location": {"lat": 29.7785648, "lng": -95.2470618}, "steps": [{"distance": {"text": "0.4 mi", "value": 580}, "duration": {"text": "7 mins", "value": 428}, "end_location": {"lat": 29.7741253, "lng": -95.2464664}, "html_instructions": "Walk to East Fwy @ Mercury Dr", "polyline": {"points": "_cwtDb}idQL@j@D|ANbD\\bDLzC?LHD?@ONEPAxAGh@A~@E?s@?iAA]"}, "start_location": {"lat": 29.7785648, "lng": -95.2470618}, "steps": [{"distance": {"text": "0.2 mi", "value": 369}, "duration": {"text": "5 mins", "value": 273}, "end_location": {"lat": 29.7752745, "lng": -95.2473672}, "html_instructions": "Head <b>south</b> on <b>Mercury Dr</b> toward <b>Lafferty Oaks St</b>", "polyline": {"points": "_cwtDb}idQL@j@D|ANbD\\bDLzC?LHD?@O"}, "start_location": {"lat": 29.7785648, "lng": -95.2470618}, "travel_mode": "WALKING"}, {"distance": {"text": "433 ft", "value": 132}, "duration": {"text": "2 mins", "value": 98}, "end_location": {"lat": 29.7741191, "lng": -95.2472493}, "html_instructions": "Slight <b>left</b> to stay on <b>Mercury Dr</b>", "maneuver": "turn-slight-left", "polyline": {"points": "mnvtD`_jdQNEPAxAGh@A~@E"}, "start_location": {"lat": 29.7752745, "lng": -95.2473672}, "travel_mode": "WALKING"}, {"distance": {"text": "259 ft", "value": 79}, "duration": {"text": "1 min", "value": 57}, "end_location": {"lat": 29.7741253, "lng": -95.2464664}, "html_instructions": "Turn <b>left</b> onto <b>East Fwy</b>/<wbr/><b>E Freeway Service Rd</b>", "maneuver": "turn-left", "polyline": {"points": "ggvtDh~idQ?s@?iAA]"}, "start_location": {"lat": 29.7741191, "lng": -95.2472493}, "travel_mode": "WALKING"}], "travel_mode": "WALKING"}, {"distance": {"text": "7.6 mi", "value": 12305}, "duration": {"text": "20 mins", "value": 1180}, "end_location": {"lat": 29.761158, "lng": -95.360427}, "html_instructions": "Bus towards Downtown", "polyline": {"points": "ogvtDlyidQL??\\@hA?z@?Z?l@@x@?l@?j@@vABF@F@L@\\Fj@Fl@@J?J@JBP?JDl@?Z?@?`@?D?^@NBJFPAPAp@Cx@CpAGhAGjAOzBG~@QrBShCEn@]lDG|@Ix@E`@W`DAJABo@hHIz@UjC{@tJC\\EPc@bF?@Ef@Eh@A@?B?BAFC\\E^ANADc@~E_@bEa@rEMxAIp@CXC\\OxAQtBQdBSxBMnAEb@ADQxBAJM|AGf@Gp@I|@AH_@jEE\\Eh@KnAEV_@rDWrCg@dGOnCQhD?rCAh@?|@?dA?^?Z@d@?tABtC@h@@pA?`@?J@b@?@?B?b@?P?@?R@pB?X@v@?z@@pA?V?r@@`A@`@?h@@pA?dA@h@?h@?f@?h@@~@@bB?@?N@`A?JBr@?J?LBd@Dt@Dz@D^?BHp@Fn@@BBPL~@Hf@@BF^Ll@J`@\\lA?@HVDLNh@L^BHJZHTVx@bC`IBHNf@^hAfCnI@Bf@dBBHDPLb@R|@Jj@Hb@Hb@BR@HBPJl@Jl@Dl@Dn@DlBBhB?~A?lB?xD?vB?dC?bC?|@?~A?d@?B?L?N?d@?dDAzD?dC@tD?lEC~BQb@ATAXGrAE^Ep@CTAVANAZAN?@?f@?h@?p@u@@W@E?m@@G`@Kr@XAP?T?PA`A?@n@?n@?jAAzA?V?d@?p@?LHB?NB^@P?N?T@T?r@?bA?L@\\?N@~@?B@V?j@@J?P?H@b@?B@Z@H?T?T@z@@T?D@DPb@@f@@`@@ZB`@B\\Fp@B^F^Jr@F\\Nz@Nv@Lh@T~@Pp@FTFTLd@Tt@~@bDFRFRJ\\BD@FDLBJBJ@Db@vAV|@T`A`@rAb@`BNf@@JjA|DhBpGHXDPN^J\\Jh@j@pBj@jB^tAV`Aj@nB^tAFLFRPl@DPDLHZFVH\\FXDXAD@JDXJxAFpABpA?FBrCDH@D@F@F@H?R?Z?^?f@@h@?f@?j@@Z?H?^AP?Z@j@?N?XBx@@^Dv@@T@DAH@VBr@BZDd@H|@DVFd@Lr@Jn@Pt@VhA@B\\tARv@Vx@Rp@Ph@FTd@rAj@dBBFN^Pd@P`@HPJPR\\NVLTR^TZ^f@j@n@f@f@b@\\b@\\JFl@`@B@@@^RPLVNF@TLNFb@Pb@LPH\\H@@D@VFtAV|ARRJt@Ld@JXDB@`AP@?`@F@?^HD@h@Hf@HPBf@BJBv@R@?RFJD@?^N?@RHLHf@Zb@f@x@n@\\VXRfAt@PLJFn@b@hAz@h@^^Zm@nAc@z@S`@y@`B]n@GLCFw@zAQ^KPO\\U`@KPSb@OVYj@KRo@nAs@tAw@zAGJ[l@EJGHcBnDOXs@tACH]l@vB~AKP"}, "start_location": {"lat": 29.7741562, "lng": -95.2464667}, "transit_details": {"arrival_stop": {"location": {"lat": 29.761158, "lng": -95.360427}, "name": "Fannin St @ Preston St"}, "arrival_time": {"text": "4:41pm", "time_zone": "America/Chicago", "value": 1642027300}, "departure_stop": {"location": {"lat": 29.7741562, "lng": -95.2464667}, "name": "East Fwy @ Mercury Dr"}, "departure_time": {"text": "4:22pm", "time_zone": "America/Chicago", "value": 1642026120}, "headsign": "Downtown", "line": {"agencies": [{"name": "Metropolitan Transit Authority of Harris County", "phone": "1 (713) 635-4000", "url": "http://www.ridemetro.org/"}], "color": "#004080", "name": "Northshore Express", "short_name": "137", "text_color": "#ffffff", "url": "https://www.ridemetro.org/MetroPDFs/Schedules/BusSchedules/n137-Northshore-Express.pdf", "vehicle": {"icon": "//maps.gstatic.com/mapfiles/transit/iw2/6/bus2.png", "name": "Bus", "type": "BUS"}}, "num_stops": 6, "trip_short_name": "NORTHSHO"}, "travel_mode": "TRANSIT"}, {"distance": {"text": "443 ft", "value": 135}, "duration": {"text": "2 mins", "value": 99}, "end_location": {"lat": 29.7615644, "lng": -95.3611596}, "html_instructions": "Walk to Preston NB", "polyline": {"points": "avstDha`eQRNEJADOVADITILCF]v@EJKIGG"}, "start_location": {"lat": 29.761125, "lng": -95.36037189999999}, "steps": [{"distance": {"text": "56 ft", "value": 17}, "duration": {"text": "1 min", "value": 12}, "end_location": {"lat": 29.7610289, "lng": -95.36044849999999}, "html_instructions": "Head <b>southwest</b> on <b>Fannin St</b> toward <b>Preston St</b>", "polyline": {"points": "avstDha`eQRN"}, "start_location": {"lat": 29.761125, "lng": -95.36037189999999}, "travel_mode": "WALKING"}, {"distance": {"text": "325 ft", "value": 99}, "duration": {"text": "1 min", "value": 73}, "end_location": {"lat": 29.7614628, "lng": -95.3612459}, "html_instructions": "Turn <b>right</b> onto <b>Preston St</b>", "maneuver": "turn-right", "polyline": {"points": "mustDxa`eQEJADOVADITILCF]v@EJ"}, "start_location": {"lat": 29.7610289, "lng": -95.36044849999999}, "travel_mode": "WALKING"}, {"distance": {"text": "62 ft", "value": 19}, "duration": {"text": "1 min", "value": 14}, "end_location": {"lat": 29.7615644, "lng": -95.3611596}, "html_instructions": "Turn <b>right</b> onto <b>Main St</b>", "maneuver": "turn-right", "polyline": {"points": "cxstDxf`eQKIGG"}, "start_location": {"lat": 29.7614628, "lng": -95.3612459}, "travel_mode": "WALKING"}], "travel_mode": "WALKING"}, {"distance": {"text": "3.3 mi", "value": 5311}, "duration": {"text": "12 mins", "value": 720}, "end_location": {"lat": 29.802746, "lng": -95.36810299999999}, "html_instructions": "Light rail towards Northline TC", "polyline": {"points": "qzstDle`eQEFMK_Aq@_Aq@sAaAu@g@}AmAAACA_@SAA[QIEQIUIMGQEOEAAMC]G_@M]MMEc@GOCMCgAUaASEAE?ICIAc@I]I[GYECA]Ec@Ec@EWCSGQCGCQCOCMAKAMAC?G?O?O?Q@O@OBOBw@P]H[HE@WHIBA?MBQBA@M@SDM@UD_@JA?MD[Fu@N]HWFA?QDUFYJa@R}@^C@aA`@c@PKDSHUJUJSJ?@_@RYNa@ZWRCBSLWNSHCBWJC@a@N_@Na@NcC~@mAd@UHc@PiAb@e@P[JWJ}Al@i@R{Bx@QJYPOHc@NYHSBSFq@Vi@RmAb@_@Ne@Py@ZeA`@o@TEBC@i@Rm@T_A\\u@XYJa@Pm@Ta@Ny@ZMDKBI@E@I?OAKCMEKGIIEGEGEMEM{@cDIYQs@e@cBMk@i@mB?AMe@CKAIAI?K?k@AOAOCMEMEKEECEMKMIMEMCKCsAMOAc@EMA{AOc@EE?o@GSCQAOASASA{AIWASAW?a@A_DAU@M@K?UCoAAM?k@?O@M@MDKDsBdA{At@]PyBfAQJKDKJKHKJKLIJYj@_@p@i@|@U\\g@x@IJc@p@QTcB|B{ArBSXMLIJOPORONeA|AiAzAKPINa@n@KPKPKNo@|@_@f@IJMNMLMJKHOFOFODOBQ@O@Q?kBAW?_@?o@?U?S@O?{AFM?W@U?M?{B?{BAQ?}BAaBAK?I@I@KBkA\\?@"}, "start_location": {"lat": 29.761851, "lng": -95.361029}, "transit_details": {"arrival_stop": {"location": {"lat": 29.802746, "lng": -95.36810299999999}, "name": "Cavalcade"}, "arrival_time": {"text": "5:06pm", "time_zone": "America/Chicago", "value": 1642028760}, "departure_stop": {"location": {"lat": 29.761851, "lng": -95.361029}, "name": "Preston NB"}, "departure_time": {"text": "4:54pm", "time_zone": "America/Chicago", "value": 1642028040}, "headsign": "Northline TC", "line": {"agencies": [{"name": "Metropolitan Transit Authority of Harris County", "phone": "1 (713) 635-4000", "url": "http://www.ridemetro.org/"}], "color": "#e60f33", "name": "Metrorail Red Line", "short_name": "Red", "text_color": "#ffffff", "url": "https://www.ridemetro.org/Pages/RedLine.aspx", "vehicle": {"icon": "//maps.gstatic.com/mapfiles/transit/iw2/6/tram2.png", "name": "Light rail", "type": "TRAM"}}, "num_stops": 6}, "travel_mode": "TRANSIT"}, {"distance": {"text": "374 ft", "value": 114}, "duration": {"text": "2 mins", "value": 132}, "end_location": {"lat": 29.80337, "lng": -95.3681249}, "html_instructions": "Walk to Cavalcade St @ Fulton St", "polyline": {"points": "}y{tDnraeQ]JYJ]NOHE@MFMD?Q@Q?O@Q?S"}, "start_location": {"lat": 29.8027124, "lng": -95.36824179999999}, "steps": [{"distance": {"text": "253 ft", "value": 77}, "duration": {"text": "1 min", "value": 75}, "end_location": {"lat": 29.8033907, "lng": -95.3684799}, "html_instructions": "Head <b>north</b> on <b>Fulton St</b> toward <b>Cavalcade St</b>", "polyline": {"points": "}y{tDnraeQ]JYJ]NOHE@MFMD?Q"}, "start_location": {"lat": 29.8027124, "lng": -95.36824179999999}, "travel_mode": "WALKING"}, {"distance": {"text": "121 ft", "value": 37}, "duration": {"text": "1 min", "value": 57}, "end_location": {"lat": 29.80337, "lng": -95.3681249}, "html_instructions": "Turn <b>right</b> onto <b>Cavalcade St</b>", "maneuver": "turn-right", "polyline": {"points": "e~{tD~saeQ@Q?O@Q?S"}, "start_location": {"lat": 29.8033907, "lng": -95.3684799}, "travel_mode": "WALKING"}], "travel_mode": "WALKING"}, {"distance": {"text": "5.2 mi", "value": 8421}, "duration": {"text": "19 mins", "value": 1120}, "end_location": {"lat": 29.80163, "lng": -95.454342}, "html_instructions": "Bus towards Memorial City", "polyline": {"points": "a~{tDvqaeQF@AV?LANAT?RAXCR?@CXQ|@Kf@Sz@ENOr@CRE\\Cb@KfCARCpAAv@AXCf@?DAT?LAHCfAAd@?D?lB?h@?VBjC?lB?x@@z@@fB?fD@fDE`BA|@?HA\\@V?lA@L?\\?x@?V@j@@t@?L?JB`@@T@NBN@N@V?f@@f@?`A?r@?L?xBAP?JALAPANIbAEb@?TAR?V?fH?p@@vD@xAC^C^CRA@ETC\\Af@?P?P?LA`@@\\BpA?^@j@?H@tA?n@?b@@b@?X?P?V@`A?v@@dA?V?vA@T?lB@jB@tA?XB|E?~A@zB@nB?V?V@t@?L?R?L@R?N?f@?h@@|@?\\?d@?b@@n@?pA@|B?d@?`@@t@?T?pA@v@@rA?v@@bD@~@?nA@H?tB@^@dC?P?j@@x@?x@?t@@P?dA@|A?\\?^@dC@zB?xA?N@V?fA@`ABfE?tABtJ?pB@rA?r@?H?|@?jB?@?j@@h@AL?\\?J@f@?|B?h@?|@?n@?N?|G?J@tE?d@@dC?p@AL@J?V@P@H?B?D@F@HBH@JDPDLDLDHDJDJHLFHFHLL?@TVTVn@v@NRh@h@NPVX^f@BJBFBFf@v@P`@DZDVBT@F?D@F?H?P@P?X?N?F?j@@pAIpB@f@?V?fA?j@?V@h@AjA?h@@~@?b@@^Af@@d@?X?bA?jA?b@@nC?J?d@Aj@?v@?P@dB?jA?bC?`A?\\@dH?`D?dC@fE?jD?T@`F@vB?jD?vC?X?`E@V@zCAb@?fAAX@fB@fA?T@|B?l@A~A?x@?XAzB?`A?dB?l@?P?F?H@^?Z?@?H?@?Z?h@?f@?j@?^?t@@j@BnAAV@|@@fB?bBG?"}, "start_location": {"lat": 29.803368, "lng": -95.368125}, "transit_details": {"arrival_stop": {"location": {"lat": 29.80163, "lng": -95.454342}, "name": "W 18th St @ Northwest Fwy"}, "arrival_time": {"text": "5:33pm", "time_zone": "America/Chicago", "value": 1642030420}, "departure_stop": {"location": {"lat": 29.803368, "lng": -95.368125}, "name": "Cavalcade St @ Fulton St"}, "departure_time": {"text": "5:15pm", "time_zone": "America/Chicago", "value": 1642029300}, "headsign": "Memorial City", "line": {"agencies": [{"name": "Metropolitan Transit Authority of Harris County", "phone": "1 (713) 635-4000", "url": "http://www.ridemetro.org/"}], "color": "#004080", "name": "Long Point / Cavalcade", "short_name": "26", "text_color": "#ffffff", "url": "https://www.ridemetro.org/MetroPDFs/Schedules/BusSchedules/n026-Long-Point-Cavalcade.pdf", "vehicle": {"icon": "//maps.gstatic.com/mapfiles/transit/iw2/6/bus2.png", "name": "Bus", "type": "BUS"}}, "num_stops": 31, "trip_short_name": "LONGPOINT"}, "travel_mode": "TRANSIT"}, {"distance": {"text": "322 ft", "value": 98}, "duration": {"text": "1 min", "value": 77}, "end_location": {"lat": 29.8019199, "lng": -95.45428179999999}, "html_instructions": "Walk to 4400 W 18th St, Houston, TX 77092, USA", "polyline": {"points": "es{tDrlreQ?z@YEc@E?G@Q@a@"}, "start_location": {"lat": 29.8016264, "lng": -95.454342}, "steps": [{"distance": {"text": "95 ft", "value": 29}, "duration": {"text": "1 min", "value": 22}, "end_location": {"lat": 29.8016252, "lng": -95.45463819999999}, "html_instructions": "Head <b>west</b> on <b>W 18th St</b>/<wbr/><b>NW Mall</b>", "polyline": {"points": "es{tDrlreQ?z@"}, "start_location": {"lat": 29.8016264, "lng": -95.454342}, "travel_mode": "WALKING"}, {"distance": {"text": "131 ft", "value": 40}, "duration": {"text": "1 min", "value": 33}, "end_location": {"lat": 29.8019405, "lng": -95.4545788}, "html_instructions": "Turn <b>right</b><div style=\"font-size:0.9em\">Restricted usage road</div>", "maneuver": "turn-right", "polyline": {"points": "es{tDnnreQYEc@E"}, "start_location": {"lat": 29.8016252, "lng": -95.45463819999999}, "travel_mode": "WALKING"}, {"distance": {"text": "95 ft", "value": 29}, "duration": {"text": "1 min", "value": 22}, "end_location": {"lat": 29.8019199, "lng": -95.45428179999999}, "html_instructions": "Turn <b>right</b><div style=\"font-size:0.9em\">Restricted usage road</div><div style=\"font-size:0.9em\">Destination will be on the left</div>", "maneuver": "turn-right", "polyline": {"points": "cu{tDbnreQ?G@Q@a@"}, "start_location": {"lat": 29.8019405, "lng": -95.4545788}, "travel_mode": "WALKING"}], "travel_mode": "WALKING"}], "traffic_speed_entry": [], "via_waypoint": []}], "overview_polyline": {"points": "_cwtDb}idQzHt@bDLzC?RH@ONEjBIhBG?}BA]E?L??\\@dC?hABjFDNBj@PpBJvA?dA@n@J\\KnEOtCWzDiAzMo@zH}@tJqA`OIn@o@vHCPsBjUgBrRgAvLq@pHw@dI_AxKa@xHA`IHjND`KL~WDlCNdDVdC\\|Bb@rBl@tBvEjOxDdM~@dDr@pDT|APzAJ|CBhE?fH?~L?vCAvKAhSQb@ATIlBQ~BE|@?pA?p@u@@]@m@@G`@Kr@XAf@?rAA@~AAdF?~@HB?NDp@?N@bDBzBDvCHnDPb@@f@B|@RpCj@lDdArEnCpJpAnEjB~G`EtNTp@VfAnCtJzAfFf@hB^hBPdCJbDBzCJ^B~F@hERbGXvCTxA\\dBjAzEdAjDdB`Fx@jBdAjBt@bArAvAfAz@x@h@v@d@dAf@vBr@tBb@|ARRJzAX`BXhARpARx@FxA^l@V`@Rf@Zb@f@vAfA`BhAvCtBhAz@qAjCsB`E_DjGuFrKaC~Ew@~A]l@vB~AKPDKRNEJQ\\KZq@xASQy@YEFmA}@sCsByCyBgAm@gAa@}@S}@[q@MgDq@_@GwBa@iBSeAS{@Ki@Aa@@_@DaCh@i@No@Ja@Fu@PaB\\iAVo@R_Br@uBz@sAl@_@T{@j@gAt@s@ZyLtEwDvAeDlAk@\\s@Xm@L}DvAiHnCiJlDi@LYAYIUQKOqAyEcCoJCqAE]KYIK[U[I_BQ}CYmBQiFUaECc@B_CE{@@[FyFrCcDdBWTUXyBxDgBlCaFxGy@`AeDzEeAbBgB`C[X[P_@La@DeD?yB@qCHyOESBwA`@F\\w@VaAb@MD?Q@a@@e@F@EjAEbAUvA_@bBUbAIp@OjDEdBG~BGtBAbEBjIDrNIfEFdIDpAFn@BfB?|FE|@QlCAdKBpGG~@OhAAxABpDBzDDjIHlTHxU\\~aAJv\\BrK?tJ@zVD~@BZPt@Vn@f@n@zAhBhAnAv@`AFRj@~@V|@Jz@BrC@pAIpB@~@@tDAtB@bB@fC?xMBnZ@nOBxI?bIBnKAlFBhGCnH@tH?fEBhEBdD?bBG??z@}@KB{@"}, "summary": "", "warnings": ["Walking directions are in beta. Use caution \u2013 This route may be missing sidewalks or pedestrian paths."], "waypoint_order": []}, {"bounds": {"northeast": {"lat": 29.8026444, "lng": -95.24646620000001}, "southwest": {"lat": 29.7575968, "lng": -95.4593211}}, "copyrights": "Map data \u00a92022", "legs": [{"arrival_time": {"text": "5:35pm", "time_zone": "America/Chicago", "value": 1642030535}, "departure_time": {"text": "4:14pm", "time_zone": "America/Chicago", "value": 1642025692}, "distance": {"text": "17.0 mi", "value": 27338}, "duration": {"text": "1 hour 21 mins", "value": 4843}, "end_address": "4400 W 18th St, Houston, TX 77092, USA", "end_location": {"lat": 29.8019199, "lng": -95.45428179999999}, "start_address": "500 Mercury Dr, Houston, TX 77013, USA", "start_location": {"lat": 29.7785648, "lng": -95.2470618}, "steps": [{"distance": {"text": "0.4 mi", "value": 580}, "duration": {"text": "7 mins", "value": 428}, "end_location": {"lat": 29.7741253, "lng": -95.2464664}, "html_instructions": "Walk to East Fwy @ Mercury Dr", "polyline": {"points": "_cwtDb}idQL@j@D|ANbD\\bDLzC?LHD?@ONEPAxAGh@A~@E?s@?iAA]"}, "start_location": {"lat": 29.7785648, "lng": -95.2470618}, "steps": [{"distance": {"text": "0.2 mi", "value": 369}, "duration": {"text": "5 mins", "value": 273}, "end_location": {"lat": 29.7752745, "lng": -95.2473672}, "html_instructions": "Head <b>south</b> on <b>Mercury Dr</b> toward <b>Lafferty Oaks St</b>", "polyline": {"points": "_cwtDb}idQL@j@D|ANbD\\bDLzC?LHD?@O"}, "start_location": {"lat": 29.7785648, "lng": -95.2470618}, "travel_mode": "WALKING"}, {"distance": {"text": "433 ft", "value": 132}, "duration": {"text": "2 mins", "value": 98}, "end_location": {"lat": 29.7741191, "lng": -95.2472493}, "html_instructions": "Slight <b>left</b> to stay on <b>Mercury Dr</b>", "maneuver": "turn-slight-left", "polyline": {"points": "mnvtD`_jdQNEPAxAGh@A~@E"}, "start_location": {"lat": 29.7752745, "lng": -95.2473672}, "travel_mode": "WALKING"}, {"distance": {"text": "259 ft", "value": 79}, "duration": {"text": "1 min", "value": 57}, "end_location": {"lat": 29.7741253, "lng": -95.2464664}, "html_instructions": "Turn <b>left</b> onto <b>East Fwy</b>/<wbr/><b>E Freeway Service Rd</b>", "maneuver": "turn-left", "polyline": {"points": "ggvtDh~idQ?s@?iAA]"}, "start_location": {"lat": 29.7741191, "lng": -95.2472493}, "travel_mode": "WALKING"}], "travel_mode": "WALKING"}, {"distance": {"text": "7.8 mi", "value": 12511}, "duration": {"text": "21 mins", "value": 1230}, "end_location": {"lat": 29.7596482, "lng": -95.3616397}, "html_instructions": "Bus towards Downtown", "polyline": {"points": "ogvtDlyidQL??\\@hA?z@?Z?l@@x@?l@?j@@vABF@F@L@\\Fj@Fl@@J?J@JBP?JDl@?Z?@?`@?D?^@NBJFPAPAp@Cx@CpAGhAGjAOzBG~@QrBShCEn@]lDG|@Ix@E`@W`DAJABo@hHIz@UjC{@tJC\\EPc@bF?@Ef@Eh@A@?B?BAFC\\E^ANADc@~E_@bEa@rEMxAIp@CXC\\OxAQtBQdBSxBMnAEb@ADQxBAJM|AGf@Gp@I|@AH_@jEE\\Eh@KnAEV_@rDWrCg@dGOnCQhD?rCAh@?|@?dA?^?Z@d@?tABtC@h@@pA?`@?J@b@?@?B?b@?P?@?R@pB?X@v@?z@@pA?V?r@@`A@`@?h@@pA?dA@h@?h@?f@?h@@~@@bB?@?N@`A?JBr@?J?LBd@Dt@Dz@D^?BHp@Fn@@BBPL~@Hf@@BF^Ll@J`@\\lA?@HVDLNh@L^BHJZHTVx@bC`IBHNf@^hAfCnI@Bf@dBBHDPLb@R|@Jj@Hb@Hb@BR@HBPJl@Jl@Dl@Dn@DlBBhB?~A?lB?xD?vB?dC?bC?|@?~A?d@?B?L?N?d@?dDAzD?dC@tD?lEC~BQb@ATAXGrAE^Ep@CTAVANAZAN?@?f@?h@?p@u@@W@E?m@@G`@Kr@XAP?T?PA`A?@n@?n@?jAAzA?V?d@?p@?LHB?NB^@P?N?T@T?r@?bA?L@\\?N@~@?B@V?j@@J?P?H@b@?B@Z@H?T?T@z@@T?D@DPb@@f@@`@@ZB`@B\\Fp@B^F^Jr@F\\Nz@Nv@Lh@T~@Pp@FTFTLd@Tt@~@bDFRFRJ\\BD@FDLBJBJ@Db@vAV|@T`A`@rAb@`BNf@@JjA|DhBpGHXDPN^J\\Jh@j@pBj@jB^tAV`Aj@nB^tAFLFRPl@DPDLHZFVH\\FXDXAD@JDXJxAFpABpA?FBrCDH@D@F@F@H?R?Z?^?f@@h@?f@?j@@Z?H?^AP?Z@j@?N?XBx@@^Dv@@T@DAH@VBr@BZDd@H|@DVFd@Lr@Jn@Pt@VhA@B\\tARv@Vx@Rp@Ph@FTd@rAj@dBBFN^Pd@P`@HPJPR\\NVLTR^TZ^f@j@n@f@f@b@\\b@\\JFl@`@B@@@^RPLVNF@TLNFb@Pb@LPH\\H@@D@VFtAV|ARRJt@Ld@JXDB@`AP@?`@F@?^HD@h@Hf@HPBf@BJBv@R@?RFJD@?^N?@RHLHf@Zb@f@x@n@\\VXRfAt@PLJFn@b@hAz@h@^^Zm@nAc@z@S`@y@`B]n@GLCFw@zAQ^KPO\\U`@KPSb@OVYj@KRo@nAs@tAw@zAGJ[l@EJGHcBnDOXs@tACH]l@vB~AVRJHbAt@dAx@~B`BKR"}, "start_location": {"lat": 29.7741562, "lng": -95.2464667}, "transit_details": {"arrival_stop": {"location": {"lat": 29.7596482, "lng": -95.3616397}, "name": "Fannin St @ Texas Ave"}, "arrival_time": {"text": "4:42pm", "time_zone": "America/Chicago", "value": 1642027350}, "departure_stop": {"location": {"lat": 29.7741562, "lng": -95.2464667}, "name": "East Fwy @ Mercury Dr"}, "departure_time": {"text": "4:22pm", "time_zone": "America/Chicago", "value": 1642026120}, "headsign": "Downtown", "line": {"agencies": [{"name": "Metropolitan Transit Authority of Harris County", "phone": "1 (713) 635-4000", "url": "http://www.ridemetro.org/"}], "color": "#004080", "name": "Northshore Express", "short_name": "137", "text_color": "#ffffff", "url": "https://www.ridemetro.org/MetroPDFs/Schedules/BusSchedules/n137-Northshore-Express.pdf", "vehicle": {"icon": "//maps.gstatic.com/mapfiles/transit/iw2/6/bus2.png", "name": "Bus", "type": "BUS"}}, "num_stops": 7, "trip_short_name": "NORTHSHO"}, "travel_mode": "TRANSIT"}, {"distance": {"text": "0.3 mi", "value": 509}, "duration": {"text": "6 mins", "value": 384}, "end_location": {"lat": 29.7621626, "lng": -95.36456489999999}, "html_instructions": "Walk to Louisiana St @ Prairie St", "polyline": {"points": "qlstDzh`eQyB_Bm@lAWf@Sb@GNCBIP{@bBGHU`@GLOVqAdCGL}AxCTN"}, "start_location": {"lat": 29.7596125, "lng": -95.36157840000001}, "steps": [{"distance": {"text": "282 ft", "value": 86}, "duration": {"text": "1 min", "value": 61}, "end_location": {"lat": 29.7602218, "lng": -95.3611044}, "html_instructions": "Head <b>northeast</b> on <b>Fannin St</b> toward <b>Prairie St</b>", "polyline": {"points": "qlstDzh`eQyB_B"}, "start_location": {"lat": 29.7596125, "lng": -95.36157840000001}, "travel_mode": "WALKING"}, {"distance": {"text": "0.3 mi", "value": 405}, "duration": {"text": "5 mins", "value": 310}, "end_location": {"lat": 29.7622658, "lng": -95.3644813}, "html_instructions": "Turn <b>left</b> onto <b>Prairie St</b>", "maneuver": "turn-left", "polyline": {"points": "kpstDze`eQm@lAWf@Sb@GNCBIP{@bBGHU`@GLOVqAdCGL}AxC"}, "start_location": {"lat": 29.7602218, "lng": -95.3611044}, "travel_mode": "WALKING"}, {"distance": {"text": "59 ft", "value": 18}, "duration": {"text": "1 min", "value": 13}, "end_location": {"lat": 29.7621626, "lng": -95.36456489999999}, "html_instructions": "Turn <b>left</b> onto <b>Louisiana St</b>", "maneuver": "turn-left", "polyline": {"points": "e}stD~z`eQTN"}, "start_location": {"lat": 29.7622658, "lng": -95.3644813}, "travel_mode": "WALKING"}], "travel_mode": "WALKING"}, {"distance": {"text": "8.1 mi", "value": 13000}, "duration": {"text": "31 mins", "value": 1848}, "end_location": {"lat": 29.801027, "lng": -95.45922999999999}, "html_instructions": "Bus towards SH 249", "polyline": {"points": "k|stDh{`eQGL[UqCqBAAqCqBa@v@k@dAINIJGHA@A@GJGDC@C@C@E?M?C?Q?M?ICIEAAEGC\\SdBGd@E^O`A?BM|@M|@EZOjAALGX?@?@CJALGl@?@A@?BAHAJAHShAETCJEPCHCLGVWdAKXQh@O`@GTGLS^IPS\\AB}@~AGFADABMv@EV?@OfAOnAEXAPGd@Gn@?XGrACb@Cr@Ev@ALEp@AVEv@ALGrAEt@G~@?BGdAATGlACj@ItACb@AT?TAFG`AATCb@GzAGtAMfCANGfA?DKtBAHMfCEbAANALCr@AVAr@Al@?d@CrAAx@Cx@?NCzBAJAz@Cv@GnAQvCEz@EbAM~B?HAp@C|@GjCCj@MtFGHAB?BALCb@Af@?R?TA`@A`@ARGt@AVGp@AXGz@KtBCZ?B?@@D?B@D@FGlACd@A`@GtACZA\\KfBG|@Ez@C`@C\\A`@El@El@Cb@CZCf@Cd@AREp@APIzACXANATALANAHC\\AZATC\\A`@IbBEp@ALCp@GfAG~@G~@Cj@AXCVAL?BCd@AL?NCl@Cd@El@Ab@Ev@ANMxCCXAXAXQtCCl@?z@@dA?|A@d@?~B@d@?N?zA?P?N@d@?b@?X?\\?^?X?N?j@?b@@`@?t@@j@?j@?N@`@?z@@dC?V@h@?RARAr@AJ?NAP?RCZAV?FCxA?XExACpAClACnAAj@CvAC|@?NA`@Ab@GxAAVIhAI|BEf@KnDEv@Cv@EpAGlACz@?DA`@APCvAAPCDABCHC`AAPAF@JC@A@A@A@A@A@?@CBc@FKDG@C?IBC@C@C@C@A@EBMLwAlAc@\\sAhA_Av@MJa@^sBbB_Av@QLq@h@IHKHOLw@p@w@n@]Z_@ZSPGFIFaAz@EBe@b@QRUVY\\q@~@s@`AOPGF?@o@v@?@CB}@hAQPKNYd@c@|@ILg@bAU`@IPA@S`@g@bAw@zAq@rA}AxCkA|Bc@v@IPYh@Uf@IP?`@?DCHI\\I`@I`@CVATARA^?\\Ar@?^@`@@@?b@?@@^@hB?f@?XCjA?D?XCXCZEVId@Ot@Ot@GVUfAAD{@`E?@Mj@?@K^[|AMn@Sx@On@I`@I^[xAGZMn@Mh@Kf@Qx@Qr@_@rBg@`DKl@Gd@CXMdA?BALGj@CXCVCXE`@IfAMzBE|AAr@AXC?Ar@CbDAjCCpF@l@@v@AzG~@@X?V?Z^?r@Ap@?bAAtA?R?d@?XEAw@B?u@@S?_@AcA@cA@w@@k@ZA^@DA`AAN??H?P?f@?j@?l@?d@JCF@D?DABA@CDIDSB[@g@BUBM@AN]FGJY@K?MCUCKCCA?OGQAGAE?E@GDQJOPMD[BY@W?aAAY@c@?AVAzAAb@?f@?L?ZAn@?`B?R?f@sBNO@Q@Y?W?K@wA@y@@K?u@?wA@U?O?}@@I?Y?_@?_@@oA@oD@eABM?A?a@?c@?qA@W?w@?cA@s@?c@@_@?uA@a@?OAY?q@@c@?_@?[@cA@a@?U?G?C?E?]@S?S@]@c@?}@@M?w@@]?mA@_B@W?E?e@Aa@EQEWG[OUM[QIG_@Ui@i@e@_@OQQQOMCCc@a@MR{A|BU\\W`@sBtCg@z@a@L{@vA]b@Sd@w@lAYh@OQ"}, "start_location": {"lat": 29.762139, "lng": -95.364532}, "transit_details": {"arrival_stop": {"location": {"lat": 29.801027, "lng": -95.45922999999999}, "name": "Hempstead Rd @ W 18th St"}, "arrival_time": {"text": "5:25pm", "time_zone": "America/Chicago", "value": 1642029948}, "departure_stop": {"location": {"lat": 29.762139, "lng": -95.364532}, "name": "Louisiana St @ Prairie St"}, "departure_time": {"text": "4:55pm", "time_zone": "America/Chicago", "value": 1642028100}, "headsign": "SH 249", "line": {"agencies": [{"name": "Metropolitan Transit Authority of Harris County", "phone": "1 (713) 635-4000", "url": "http://www.ridemetro.org/"}], "color": "#004080", "name": "Antoine / Washington", "short_name": "85", "text_color": "#ffffff", "url": "https://www.ridemetro.org/MetroPDFs/Schedules/BusSchedules/n085-Antoine-Washington.pdf", "vehicle": {"icon": "//maps.gstatic.com/mapfiles/transit/iw2/6/bus2.png", "name": "Bus", "type": "BUS"}}, "num_stops": 43, "trip_short_name": "ANTOINWAS"}, "travel_mode": "TRANSIT"}, {"distance": {"text": "0.5 mi", "value": 738}, "duration": {"text": "10 mins", "value": 587}, "end_location": {"lat": 29.8019199, "lng": -95.45428179999999}, "html_instructions": "Walk to 4400 W 18th St, Houston, TX 77092, USA", "polyline": {"points": "mo{tDdkseQKPKKKAK?I@IB?Q?aA?M?QAO?OM?M@M?mED@[Ae@?g@ASDKP]d@}@Xq@B]QOIIOMEKKAQUGGEIAE?C?A@C@EBEV_@KMNWHMJSRa@Ts@R}@Jy@Hy@?G@Q@a@"}, "start_location": {"lat": 29.8010254, "lng": -95.4592253}, "steps": [{"distance": {"text": "49 ft", "value": 15}, "duration": {"text": "1 min", "value": 11}, "end_location": {"lat": 29.8011512, "lng": -95.4592626}, "html_instructions": "Head <b>northwest</b>", "polyline": {"points": "mo{tDdkseQKPKK"}, "start_location": {"lat": 29.8010254, "lng": -95.4592253}, "travel_mode": "WALKING"}, {"distance": {"text": "102 ft", "value": 31}, "duration": {"text": "1 min", "value": 23}, "end_location": {"lat": 29.8013705, "lng": -95.4592806}, "html_instructions": "Turn <b>right</b> toward <b>W 18th St</b>", "maneuver": "turn-right", "polyline": {"points": "ep{tDjkseQKAK?I@IB"}, "start_location": {"lat": 29.8011512, "lng": -95.4592626}, "travel_mode": "WALKING"}, {"distance": {"text": "240 ft", "value": 73}, "duration": {"text": "1 min", "value": 61}, "end_location": {"lat": 29.8014508, "lng": -95.4585436}, "html_instructions": "Turn <b>right</b> onto <b>W 18th St</b>", "maneuver": "turn-right", "polyline": {"points": "qq{tDnkseQ?Q?aA?M?QAO?OM?"}, "start_location": {"lat": 29.8013705, "lng": -95.4592806}, "travel_mode": "WALKING"}, {"distance": {"text": "440 ft", "value": 134}, "duration": {"text": "2 mins", "value": 127}, "end_location": {"lat": 29.80261729999999, "lng": -95.45858140000001}, "html_instructions": "Turn <b>left</b> onto <b>Mangum Rd</b>", "maneuver": "turn-left", "polyline": {"points": "ar{tDzfseQM@M?mED"}, "start_location": {"lat": 29.8014508, "lng": -95.4585436}, "travel_mode": "WALKING"}, {"distance": {"text": "0.1 mi", "value": 168}, "duration": {"text": "2 mins", "value": 133}, "end_location": {"lat": 29.8021725, "lng": -95.45703209999999}, "html_instructions": "Turn <b>right</b>", "maneuver": "turn-right", "polyline": {"points": "ky{tDbgseQ@[Ae@?g@ASDKP]d@}@Xq@B]"}, "start_location": {"lat": 29.80261729999999, "lng": -95.45858140000001}, "travel_mode": "WALKING"}, {"distance": {"text": "348 ft", "value": 106}, "duration": {"text": "1 min", "value": 80}, "end_location": {"lat": 29.8024852, "lng": -95.4562641}, "html_instructions": "Turn <b>left</b><div style=\"font-size:0.9em\">Partial restricted usage road</div>", "maneuver": "turn-left", "polyline": {"points": "qv{tDl}reQQOIIOMEKKAQUGGEIAE?C?A@C@EBEV_@"}, "start_location": {"lat": 29.8021725, "lng": -95.45703209999999}, "travel_mode": "WALKING"}, {"distance": {"text": "33 ft", "value": 10}, "duration": {"text": "1 min", "value": 8}, "end_location": {"lat": 29.8025494, "lng": -95.456192}, "html_instructions": "Turn <b>left</b><div style=\"font-size:0.9em\">Restricted usage road</div>", "maneuver": "turn-left", "polyline": {"points": "qx{tDrxreQKM"}, "start_location": {"lat": 29.8024852, "lng": -95.4562641}, "travel_mode": "WALKING"}, {"distance": {"text": "0.1 mi", "value": 201}, "duration": {"text": "2 mins", "value": 144}, "end_location": {"lat": 29.8019199, "lng": -95.45428179999999}, "html_instructions": "Turn <b>right</b><div style=\"font-size:0.9em\">Restricted usage road</div><div style=\"font-size:0.9em\">Destination will be on the left</div>", "maneuver": "turn-right", "polyline": {"points": "}x{tDdxreQNWHMJSRa@Ts@R}@Jy@Hy@?G@Q@a@"}, "start_location": {"lat": 29.8025494, "lng": -95.456192}, "travel_mode": "WALKING"}], "travel_mode": "WALKING"}], "traffic_speed_entry": [], "via_waypoint": []}], "overview_polyline": {"points": "_cwtDb}idQzHt@bDLzC?RH@ONEjBIhBG?}BA]E?L??\\@dC?hABjFDNBj@PpBJvA?dA@n@J\\KnEOtCWzDiAzMo@zH}@tJqA`OIn@o@vHCPsBjUgBrRgAvLq@pHw@dI_AxKa@xHA`IHjND`KL~WDlCNdDVdC\\|Bb@rBl@tBvEjOxDdM~@dDr@pDT|APzAJ|CBhE?fH?~L?vCAvKAhSQb@ATIlBQ~BE|@?pA?p@u@@]@m@@G`@Kr@XAf@?rAA@~AAdF?~@HB?NDp@?N@bDBzBDvCHnDPb@@f@B|@RpCj@lDdArEnCpJpAnEjB~G`EtNTp@VfAnCtJzAfFf@hB^hBPdCJbDBzCJ^B~F@hERbGXvCTxA\\dBjAzEdAjDdB`Fx@jBdAjBt@bArAvAfAz@x@h@v@d@dAf@vBr@tBb@|ARRJzAX`BXhARpARx@FxA^l@V`@Rf@Zb@f@vAfA`BhAvCtBhAz@qAjCsB`E_DjGuFrKaC~Ew@~A]l@vB~Ab@\\hCnB~B`BKRFKyB_BeAtB[r@qAbC_ClEeBfDTNBEGL[UsCsBqCqBa@v@u@tAUXOPGB[@_@?SIGIWbC]jC{@lGOlAEb@c@|Bg@tBu@zBy@|AiApBUtAg@bEGd@Gn@?XKvBIjBOnCWvEe@hJKtBa@|Im@xLIlCG`FIpEErBYfFYhGQfHMtFGHAFGlBElBSxCWpEBPEtAEfAYvFg@zIu@tMeA`Se@vKYbFCl@?z@@bDBzE@bD?tFFbL?hBE`BSnJUtL]xH[fI[~JEHGjAEf@GFABg@Ja@JOFsHlGuCbCqAdAwAjAuGvFk@f@g@j@oCpDw@bAsA~AsA`CiAxB}JvRo@pAIP?`@CNS~@Mx@Ch@CpCBhABjEGdCIr@YzAo@zCiApFiCrLo@|Cc@lBgAtGe@rDMvAWzCSxEClAC?Ar@EnHA~G?rIxA@V?Z^AdBAxC?x@?XEAw@B?u@@s@?gCBcBz@?fACN??H?x@?xA?d@JCL@HCFMHo@D}@DOVe@Le@Cc@GOQGYCK@YPOPMDu@DwC?E~DAzD?z@cCPoABsEB_HDsIFyC@cKDaHBkCDkKFk@As@Ks@Wq@_@i@]oAiAu@u@c@a@MRqBzCkCvDg@z@a@L{@vA]b@Sd@w@lAYh@OQKPKKKAU@IB?Q?oAAa@?OM?[@mED@[AmAB_@v@{AXq@B][YUYKAQUMQ?ODKV_@KMXe@^u@Ts@^wBHaABs@"}, "summary": "", "warnings": ["Walking directions are in beta. Use caution \u2013 This route may be missing sidewalks or pedestrian paths."], "waypoint_order": []}], "status": "OK"}