{"geocoded_waypoints": [{"geocoder_status": "OK", "place_id": "ChIJx2_J63S_QIYRtgg_lTflPLk", "types": ["establishment", "point_of_interest", "school"]}, {"geocoder_status": "OK", "place_id": "ChIJ9_tphxzHQIYRIMyPy_d3VZU", "types": ["establishment", "point_of_interest"]}], "routes": [{"bounds": {"northeast": {"lat": 29.8026484, "lng": -95.36333979999999}, "southwest": {"lat": 29.7313857, "lng": -95.4593211}}, "copyrights": "Map data \u00a92022", "legs": [{"arrival_time": {"text": "5:19pm", "time_zone": "America/Chicago", "value": 1642029575}, "departure_time": {"text": "4:11pm", "time_zone": "America/Chicago", "value": 1642025502}, "distance": {"text": "11.3 mi", "value": 18251}, "duration": {"text": "1 hour 8 mins", "value": 4073}, "end_address": "4400 W 18th St, Houston, TX 77092, USA", "end_location": {"lat": 29.8019199, "lng": -95.45428179999999}, "start_address": "1906 Cleburne St, Houston, TX 77004, USA", "start_location": {"lat": 29.7313857, "lng": -95.37379589999999}, "steps": [{"distance": {"text": "0.1 mi", "value": 226}, "duration": {"text": "3 mins", "value": 164}, "end_location": {"lat": 29.7321794, "lng": -95.37551889999999}, "html_instructions": "Walk to Almeda Rd @ Cleburne St", "polyline": {"points": "e|mtDfubeQ}A`DGL}AzCd@J"}, "start_location": {"lat": 29.7313857, "lng": -95.37379589999999}, "steps": [{"distance": {"text": "0.1 mi", "value": 199}, "duration": {"text": "2 mins", "value": 144}, "end_location": {"lat": 29.7323654, "lng": -95.3754568}, "html_instructions": "Head <b>northwest</b> on <b>Cleburne St</b> toward <b>Chenevert St</b>", "polyline": {"points": "e|mtDfubeQ}A`DGL}AzC"}, "start_location": {"lat": 29.7313857, "lng": -95.37379589999999}, "travel_mode": "WALKING"}, {"distance": {"text": "89 ft", "value": 27}, "duration": {"text": "1 min", "value": 20}, "end_location": {"lat": 29.7321794, "lng": -95.37551889999999}, "html_instructions": "Turn <b>left</b> onto <b>Almeda Rd</b>", "maneuver": "turn-left", "polyline": {"points": "ibntDr_ceQd@J"}, "start_location": {"lat": 29.7323654, "lng": -95.3754568}, "travel_mode": "WALKING"}], "travel_mode": "WALKING"}, {"distance": {"text": "1.3 mi", "value": 2155}, "duration": {"text": "7 mins", "value": 391}, "end_location": {"lat": 29.748128, "lng": -95.366591}, "html_instructions": "Bus towards Gellhorn & 610", "polyline": {"points": "_antDr_ceQERm@Oy@OOGA?c@KgAW}Bi@qA_@}@UOIaC}@y@k@m@_@YWeBoASOqB{AqBwAwAeAu@g@CCo@e@aAu@}@q@c@[OM}@q@]U_@YQMqAaAc@[cAu@m@c@{BaBQOsByAoA_AIEmCoBWS_As@MKgAw@[W]Ws@i@e@]]W]WMIOKCEA?QMAAAAAA]U{@m@uAcAgBjD_@j@m@hAIPMI"}, "start_location": {"lat": 29.732165, "lng": -95.375462}, "transit_details": {"arrival_stop": {"location": {"lat": 29.748128, "lng": -95.366591}, "name": "St Joseph Pkwy @ Austin St"}, "arrival_time": {"text": "4:21pm", "time_zone": "America/Chicago", "value": 1642026067}, "departure_stop": {"location": {"lat": 29.732165, "lng": -95.375462}, "name": "Almeda Rd @ Cleburne St"}, "departure_time": {"text": "4:14pm", "time_zone": "America/Chicago", "value": 1642025676}, "headsign": "Gellhorn & 610", "line": {"agencies": [{"name": "Metropolitan Transit Authority of Harris County", "phone": "1 (713) 635-4000", "url": "http://www.ridemetro.org/"}], "color": "#004080", "name": "Almeda / Lyons", "short_name": "11", "text_color": "#ffffff", "url": "https://www.ridemetro.org/MetroPDFs/Schedules/BusSchedules/n011-Almeda-Lyons.pdf", "vehicle": {"icon": "//maps.gstatic.com/mapfiles/transit/iw2/6/bus2.png", "name": "Bus", "type": "BUS"}}, "num_stops": 7, "trip_short_name": "ALMEDALYON"}, "travel_mode": "TRANSIT"}, {"distance": {"text": "344 ft", "value": 105}, "duration": {"text": "1 min", "value": 77}, "end_location": {"lat": 29.7486275, "lng": -95.36751140000001}, "html_instructions": "Walk to St Joseph Pkwy @ Caroline St", "polyline": {"points": "qdqtDjhaeQQXGLq@tA_@r@"}, "start_location": {"lat": 29.7480941, "lng": -95.3666185}, "steps": [{"distance": {"text": "344 ft", "value": 105}, "duration": {"text": "1 min", "value": 77}, "end_location": {"lat": 29.7486275, "lng": -95.36751140000001}, "html_instructions": "Head <b>northwest</b> on <b>St Joseph Pkwy</b> toward <b>Austin St</b><div style=\"font-size:0.9em\">Destination will be on the right</div>", "polyline": {"points": "qdqtDjhaeQQXGLq@tA_@r@"}, "start_location": {"lat": 29.7480941, "lng": -95.3666185}, "travel_mode": "WALKING"}], "travel_mode": "WALKING"}, {"distance": {"text": "9.3 mi", "value": 15027}, "duration": {"text": "38 mins", "value": 2271}, "end_location": {"lat": 29.801027, "lng": -95.45922999999999}, "html_instructions": "Bus towards Greenspoint TC", "polyline": {"points": "chqtDxmaeQJHOVo@tAIRi@dAc@z@aAlBi@`AU`@CDOZQZCDEJCDCFk@lAMXMRU`@]p@OXOVg@bA}@dBOXYh@wCuBu@i@a@[g@]UQ_@W]WwAeAEEuB}AWSwAeAy@m@gAy@g@_@KGWOi@c@[WIEg@_@_@W_CeBUOwAgA}@q@]Wm@c@e@]MISMmCsBGC{BcBQMCCi@_@QMUQkA{@aCiB[UqCqBAAqCqBa@v@k@dAINIJGHA@A@GJGDC@C@C@E?M?C?Q?M?ICIEAAEGC\\SdBGd@E^O`A?BM|@M|@EZOjAALGX?@?@CJALGl@?@A@?BAHAJAHShAETCJEPCHCLGVWdAKXQh@O`@GTGLS^IPS\\AB}@~AGFADABMv@EV?@OfAOnAEXAPGd@Gn@?XGrACb@Cr@Ev@ALEp@AVEv@ALGrAEt@G~@?BGdAATGlACj@ItACb@AT?TAFG`AATCb@GzAGtAMfCANGfA?DKtBAHMfCEbAANALCr@AVAr@Al@?d@CrAAx@Cx@?NCzBAJAz@Cv@GnAQvCEz@EbAM~B?HAp@C|@GjCCj@MtFGHAB?BALCb@Af@?R?TA`@A`@ARGt@AVGp@AXGz@KtBCZ?B?@@D?B@D@FGlACd@A`@GtACZA\\KfBG|@Ez@C`@C\\A`@El@El@Cb@CZCf@Cd@AREp@APIzACXANATALANAHC\\AZATC\\A`@IbBEp@ALCp@GfAG~@G~@Cj@AXCVAL?BCd@AL?NCl@Cd@El@Ab@Ev@ANMxCCXAXAXQtCCl@?z@@dA?|A@d@?~B@d@?N?zA?P?N@d@?b@?X?\\?^?X?N?j@?b@@`@?t@@j@?j@?N@`@?z@@dC?V@h@?RARAr@AJ?NAP?RCZAV?FCxA?XExACpAClACnAAj@CvAC|@?NA`@Ab@GxAAVIhAI|BEf@KnDEv@Cv@EpAGlACz@?DA`@APCvAAPCDABCHC`AAPAF@JC@A@A@A@A@A@?@CBc@FKDG@C?IBC@C@C@C@A@EBMLwAlAc@\\sAhA_Av@MJa@^sBbB_Av@QLq@h@IHKHOLw@p@w@n@]Z_@ZSPGFIFaAz@EBe@b@QRUVY\\q@~@s@`AOPGF?@o@v@?@CB}@hAQPKNYd@c@|@ILg@bAU`@IPA@S`@g@bAw@zAq@rA}AxCkA|Bc@v@IPYh@Uf@IP?`@?DCHI\\I`@I`@CVATARA^?\\Ar@?^@`@@@?b@?@@^@hB?f@?XCjA?D?XCXCZEVId@Ot@Ot@GVUfAAD{@`E?@Mj@?@K^[|AMn@Sx@On@I`@I^[xAGZMn@Mh@Kf@Qx@Qr@_@rBg@`DKl@Gd@CXMdA?BALGj@CXCVCXE`@IfAMzBE|AAr@AXC?Ar@CbDAjCCpF@l@@v@AzG~@@X?V?Z^?r@Ap@?bAAtA?R?d@?XEAw@B?u@@S?_@AcA@cA@w@@k@ZA^@DA`AAN??H?P?f@?j@?l@?d@JCF@D?DABA@CDIDSB[@g@BUBM@AN]FGJY@K?MCUCKCCA?OGQAGAE?E@GDQJOPMD[BY@W?aAAY@c@?AVAzAAb@?f@?L?ZAn@?`B?R?f@sBNO@Q@Y?W?K@wA@y@@K?u@?wA@U?O?}@@I?Y?_@?_@@oA@oD@eABM?A?a@?c@?qA@W?w@?cA@s@?c@@_@?uA@a@?OAY?q@@c@?_@?[@cA@a@?U?G?C?E?]@S?S@]@c@?}@@M?w@@]?mA@_B@W?E?e@Aa@EQEWG[OUM[QIG_@Ui@i@e@_@OQQQOMCCc@a@MR{A|BU\\W`@sBtCg@z@a@L{@vA]b@Sd@w@lAYh@OQ"}, "start_location": {"lat": 29.748655, "lng": -95.36748899999999}, "transit_details": {"arrival_stop": {"location": {"lat": 29.801027, "lng": -95.45922999999999}, "name": "Hempstead Rd @ W 18th St"}, "arrival_time": {"text": "5:09pm", "time_zone": "America/Chicago", "value": 1642028988}, "departure_stop": {"location": {"lat": 29.748655, "lng": -95.36748899999999}, "name": "St Joseph Pkwy @ Caroline St"}, "departure_time": {"text": "4:31pm", "time_zone": "America/Chicago", "value": 1642026717}, "headsign": "Greenspoint TC", "line": {"agencies": [{"name": "Metropolitan Transit Authority of Harris County", "phone": "1 (713) 635-4000", "url": "http://www.ridemetro.org/"}], "color": "#004080", "name": "Antoine / Washington", "short_name": "85", "text_color": "#ffffff", "url": "https://www.ridemetro.org/MetroPDFs/Schedules/BusSchedules/n085-Antoine-Washington.pdf", "vehicle": {"icon": "//maps.gstatic.com/mapfiles/transit/iw2/6/bus2.png", "name": "Bus", "type": "BUS"}}, "num_stops": 52, "trip_short_name": "ANTOINWAS"}, "travel_mode": "TRANSIT"}, {"distance": {"text": "0.5 mi", "value": 738}, "duration": {"text": "10 mins", "value": 587}, "end_location": {"lat": 29.8019199, "lng": -95.45428179999999}, "html_instructions": "Walk to 4400 W 18th St, Houston, TX 77092, USA", "polyline": {"points": "mo{tDdkseQKPKKKAK?I@IB?Q?aA?M?QAO?OM?M@M?mED@[Ae@?g@ASDKP]d@}@Xq@B]QOIIOMEKKAQUGGEIAE?C?A@C@EBEV_@KMNWHMJSRa@Ts@R}@Jy@Hy@?G@Q@a@"}, "start_location": {"lat": 29.8010254, "lng": -95.4592253}, "steps": [{"distance": {"text": "49 ft", "value": 15}, "duration": {"text": "1 min", "value": 11}, "end_location": {"lat": 29.8011512, "lng": -95.4592626}, "html_instructions": "Head <b>northwest</b>", "polyline": {"points": "mo{tDdkseQKPKK"}, "start_location": {"lat": 29.8010254, "lng": -95.4592253}, "travel_mode": "WALKING"}, {"distance": {"text": "102 ft", "value": 31}, "duration": {"text": "1 min", "value": 23}, "end_location": {"lat": 29.8013705, "lng": -95.4592806}, "html_instructions": "Turn <b>right</b> toward <b>W 18th St</b>", "maneuver": "turn-right", "polyline": {"points": "ep{tDjkseQKAK?I@IB"}, "start_location": {"lat": 29.8011512, "lng": -95.4592626}, "travel_mode": "WALKING"}, {"distance": {"text": "240 ft", "value": 73}, "duration": {"text": "1 min", "value": 61}, "end_location": {"lat": 29.8014508, "lng": -95.4585436}, "html_instructions": "Turn <b>right</b> onto <b>W 18th St</b>", "maneuver": "turn-right", "polyline": {"points": "qq{tDnkseQ?Q?aA?M?QAO?OM?"}, "start_location": {"lat": 29.8013705, "lng": -95.4592806}, "travel_mode": "WALKING"}, {"distance": {"text": "440 ft", "value": 134}, "duration": {"text": "2 mins", "value": 127}, "end_location": {"lat": 29.80261729999999, "lng": -95.45858140000001}, "html_instructions": "Turn <b>left</b> onto <b>Mangum Rd</b>", "maneuver": "turn-left", "polyline": {"points": "ar{tDzfseQM@M?mED"}, "start_location": {"lat": 29.8014508, "lng": -95.4585436}, "travel_mode": "WALKING"}, {"distance": {"text": "0.1 mi", "value": 168}, "duration": {"text": "2 mins", "value": 133}, "end_location": {"lat": 29.8021725, "lng": -95.45703209999999}, "html_instructions": "Turn <b>right</b>", "maneuver": "turn-right", "polyline": {"points": "ky{tDbgseQ@[Ae@?g@ASDKP]d@}@Xq@B]"}, "start_location": {"lat": 29.80261729999999, "lng": -95.45858140000001}, "travel_mode": "WALKING"}, {"distance": {"text": "348 ft", "value": 106}, "duration": {"text": "1 min", "value": 80}, "end_location": {"lat": 29.8024852, "lng": -95.4562641}, "html_instructions": "Turn <b>left</b><div style=\"font-size:0.9em\">Partial restricted usage road</div>", "maneuver": "turn-left", "polyline": {"points": "qv{tDl}reQQOIIOMEKKAQUGGEIAE?C?A@C@EBEV_@"}, "start_location": {"lat": 29.8021725, "lng": -95.45703209999999}, "travel_mode": "WALKING"}, {"distance": {"text": "33 ft", "value": 10}, "duration": {"text": "1 min", "value": 8}, "end_location": {"lat": 29.8025494, "lng": -95.456192}, "html_instructions": "Turn <b>left</b><div style=\"font-size:0.9em\">Restricted usage road</div>", "maneuver": "turn-left", "polyline": {"points": "qx{tDrxreQKM"}, "start_location": {"lat": 29.8024852, "lng": -95.4562641}, "travel_mode": "WALKING"}, {"distance": {"text": "0.1 mi", "value": 201}, "duration": {"text": "2 mins", "value": 144}, "end_location": {"lat": 29.8019199, "lng": -95.45428179999999}, "html_instructions": "Turn <b>right</b><div style=\"font-size:0.9em\">Restricted usage road</div><div style=\"font-size:0.9em\">Destination will be on the left</div>", "maneuver": "turn-right", "polyline": {"points": "}x{tDdxreQNWHMJSRa@Ts@R}@Jy@Hy@?G@Q@a@"}, "start_location": {"lat": 29.8025494, "lng": -95.456192}, "travel_mode": "WALKING"}], "travel_mode": "WALKING"}], "traffic_speed_entry": [], "via_waypoint": []}], "overview_polyline": {"points": "e|mtDfubeQeBnD}AzCd@JBKERgB_@u@SeEaAoCu@qCgAgBkAeGsEcGiEsEiDwIqGoPyL{KiIc@[qCqBgCvEw@zAMIFDYf@qAhCECJH_AlByCbGsAdC_@r@kAbCsAdCoClFwGyE_I_GaGmEiBsAqEcDiEaDuByAcHiFqMqJsCsBmA|B]f@UT[BU?WCKGEGC\\[jCU`Ba@zC]bCOxA_@tBU`Ac@~Aa@jAm@tA{AhCWxAw@zGGlBGvAOnCg@nJe@hJm@pMk@tLQzMOnEk@vKMdGQ`HILG|AClBm@zJ@NBLKrBOpD]bGa@hHy@nO}@`Qe@`KUbE@`CBhH@nGB|GDtJM|DWpNIfEI|BK`BOdDQfFUrGGpCEVELEfBIFGH{@NUHYTsNtLyAjA}CjCeA|@gA~@w@v@o@t@eB`CgArAaAnA]`@}@bBqAdCuBbE_GbLcAtB?f@Mf@SbAEl@EdCBfBBrDCdCGt@O|@}@jEaCdLwBzJoAhG_AnGi@pFWbEGpCAXC?EvEE|JBdBAzG~@@p@?Z^?r@AtBAhDEAw@B@iAAcBB{B@k@ZAd@?pAA?Z?fD^CDEJ]DcAFc@d@aA@YGa@ECOGQAMAMFa@\\MD[Bq@@{A?c@?AVC~BA`C?tB?f@sBNa@Bq@?iDDsD@gNJ{HBmEB}B?gFBkABmCBcGD]?gAGi@Mq@]e@Y_@Ui@i@u@q@a@_@g@e@iBpCm@~@sBtCg@z@a@L{@vA]b@Sd@qAvBOQKPKKWASD?sAA_AwFFA}BVi@~@oBB]QOYWEKKAY]GU^o@KMNWTa@Ra@Ts@R}@TsB@Y@a@"}, "summary": "", "warnings": ["Walking directions are in beta. Use caution \u2013 This route may be missing sidewalks or pedestrian paths."], "waypoint_order": []}, {"bounds": {"northeast": {"lat": 29.804135, "lng": -95.3729753}, "southwest": {"lat": 29.7288956, "lng": -95.45463819999999}}, "copyrights": "Map data \u00a92022", "legs": [{"arrival_time": {"text": "5:19pm", "time_zone": "America/Chicago", "value": 1642029597}, "departure_time": {"text": "4:12pm", "time_zone": "America/Chicago", "value": 1642025545}, "distance": {"text": "11.0 mi", "value": 17648}, "duration": {"text": "1 hour 8 mins", "value": 4052}, "end_address": "4400 W 18th St, Houston, TX 77092, USA", "end_location": {"lat": 29.8019199, "lng": -95.45428179999999}, "start_address": "1906 Cleburne St, Houston, TX 77004, USA", "start_location": {"lat": 29.7313857, "lng": -95.37379589999999}, "steps": [{"distance": {"text": "0.2 mi", "value": 373}, "duration": {"text": "5 mins", "value": 271}, "end_location": {"lat": 29.7289251, "lng": -95.3742012}, "html_instructions": "Walk to Wheeler St @ Chartres St", "polyline": {"points": "e|mtDfubeQ@CdB_DfCfBh@`@f@^^Vt@h@|@l@FKLY"}, "start_location": {"lat": 29.7313857, "lng": -95.37379589999999}, "steps": [{"distance": {"text": "335 ft", "value": 102}, "duration": {"text": "1 min", "value": 71}, "end_location": {"lat": 29.73087139999999, "lng": -95.3729753}, "html_instructions": "Head <b>southeast</b> on <b>Cleburne St</b> toward <b>Hamilton St</b>", "polyline": {"points": "e|mtDfubeQ@CdB_D"}, "start_location": {"lat": 29.7313857, "lng": -95.37379589999999}, "travel_mode": "WALKING"}, {"distance": {"text": "0.2 mi", "value": 253}, "duration": {"text": "3 mins", "value": 185}, "end_location": {"lat": 29.7290002, "lng": -95.3743251}, "html_instructions": "Turn <b>right</b> onto <b>Chartres St</b>", "maneuver": "turn-right", "polyline": {"points": "}xmtDbpbeQfCfBh@`@f@^^Vt@h@|@l@FK"}, "start_location": {"lat": 29.73087139999999, "lng": -95.3729753}, "travel_mode": "WALKING"}, {"distance": {"text": "59 ft", "value": 18}, "duration": {"text": "1 min", "value": 15}, "end_location": {"lat": 29.7289251, "lng": -95.3742012}, "html_instructions": "Turn <b>left</b> onto <b>Wheeler Ave</b>", "maneuver": "turn-left", "polyline": {"points": "gmmtDpxbeQLY"}, "start_location": {"lat": 29.7290002, "lng": -95.3743251}, "travel_mode": "WALKING"}], "travel_mode": "WALKING"}, {"distance": {"text": "1.6 mi", "value": 2524}, "duration": {"text": "8 mins", "value": 487}, "end_location": {"lat": 29.734589, "lng": -95.391729}, "html_instructions": "Bus towards Mission Bend TC", "polyline": {"points": "_mmtDpwbeQJHQ^KPoBxDcAnBOXO^i@bAq@vA{AzCIPqAfCMXcAlB_@r@y@`BGJABABKTCFA@GPKPAB?@ABA@ABCBGJABA@OZS^[h@@?MXcBhD_AhBEH@@HFx@h@F@z@R?AZFHB~AZZFF?B@DA@?BARGtAdAHFCFi@dAKPMXEHSb@EECAaD_CMIKIs@e@_@Y[Wg@a@CMACAAEEEEIGABCFEFAB_@r@Ud@WhAEf@Cj@?B?VDzA@j@JhCAP@bA@h@@lA?X?zDIrB?b@?N?H?P@nA@rB?|A?d@?\\D?@@?@@@?@@fA?B@B?@FFS?@tBI@"}, "start_location": {"lat": 29.72896399999999, "lng": -95.37416999999999}, "transit_details": {"arrival_stop": {"location": {"lat": 29.734589, "lng": -95.391729}, "name": "Richmond Ave @ Montrose Blvd"}, "arrival_time": {"text": "4:25pm", "time_zone": "America/Chicago", "value": 1642026311}, "departure_stop": {"location": {"lat": 29.72896399999999, "lng": -95.37416999999999}, "name": "Wheeler St @ Chartres St"}, "departure_time": {"text": "4:17pm", "time_zone": "America/Chicago", "value": 1642025824}, "headsign": "Mission Bend TC", "line": {"agencies": [{"name": "Metropolitan Transit Authority of Harris County", "phone": "1 (713) 635-4000", "url": "http://www.ridemetro.org/"}], "color": "#004080", "name": "Richmond", "short_name": "25", "text_color": "#ffffff", "url": "https://www.ridemetro.org/MetroPDFs/Schedules/BusSchedules/n025-Richmond.pdf", "vehicle": {"icon": "//maps.gstatic.com/mapfiles/transit/iw2/6/bus2.png", "name": "Bus", "type": "BUS"}}, "num_stops": 8, "trip_short_name": "RICHMOND"}, "travel_mode": "TRANSIT"}, {"distance": {"text": "302 ft", "value": 92}, "duration": {"text": "2 mins", "value": 99}, "end_location": {"lat": 29.7342425, "lng": -95.3910896}, "html_instructions": "Walk to Montrose Blvd @ Richmond Ave", "polyline": {"points": "epntDhefeQ?A?mB?O`@@MDPG^?"}, "start_location": {"lat": 29.7345871, "lng": -95.391729}, "steps": [{"distance": {"text": "190 ft", "value": 58}, "duration": {"text": "1 min", "value": 42}, "end_location": {"lat": 29.73442339999999, "lng": -95.391098}, "html_instructions": "Head <b>east</b> on <b>Richmond Ave</b> toward <b>Montrose Blvd</b>", "polyline": {"points": "epntDhefeQ?A?mB?O`@@"}, "start_location": {"lat": 29.7345871, "lng": -95.391729}, "travel_mode": "WALKING"}, {"distance": {"text": "112 ft", "value": 34}, "duration": {"text": "1 min", "value": 57}, "end_location": {"lat": 29.7342425, "lng": -95.3910896}, "html_instructions": "Turn <b>right</b> onto <b>Montrose Blvd</b>", "maneuver": "turn-right", "polyline": {"points": "contDjafeQMDPG^?"}, "start_location": {"lat": 29.73442339999999, "lng": -95.391098}, "travel_mode": "WALKING"}], "travel_mode": "WALKING"}, {"distance": {"text": "5.0 mi", "value": 7984}, "duration": {"text": "21 mins", "value": 1272}, "end_location": {"lat": 29.803849, "lng": -95.387502}, "html_instructions": "Bus towards Greenspoint TC", "polyline": {"points": "_nntD~`feQ?Pi@?S?_@?e@?o@@E?]@aA?w@@o@?Q@eC@Q?qB?w@?wB@k@@Q?}@?kB@oC@Y@i@?_B?a@?_A?_@?k@?e@?[?i@?eCBGESCWAaABc@?O?o@?U?M?[?c@Ba@BK@M@C@G@SDIBe@Nu@Rc@L[JKDMFKDaAPi@DG@Q@U@s@BiA@q@@W@iB?aA@M?e@?]@_A@K?wA@o@@cA@_A?qBBU@uCBu@@g@?c@?c@?_@?c@@cC@e@@yA?a@?_@@_@?yA@]@cA?C@e@@c@@o@BW@K?S@Y?i@DA?Y@Q@I@G@QBG@e@DU@g@@m@@a@?C?mABaB?Y@[?]?W?gAAS?c@?W?_@AWCC?M?C?WAc@@c@?c@GQC[?I?Q?Q?a@BQ@?@Q?A?A?Q@EAA?E?U?A?KAW?e@AqBG_@Ca@AO?o@Cm@?[?u@AoEBQ?]?O?cACYCYA]C_@GUEg@Gg@MA?]KOEu@UQCiBk@s@WSG_@OKEA?aBm@a@OEC[KEAAAYGOEQEA?SEKCGAOCKA_@EkBEk@Ai@?a@?sB@W?QASCQAQCAAi@IQEMCICOG_@OAAMGMG[QMGOKEEIIUOc@_@CCUQACOOu@q@ECq@q@AASSw@u@?AYYUS_@_@WUu@s@IIA??AIGEEKKCAGEGCIGQIQK]OAAYKEAOGWIYGc@IQCQCQAQAE?]CG?M?iAD}@H_@Hq@PgAZSFa@NEBG@GDIBMDC@E@K@Y@Q@Q?K?A?A?A@CBCDU?aB?}CB[?uDBkB@[?K?Q?Q?aA@y@?{@?qA@{A?K?e@@kA@i@@[?gA?g@@E?Y?E?a@?yA@S?m@?Y?uB@S@q@?_@BE?Q?M@w@?MAi@?k@?c@?O?_A@I?M@o@@mB?Y@S?wB@o@@w@?O?Q?}A?k@@i@@}@?c@@y@?wA@mC@Q?oA@Y?U@sB?W@qB?c@@I?yA@m@?cA?W@gB?_@?w@?sA@wA@Q?}@@sAIc@HFa@D]B]@QH?"}, "start_location": {"lat": 29.734242, "lng": -95.39103600000001}, "transit_details": {"arrival_stop": {"location": {"lat": 29.803849, "lng": -95.387502}, "name": "W Cavalcade St @ N Main St"}, "arrival_time": {"text": "4:52pm", "time_zone": "America/Chicago", "value": 1642027971}, "departure_stop": {"location": {"lat": 29.734242, "lng": -95.39103600000001}, "name": "Montrose Blvd @ Richmond Ave"}, "departure_time": {"text": "4:31pm", "time_zone": "America/Chicago", "value": 1642026699}, "headsign": "Greenspoint TC", "line": {"agencies": [{"name": "Metropolitan Transit Authority of Harris County", "phone": "1 (713) 635-4000", "url": "http://www.ridemetro.org/"}], "color": "#004080", "name": "Airline / Montrose", "short_name": "56", "text_color": "#ffffff", "url": "https://www.ridemetro.org/MetroPDFs/Schedules/BusSchedules/n056-Airline-Montrose.pdf", "vehicle": {"icon": "//maps.gstatic.com/mapfiles/transit/iw2/6/bus2.png", "name": "Bus", "type": "BUS"}}, "num_stops": 29, "trip_short_name": "AIRLMONT"}, "travel_mode": "TRANSIT"}, {"distance": {"text": "256 ft", "value": 78}, "duration": {"text": "1 min", "value": 77}, "end_location": {"lat": 29.8040987, "lng": -95.3879358}, "html_instructions": "Walk to W Cavalcade St @ N Main St", "polyline": {"points": "ca|tDzjeeQARC\\E\\EROBC?O@DO?A"}, "start_location": {"lat": 29.8038626, "lng": -95.38750189999999}, "steps": [{"distance": {"text": "180 ft", "value": 55}, "duration": {"text": "1 min", "value": 40}, "end_location": {"lat": 29.8040284, "lng": -95.388019}, "html_instructions": "Head <b>west</b> on <b>W Cavalcade St</b> toward <b>N Main St</b>", "polyline": {"points": "ca|tDzjeeQARC\\E\\EROB"}, "start_location": {"lat": 29.8038626, "lng": -95.38750189999999}, "travel_mode": "WALKING"}, {"distance": {"text": "36 ft", "value": 11}, "duration": {"text": "1 min", "value": 18}, "end_location": {"lat": 29.8041286, "lng": -95.38803279999999}, "html_instructions": "Turn <b>right</b> onto <b>N Main St</b>", "maneuver": "turn-right", "polyline": {"points": "eb|tDbneeQC?O@"}, "start_location": {"lat": 29.8040284, "lng": -95.388019}, "travel_mode": "WALKING"}, {"distance": {"text": "39 ft", "value": 12}, "duration": {"text": "1 min", "value": 19}, "end_location": {"lat": 29.8040987, "lng": -95.3879358}, "html_instructions": "Turn <b>right</b> onto <b>W Cavalcade St</b>", "maneuver": "turn-right", "polyline": {"points": "yb|tDdneeQDO?A"}, "start_location": {"lat": 29.8041286, "lng": -95.38803279999999}, "travel_mode": "WALKING"}], "travel_mode": "WALKING"}, {"distance": {"text": "4.0 mi", "value": 6499}, "duration": {"text": "14 mins", "value": 864}, "end_location": {"lat": 29.80163, "lng": -95.454342}, "html_instructions": "Bus towards Memorial City", "polyline": {"points": "wb|tDpmeeQJBA@ETC\\Af@?P?P?LA`@@\\BpA?^@j@?H@tA?n@?b@@b@?X?P?V@`A?v@@dA?V?vA@T?lB@jB@tA?XB|E?~A@zB@nB?V?V@t@?L?R?L@R?N?f@?h@@|@?\\?d@?b@@n@?pA@|B?d@?`@@t@?T?pA@v@@rA?v@@bD@~@?nA@H?tB@^@dC?P?j@@x@?x@?t@@P?dA@|A?\\?^@dC@zB?xA?N@V?fA@`ABfE?tABtJ?pB@rA?r@?H?|@?jB?@?j@@h@AL?\\?J@f@?|B?h@?|@?n@?N?|G?J@tE?d@@dC?p@AL@J?V@P@H?B?D@F@HBH@JDPDLDLDHDJDJHLFHFHLL?@TVTVn@v@NRh@h@NPVX^f@BJBFBFf@v@P`@DZDVBT@F?D@F?H?P@P?X?N?F?j@@pAIpB@f@?V?fA?j@?V@h@AjA?h@@~@?b@@^Af@@d@?X?bA?jA?b@@nC?J?d@Aj@?v@?P@dB?jA?bC?`A?\\@dH?`D?dC@fE?jD?T@`F@vB?jD?vC?X?`E@V@zCAb@?fAAX@fB@fA?T@|B?l@A~A?x@?XAzB?`A?dB?l@?P?F?H@^?Z?@?H?@?Z?h@?f@?j@?^?t@@j@BnAAV@|@@fB?bBG?"}, "start_location": {"lat": 29.804119, "lng": -95.38793299999999}, "transit_details": {"arrival_stop": {"location": {"lat": 29.80163, "lng": -95.454342}, "name": "W 18th St @ Northwest Fwy"}, "arrival_time": {"text": "5:18pm", "time_zone": "America/Chicago", "value": 1642029520}, "departure_stop": {"location": {"lat": 29.804119, "lng": -95.38793299999999}, "name": "W Cavalcade St @ N Main St"}, "departure_time": {"text": "5:04pm", "time_zone": "America/Chicago", "value": 1642028656}, "headsign": "Memorial City", "line": {"agencies": [{"name": "Metropolitan Transit Authority of Harris County", "phone": "1 (713) 635-4000", "url": "http://www.ridemetro.org/"}], "color": "#004080", "name": "Long Point / Cavalcade", "short_name": "26", "text_color": "#ffffff", "url": "https://www.ridemetro.org/MetroPDFs/Schedules/BusSchedules/n026-Long-Point-Cavalcade.pdf", "vehicle": {"icon": "//maps.gstatic.com/mapfiles/transit/iw2/6/bus2.png", "name": "Bus", "type": "BUS"}}, "num_stops": 24, "trip_short_name": "LONGPOINT"}, "travel_mode": "TRANSIT"}, {"distance": {"text": "322 ft", "value": 98}, "duration": {"text": "1 min", "value": 77}, "end_location": {"lat": 29.8019199, "lng": -95.45428179999999}, "html_instructions": "Walk to 4400 W 18th St, Houston, TX 77092, USA", "polyline": {"points": "es{tDrlreQ?z@YEc@E?G@Q@a@"}, "start_location": {"lat": 29.8016264, "lng": -95.454342}, "steps": [{"distance": {"text": "95 ft", "value": 29}, "duration": {"text": "1 min", "value": 22}, "end_location": {"lat": 29.8016252, "lng": -95.45463819999999}, "html_instructions": "Head <b>west</b> on <b>W 18th St</b>/<wbr/><b>NW Mall</b>", "polyline": {"points": "es{tDrlreQ?z@"}, "start_location": {"lat": 29.8016264, "lng": -95.454342}, "travel_mode": "WALKING"}, {"distance": {"text": "131 ft", "value": 40}, "duration": {"text": "1 min", "value": 33}, "end_location": {"lat": 29.8019405, "lng": -95.4545788}, "html_instructions": "Turn <b>right</b><div style=\"font-size:0.9em\">Restricted usage road</div>", "maneuver": "turn-right", "polyline": {"points": "es{tDnnreQYEc@E"}, "start_location": {"lat": 29.8016252, "lng": -95.45463819999999}, "travel_mode": "WALKING"}, {"distance": {"text": "95 ft", "value": 29}, "duration": {"text": "1 min", "value": 22}, "end_location": {"lat": 29.8019199, "lng": -95.45428179999999}, "html_instructions": "Turn <b>right</b><div style=\"font-size:0.9em\">Restricted usage road</div><div style=\"font-size:0.9em\">Destination will be on the left</div>", "maneuver": "turn-right", "polyline": {"points": "cu{tDbnreQ?G@Q@a@"}, "start_location": {"lat": 29.8019405, "lng": -95.4545788}, "travel_mode": "WALKING"}], "travel_mode": "WALKING"}], "traffic_speed_entry": [], "via_waypoint": []}], "overview_polyline": {"points": "e|mtDfubeQfBcDpDhCzDnCTe@EEJH]p@sDhH{BtEeEnIeDnGSd@]t@OT}@dBwDvHlAt@`B\\fCd@^K~AlAm@lAs@xAkDgCmBsAcAy@EQWUMVu@xAWhAEf@Cn@DrBLtD?tABlIIpDBrH?bAF@@DBpAFFS?@tBI@?A?}B`@@MDPG^??I?P}@?{B@cNFaQHyJ?oDB[ImC@oB?_BJi@L{C|@YLmAVyAJgEH_F@gNLsZRqCDgBF_BFu@HkBJaDDmI?}BGgA@u@KiA?aBF{EKaCIiA?eG@cCCqBQgB[m@QgAYqE{AqCcAgBg@w@Ok@GwCGwE@iAKkAU{@]eAi@u@k@_Ay@}BwBuDqDaB{Ak@[kAi@gA[yAS}@EwAD}@H_@HyBl@u@V_@Nc@JiABE@GHwB?{MHkA?cNF}FBuD@iCBqAB}A@gCAsHFs\\Nc\\L}@@sAIc@HFa@H{@@QH?CRIz@EROBS@DQCAJBGVEdAArAFzDBzGF~OLd\\Lr^Lp[JtUDxZ@tH@lU@pEBv@F`@Rx@Zn@\\b@|DpE^f@BJFNf@v@P`@Jr@Fj@@fA@tCIpB@f@?~A?xDBlD@vL?rODve@BnZ@pG@rCAlCApG?lD@xC?hDDpE@jEG??z@YEc@E?GBs@"}, "summary": "", "warnings": ["Walking directions are in beta. Use caution \u2013 This route may be missing sidewalks or pedestrian paths."], "waypoint_order": []}, {"bounds": {"northeast": {"lat": 29.8026478, "lng": -95.36333979999999}, "southwest": {"lat": 29.7313857, "lng": -95.4593211}}, "copyrights": "Map data \u00a92022", "legs": [{"arrival_time": {"text": "5:16pm", "time_zone": "America/Chicago", "value": 1642029399}, "departure_time": {"text": "4:11pm", "time_zone": "America/Chicago", "value": 1642025502}, "distance": {"text": "12.4 mi", "value": 19951}, "duration": {"text": "1 hour 5 mins", "value": 3897}, "end_address": "4400 W 18th St, Houston, TX 77092, USA", "end_location": {"lat": 29.8019199, "lng": -95.45428179999999}, "start_address": "1906 Cleburne St, Houston, TX 77004, USA", "start_location": {"lat": 29.7313857, "lng": -95.37379589999999}, "steps": [{"distance": {"text": "0.1 mi", "value": 226}, "duration": {"text": "3 mins", "value": 164}, "end_location": {"lat": 29.7321794, "lng": -95.37551889999999}, "html_instructions": "Walk to Almeda Rd @ Cleburne St", "polyline": {"points": "e|mtDfubeQ}A`DGL}AzCd@J"}, "start_location": {"lat": 29.7313857, "lng": -95.37379589999999}, "steps": [{"distance": {"text": "0.1 mi", "value": 199}, "duration": {"text": "2 mins", "value": 144}, "end_location": {"lat": 29.7323654, "lng": -95.3754568}, "html_instructions": "Head <b>northwest</b> on <b>Cleburne St</b> toward <b>Chenevert St</b>", "polyline": {"points": "e|mtDfubeQ}A`DGL}AzC"}, "start_location": {"lat": 29.7313857, "lng": -95.37379589999999}, "travel_mode": "WALKING"}, {"distance": {"text": "89 ft", "value": 27}, "duration": {"text": "1 min", "value": 20}, "end_location": {"lat": 29.7321794, "lng": -95.37551889999999}, "html_instructions": "Turn <b>left</b> onto <b>Almeda Rd</b>", "maneuver": "turn-left", "polyline": {"points": "ibntDr_ceQd@J"}, "start_location": {"lat": 29.7323654, "lng": -95.3754568}, "travel_mode": "WALKING"}], "travel_mode": "WALKING"}, {"distance": {"text": "1.9 mi", "value": 3074}, "duration": {"text": "9 mins", "value": 564}, "end_location": {"lat": 29.75059, "lng": -95.37116999999999}, "html_instructions": "Bus towards Gellhorn & 610", "polyline": {"points": "_antDr_ceQERm@Oy@OOGA?c@KgAW}Bi@qA_@}@UOIaC}@y@k@m@_@YWeBoASOqB{AqBwAwAeAu@g@CCo@e@aAu@}@q@c@[OM}@q@]U_@YQMqAaAc@[cAu@m@c@{BaBQOsByAoA_AIEmCoBWS_As@MKgAw@[W]Ws@i@e@]]W]WMIOKCEA?QMAAAAAA]U{@m@uAcAgBjD_@j@m@hAIPU`@u@zAo@lAo@tAIRi@dAc@z@aAlBt@f@f@\\t@h@JLb@X@@@@^XHFx@j@_@v@aAlBEJEFCF[l@a@x@c@x@SOiA{@A??AA?AA?AOKAAA?CC]WOKa@[e@[a@YFO"}, "start_location": {"lat": 29.732165, "lng": -95.375462}, "transit_details": {"arrival_stop": {"location": {"lat": 29.75059, "lng": -95.37116999999999}, "name": "Travis St @ St. Joseph Pkwy"}, "arrival_time": {"text": "4:24pm", "time_zone": "America/Chicago", "value": 1642026240}, "departure_stop": {"location": {"lat": 29.732165, "lng": -95.375462}, "name": "Almeda Rd @ Cleburne St"}, "departure_time": {"text": "4:14pm", "time_zone": "America/Chicago", "value": 1642025676}, "headsign": "Gellhorn & 610", "line": {"agencies": [{"name": "Metropolitan Transit Authority of Harris County", "phone": "1 (713) 635-4000", "url": "http://www.ridemetro.org/"}], "color": "#004080", "name": "Almeda / Lyons", "short_name": "11", "text_color": "#ffffff", "url": "https://www.ridemetro.org/MetroPDFs/Schedules/BusSchedules/n011-Almeda-Lyons.pdf", "vehicle": {"icon": "//maps.gstatic.com/mapfiles/transit/iw2/6/bus2.png", "name": "Bus", "type": "BUS"}}, "num_stops": 8, "trip_short_name": "ALMEDALYON"}, "travel_mode": "TRANSIT"}, {"distance": {"text": "285 ft", "value": 87}, "duration": {"text": "1 min", "value": 69}, "end_location": {"lat": 29.7503691, "lng": -95.3705803}, "html_instructions": "Walk to Downtown Transit Center", "polyline": {"points": "itqtD`ebeQSMLSFMDGFKDKFMP_@"}, "start_location": {"lat": 29.7506142, "lng": -95.371212}, "steps": [{"distance": {"text": "56 ft", "value": 17}, "duration": {"text": "1 min", "value": 12}, "end_location": {"lat": 29.7507076, "lng": -95.3711404}, "html_instructions": "Head <b>northeast</b> on <b>Travis St</b> toward <b>St Joseph Pkwy</b>", "polyline": {"points": "itqtD`ebeQSM"}, "start_location": {"lat": 29.7506142, "lng": -95.371212}, "travel_mode": "WALKING"}, {"distance": {"text": "230 ft", "value": 70}, "duration": {"text": "1 min", "value": 57}, "end_location": {"lat": 29.7503691, "lng": -95.3705803}, "html_instructions": "Turn <b>right</b> onto <b>St Joseph Pkwy</b><div style=\"font-size:0.9em\">Destination will be on the right</div>", "maneuver": "turn-right", "polyline": {"points": "}tqtDrdbeQLSFMDGFKDKFMP_@"}, "start_location": {"lat": 29.7507076, "lng": -95.3711404}, "travel_mode": "WALKING"}], "travel_mode": "WALKING"}, {"distance": {"text": "8.0 mi", "value": 12890}, "duration": {"text": "20 mins", "value": 1200}, "end_location": {"lat": 29.7830001, "lng": -95.4561157}, "html_instructions": "Bus towards W Bellfort P&R", "polyline": {"points": "yqqtDjdbeQEFKIw@i@MRU`@]p@OXOVg@bA}@dBOXYh@wCuBu@i@a@[g@]UQ_@W]WwAeAEEuB}AWSwAeAy@m@gAy@g@_@KGWOi@c@[WIEg@_@_@W_CeBUOwAgA}@q@]Wm@c@e@]MISMmCsBGC{BcBQMCCi@_@QMUQkA{@aCiB[UqCqBAAqCqBa@v@k@dAINIJGHA@A@GJGDC@C@C@E?M?C?Q?M?ICIEAAEGC\\SdBGd@E^O`A?BM|@M|@E\\m@tEQC}Ck@iBKcBCaEu@aDm@gB[eB[wCMaA?mBPeC^c@LuCrAsIlEqAn@{A`AyAxAk@z@k@z@g@bAg@~@c@nAk@vBs@bDa@lBcB`I[`CU`CKpB?fBBrAP`BTfBjAfFnBhHt@dDz@pEt@zHDrANnBH|BF~B@lBKlB@dCFzG?n@NdRNfXBrEDtEB`DAfCAhCMtCCx@IfAa@pESxB_@fD_@fDQvBO|BMtBEdBElC?|D?|DPbf@DnFDzVDrO@xC_@|CS|B_@bEUrCMzCYb@gEhIgG|L]p@a@v@a@~@]|AOx@Gp@C`A@lA@bB?L@bADlCA|@C`@ALa@lDaAnE}@bEw@zDS|@aAnEo@~Ca@~@]fBm@`DIp@]hDMxAStCMjCGxBAr@CbDAjCCpF@l@@v@AzG~@@X?V?Z^?r@Ap@?bAAtA?R?d@?XEAw@B?u@@S?_@AcA@cA@w@@k@ZA^@DA`AAN??H?P?f@?j@?l@?d@GrA"}, "start_location": {"lat": 29.750211, "lng": -95.371095}, "transit_details": {"arrival_stop": {"location": {"lat": 29.7830001, "lng": -95.4561157}, "name": "Northwest Transit Center - North Platform"}, "arrival_time": {"text": "4:50pm", "time_zone": "America/Chicago", "value": 1642027800}, "departure_stop": {"location": {"lat": 29.750211, "lng": -95.371095}, "name": "Downtown Transit Center"}, "departure_time": {"text": "4:30pm", "time_zone": "America/Chicago", "value": 1642026600}, "headsign": "W Bellfort P&R", "line": {"agencies": [{"name": "Metropolitan Transit Authority of Harris County", "phone": "1 (713) 635-4000", "url": "http://www.ridemetro.org/"}], "color": "#004080", "name": "Wilcrest Express", "short_name": "161", "text_color": "#ffffff", "url": "https://www.ridemetro.org/MetroPDFs/Schedules/BusSchedules/n161-Wilcrest-Express.pdf", "vehicle": {"icon": "//maps.gstatic.com/mapfiles/transit/iw2/6/bus2.png", "name": "Bus", "type": "BUS"}}, "num_stops": 11, "trip_short_name": "WILCRESEXP"}, "travel_mode": "TRANSIT"}, {"distance": {"text": "0.2 mi", "value": 263}, "duration": {"text": "3 mins", "value": 191}, "end_location": {"lat": 29.7827161, "lng": -95.4551537}, "html_instructions": "Walk to Northwest Transit Center - South Platform", "polyline": {"points": "scxtDtsreQ?g@@Y@yAl@?^AD?T?D?JAJ@HBNJDBLL\\LJAEHCNET"}, "start_location": {"lat": 29.7837801, "lng": -95.4554655}, "steps": [{"distance": {"text": "259 ft", "value": 79}, "duration": {"text": "1 min", "value": 57}, "end_location": {"lat": 29.7837613, "lng": -95.45468609999999}, "html_instructions": "Head <b>east</b> on <b>Old Katy Rd</b>", "polyline": {"points": "scxtDtsreQ?g@@Y@yA"}, "start_location": {"lat": 29.7837801, "lng": -95.4554655}, "travel_mode": "WALKING"}, {"distance": {"text": "482 ft", "value": 147}, "duration": {"text": "2 mins", "value": 108}, "end_location": {"lat": 29.78264219999999, "lng": -95.4549134}, "html_instructions": "Turn <b>right</b>", "maneuver": "turn-right", "polyline": {"points": "ocxtDxnreQl@?^AD?T?D?JAJ@HBNJDBLL\\LJA"}, "start_location": {"lat": 29.7837613, "lng": -95.45468609999999}, "travel_mode": "WALKING"}, {"distance": {"text": "121 ft", "value": 37}, "duration": {"text": "1 min", "value": 26}, "end_location": {"lat": 29.7827161, "lng": -95.4551537}, "html_instructions": "Sharp <b>right</b>", "maneuver": "turn-sharp-right", "polyline": {"points": "o|wtDdpreQEHCNET"}, "start_location": {"lat": 29.78264219999999, "lng": -95.4549134}, "travel_mode": "WALKING"}], "travel_mode": "WALKING"}, {"distance": {"text": "1.7 mi", "value": 2673}, "duration": {"text": "7 mins", "value": 412}, "end_location": {"lat": 29.801027, "lng": -95.45922999999999}, "html_instructions": "Bus towards West Belt", "polyline": {"points": "g_xtDtsreQT??`@HDB@F@D?DABA@CDIDSB[@g@BUBM@AN]FGJY@K?MCUCKCCA?OGQAGAE?E@GDQJOPMD[BY@W?aAAY@c@?AVAzAAb@?f@?L?ZAn@?`B?R?f@sBNO@Q@Y?W?K@wA@y@@K?u@?wA@U?O?}@@I?Y?_@?_@@oA@oD@eABM?A?a@?c@?qA@W?w@?cA@s@?c@@_@?uA@a@?OAY?q@@c@?_@?[@cA@a@?U?G?C?E?]@S?S@]@c@?}@@M?w@@]?mA@_B@W?E?e@Aa@EQEWG[OUM[QIG_@Ui@i@e@_@OQQQOMCCc@a@MR{A|BU\\W`@sBtCg@z@a@L{@vA]b@Sd@w@lAYh@OQ"}, "start_location": {"lat": 29.783077, "lng": -95.455467}, "transit_details": {"arrival_stop": {"location": {"lat": 29.801027, "lng": -95.45922999999999}, "name": "Hempstead Rd @ W 18th St"}, "arrival_time": {"text": "5:06pm", "time_zone": "America/Chicago", "value": 1642028812}, "departure_stop": {"location": {"lat": 29.783077, "lng": -95.455467}, "name": "Northwest Transit Center - South Platform"}, "departure_time": {"text": "5:00pm", "time_zone": "America/Chicago", "value": 1642028400}, "headsign": "West Belt", "line": {"agencies": [{"name": "Metropolitan Transit Authority of Harris County", "phone": "1 (713) 635-4000", "url": "http://www.ridemetro.org/"}], "color": "#004080", "name": "Hammerly", "short_name": "58", "text_color": "#ffffff", "url": "https://www.ridemetro.org/MetroPDFs/Schedules/BusSchedules/n058-Hammerly.pdf", "vehicle": {"icon": "//maps.gstatic.com/mapfiles/transit/iw2/6/bus2.png", "name": "Bus", "type": "BUS"}}, "num_stops": 8, "trip_short_name": "HAMMERLY"}, "travel_mode": "TRANSIT"}, {"distance": {"text": "0.5 mi", "value": 738}, "duration": {"text": "10 mins", "value": 587}, "end_location": {"lat": 29.8019199, "lng": -95.45428179999999}, "html_instructions": "Walk to 4400 W 18th St, Houston, TX 77092, USA", "polyline": {"points": "mo{tDdkseQKPKKKAK?I@IB?Q?aA?M?QAO?OM?M@M?mED@[Ae@?g@ASDKP]d@}@Xq@B]QOIIOMEKKAQUGGEIAE?C?A@C@EBEV_@KMNWHMJSRa@Ts@R}@Jy@Hy@?G@Q@a@"}, "start_location": {"lat": 29.8010254, "lng": -95.4592253}, "steps": [{"distance": {"text": "49 ft", "value": 15}, "duration": {"text": "1 min", "value": 11}, "end_location": {"lat": 29.8011512, "lng": -95.4592626}, "html_instructions": "Head <b>northwest</b>", "polyline": {"points": "mo{tDdkseQKPKK"}, "start_location": {"lat": 29.8010254, "lng": -95.4592253}, "travel_mode": "WALKING"}, {"distance": {"text": "102 ft", "value": 31}, "duration": {"text": "1 min", "value": 23}, "end_location": {"lat": 29.8013705, "lng": -95.4592806}, "html_instructions": "Turn <b>right</b> toward <b>W 18th St</b>", "maneuver": "turn-right", "polyline": {"points": "ep{tDjkseQKAK?I@IB"}, "start_location": {"lat": 29.8011512, "lng": -95.4592626}, "travel_mode": "WALKING"}, {"distance": {"text": "240 ft", "value": 73}, "duration": {"text": "1 min", "value": 61}, "end_location": {"lat": 29.8014508, "lng": -95.4585436}, "html_instructions": "Turn <b>right</b> onto <b>W 18th St</b>", "maneuver": "turn-right", "polyline": {"points": "qq{tDnkseQ?Q?aA?M?QAO?OM?"}, "start_location": {"lat": 29.8013705, "lng": -95.4592806}, "travel_mode": "WALKING"}, {"distance": {"text": "440 ft", "value": 134}, "duration": {"text": "2 mins", "value": 127}, "end_location": {"lat": 29.80261729999999, "lng": -95.45858140000001}, "html_instructions": "Turn <b>left</b> onto <b>Mangum Rd</b>", "maneuver": "turn-left", "polyline": {"points": "ar{tDzfseQM@M?mED"}, "start_location": {"lat": 29.8014508, "lng": -95.4585436}, "travel_mode": "WALKING"}, {"distance": {"text": "0.1 mi", "value": 168}, "duration": {"text": "2 mins", "value": 133}, "end_location": {"lat": 29.8021725, "lng": -95.45703209999999}, "html_instructions": "Turn <b>right</b>", "maneuver": "turn-right", "polyline": {"points": "ky{tDbgseQ@[Ae@?g@ASDKP]d@}@Xq@B]"}, "start_location": {"lat": 29.80261729999999, "lng": -95.45858140000001}, "travel_mode": "WALKING"}, {"distance": {"text": "348 ft", "value": 106}, "duration": {"text": "1 min", "value": 80}, "end_location": {"lat": 29.8024852, "lng": -95.4562641}, "html_instructions": "Turn <b>left</b><div style=\"font-size:0.9em\">Partial restricted usage road</div>", "maneuver": "turn-left", "polyline": {"points": "qv{tDl}reQQOIIOMEKKAQUGGEIAE?C?A@C@EBEV_@"}, "start_location": {"lat": 29.8021725, "lng": -95.45703209999999}, "travel_mode": "WALKING"}, {"distance": {"text": "33 ft", "value": 10}, "duration": {"text": "1 min", "value": 8}, "end_location": {"lat": 29.8025494, "lng": -95.456192}, "html_instructions": "Turn <b>left</b><div style=\"font-size:0.9em\">Restricted usage road</div>", "maneuver": "turn-left", "polyline": {"points": "qx{tDrxreQKM"}, "start_location": {"lat": 29.8024852, "lng": -95.4562641}, "travel_mode": "WALKING"}, {"distance": {"text": "0.1 mi", "value": 201}, "duration": {"text": "2 mins", "value": 144}, "end_location": {"lat": 29.8019199, "lng": -95.45428179999999}, "html_instructions": "Turn <b>right</b><div style=\"font-size:0.9em\">Restricted usage road</div><div style=\"font-size:0.9em\">Destination will be on the left</div>", "maneuver": "turn-right", "polyline": {"points": "}x{tDdxreQNWHMJSRa@Ts@R}@Jy@Hy@?G@Q@a@"}, "start_location": {"lat": 29.8025494, "lng": -95.456192}, "travel_mode": "WALKING"}], "travel_mode": "WALKING"}], "traffic_speed_entry": [], "via_waypoint": []}], "overview_polyline": {"points": "e|mtDfubeQeBnD}AzCd@JBKERgB_@u@SeEaAoCu@qCgAgBkAeGsEcGiEsEiDwIqGoPyL{KiIc@[qCqBgCvEcCxEsC|FeBhD|AdA`Av@d@ZdBnAmBxDeBhD_BmA[UuB{Aa@YFOCFSMTa@LSLYP_@^fBEFKIw@i@MRs@rA_@p@oClFwGyE_I_GaGmEiBsAqEcDiEaDuByAcHiFqMqJsCsBmA|B]f@UT[BU?WCKGEGC\\[jCU`B[~Bs@rFoDo@iBKcBCcJcBmEw@wCMaA?mBPeC^yD`BeL|F{A`AyAxAwAvBoAbCoAfEuApGcB`I[`CU`CKpBBzDf@hEjAfFnBhHt@dDz@pEt@zHDrAXlFHlFKlB@dCFjI^lk@HhL@hHAhCMtCM`Cu@jI_AnIa@tFSzEElC?|DP`l@Jj^FlTs@zGu@vIMzCYb@oMfW_AhBa@~@]|AOx@Gp@AnCHbIE~Ac@zDkElSqBnJa@~@]fBw@rEk@bGStCMjCIlDEnHA~G?rIxA@V?Z^AdBArE?XEAw@B?u@@s@?gCBcBz@?fACN??H?x@?xAGxB{CaC?g@BsBlAAl@ATDTNLL\\LJAEHId@gA~@T??`@HDJBPGJ]DcAFc@P_@Ra@@YGa@ECOGQAMAMFa@\\MD[Bq@@{A?c@?AVC~B?t@A`E?f@sBNa@BuCBaIDoLHcKDwH@sMLkEBgAGi@MwAw@_@Ui@i@u@q@iAeAwCpEsBtCg@z@a@L{@vA]b@Sd@qAvBOQKPKKWASD?sBA_@[@{ED?aAA{@Vi@~@oBB]QOYWEKKAY]GOBOZe@KMNWTa@Ra@Ts@R}@TsBB{@"}, "summary": "", "warnings": ["Walking directions are in beta. Use caution \u2013 This route may be missing sidewalks or pedestrian paths."], "waypoint_order": []}, {"bounds": {"northeast": {"lat": 29.80413, "lng": -95.34172199999999}, "southwest": {"lat": 29.7313857, "lng": -95.45463819999999}}, "copyrights": "Map data \u00a92022", "legs": [{"arrival_time": {"text": "5:34pm", "time_zone": "America/Chicago", "value": 1642030497}, "departure_time": {"text": "4:11pm", "time_zone": "America/Chicago", "value": 1642025502}, "distance": {"text": "13.7 mi", "value": 22019}, "duration": {"text": "1 hour 23 mins", "value": 4995}, "end_address": "4400 W 18th St, Houston, TX 77092, USA", "end_location": {"lat": 29.8019199, "lng": -95.45428179999999}, "start_address": "1906 Cleburne St, Houston, TX 77004, USA", "start_location": {"lat": 29.7313857, "lng": -95.37379589999999}, "steps": [{"distance": {"text": "0.1 mi", "value": 226}, "duration": {"text": "3 mins", "value": 164}, "end_location": {"lat": 29.7321794, "lng": -95.37551889999999}, "html_instructions": "Walk to Almeda Rd @ Cleburne St", "polyline": {"points": "e|mtDfubeQ}A`DGL}AzCd@J"}, "start_location": {"lat": 29.7313857, "lng": -95.37379589999999}, "steps": [{"distance": {"text": "0.1 mi", "value": 199}, "duration": {"text": "2 mins", "value": 144}, "end_location": {"lat": 29.7323654, "lng": -95.3754568}, "html_instructions": "Head <b>northwest</b> on <b>Cleburne St</b> toward <b>Chenevert St</b>", "polyline": {"points": "e|mtDfubeQ}A`DGL}AzC"}, "start_location": {"lat": 29.7313857, "lng": -95.37379589999999}, "travel_mode": "WALKING"}, {"distance": {"text": "89 ft", "value": 27}, "duration": {"text": "1 min", "value": 20}, "end_location": {"lat": 29.7321794, "lng": -95.37551889999999}, "html_instructions": "Turn <b>left</b> onto <b>Almeda Rd</b>", "maneuver": "turn-left", "polyline": {"points": "ibntDr_ceQd@J"}, "start_location": {"lat": 29.7323654, "lng": -95.3754568}, "travel_mode": "WALKING"}], "travel_mode": "WALKING"}, {"distance": {"text": "4.7 mi", "value": 7490}, "duration": {"text": "23 mins", "value": 1404}, "end_location": {"lat": 29.773644, "lng": -95.34204100000001}, "html_instructions": "Bus towards Gellhorn & 610", "polyline": {"points": "_antDr_ceQERm@Oy@OOGA?c@KgAW}Bi@qA_@}@UOIaC}@y@k@m@_@YWeBoASOqB{AqBwAwAeAu@g@CCo@e@aAu@}@q@c@[OM}@q@]U_@YQMqAaAc@[cAu@m@c@{BaBQOsByAoA_AIEmCoBWS_As@MKgAw@[W]Ws@i@e@]]W]WMIOKCEA?QMAAAAAA]U{@m@uAcAgBjD_@j@m@hAIPU`@u@zAo@lAo@tAIRi@dAc@z@aAlBt@f@f@\\t@h@JLb@X@@@@^XHFx@j@_@v@aAlBEJEFCF[l@a@x@c@x@SOiA{@A??AA?AA?AOKAAA?CC]WOKa@[e@[a@YYSi@_@c@[MIg@_@UOP_@|@cBRc@DIDGBEd@{@N[j@iALWFMVe@L[h@cAqCsBiA{@QM]WCAYSk@c@YUSOw@k@{BcBYSwAgA]U]WUS]WMKCACCGEAAi@a@WQgBoAQO]W{@m@CC]U[UAAWQyAgA]U]Wc@]sAcAAAYUiCmBGE}BcB[UcD{BoA_Ai@_@YUqCqBUQaAs@}@o@[Wa@YYSa@]_@WSOOMMIKGECE?GAa@Im@I_@Io@OC?CAC?Q@QC{A_@eAWIAMCUEMCEAQCyA_@OEICYGWE[IKCQEs@QcAUu@QQEQQMQAAIIQQAIYaACEEM]aAK]OWYy@?AAAACIQMYaAcCKSoAuCUg@EMKi@Ka@AaD}@?A?C?A?[?A?E?G?A?E?iA?mB@{@?]??kBAm@?A?I?E?A?mA?G?k@?WA{B?g@?Q?q@?O?s@A[?s@?U?Q?G@G?K@M?O?a@?G?Q?W?CCMEUEWCMMi@AEWiAEUq@aDAGAII]IYEKm@oAi@_A{@_BIOISAAk@sAQ_@Sc@Ws@HE"}, "start_location": {"lat": 29.732165, "lng": -95.375462}, "transit_details": {"arrival_stop": {"location": {"lat": 29.773644, "lng": -95.34204100000001}, "name": "Lyons Ave @ Jensen Dr"}, "arrival_time": {"text": "4:38pm", "time_zone": "America/Chicago", "value": 1642027080}, "departure_stop": {"location": {"lat": 29.732165, "lng": -95.375462}, "name": "Almeda Rd @ Cleburne St"}, "departure_time": {"text": "4:14pm", "time_zone": "America/Chicago", "value": 1642025676}, "headsign": "Gellhorn & 610", "line": {"agencies": [{"name": "Metropolitan Transit Authority of Harris County", "phone": "1 (713) 635-4000", "url": "http://www.ridemetro.org/"}], "color": "#004080", "name": "Almeda / Lyons", "short_name": "11", "text_color": "#ffffff", "url": "https://www.ridemetro.org/MetroPDFs/Schedules/BusSchedules/n011-Almeda-Lyons.pdf", "vehicle": {"icon": "//maps.gstatic.com/mapfiles/transit/iw2/6/bus2.png", "name": "Bus", "type": "BUS"}}, "num_stops": 26, "trip_short_name": "ALMEDALYON"}, "travel_mode": "TRANSIT"}, {"distance": {"text": "157 ft", "value": 48}, "duration": {"text": "1 min", "value": 45}, "end_location": {"lat": 29.7737017, "lng": -95.34175189999999}, "html_instructions": "Walk to Jensen Dr @ Lyons Ave", "polyline": {"points": "kdvtDxn|dQAAUi@IOX?"}, "start_location": {"lat": 29.7736636, "lng": -95.3420541}, "steps": [{"distance": {"text": "105 ft", "value": 32}, "duration": {"text": "1 min", "value": 23}, "end_location": {"lat": 29.7738256, "lng": -95.3417513}, "html_instructions": "Head <b>northeast</b> on <b>Lyons Ave</b> toward <b>Jensen Dr</b>", "polyline": {"points": "kdvtDxn|dQAAUi@IO"}, "start_location": {"lat": 29.7736636, "lng": -95.3420541}, "travel_mode": "WALKING"}, {"distance": {"text": "52 ft", "value": 16}, "duration": {"text": "1 min", "value": 22}, "end_location": {"lat": 29.7737017, "lng": -95.34175189999999}, "html_instructions": "Turn <b>right</b> onto <b>Jensen Dr</b>", "maneuver": "turn-right", "polyline": {"points": "mevtD|l|dQX?"}, "start_location": {"lat": 29.7738256, "lng": -95.3417513}, "travel_mode": "WALKING"}], "travel_mode": "WALKING"}, {"distance": {"text": "1.9 mi", "value": 3136}, "duration": {"text": "7 mins", "value": 444}, "end_location": {"lat": 29.801755, "lng": -95.342097}, "html_instructions": "Bus towards Greenspoint TC", "polyline": {"points": "sdvtDvl|dQ?L]?]A{BBy@?w@?_@?i@B]?c@?K?_B@A?O@e@?_@?]?i@?c@?Q?Q?mC@c@?S?cEB[?M@a@?_A?I?E?m@?O?sA?I?uA?q@@I?oB@I?Q?q@?g@?A?E?_@?K?K?M?[?W?Q?U@qB@]?Q@S?{B?C?U?_@?sIDY?{FBc@@eD@U?iGDc@@cDB_FFQ?aA@_A?A?oC@kIDO?wCBgKFK?qA@kB@o@AgBCu@?k@?m@?AS"}, "start_location": {"lat": 29.773704, "lng": -95.34172199999999}, "transit_details": {"arrival_stop": {"location": {"lat": 29.801755, "lng": -95.342097}, "name": "Jensen Dr @ Cavalcade St"}, "arrival_time": {"text": "5:01pm", "time_zone": "America/Chicago", "value": 1642028460}, "departure_stop": {"location": {"lat": 29.773704, "lng": -95.34172199999999}, "name": "Jensen Dr @ Lyons Ave"}, "departure_time": {"text": "4:53pm", "time_zone": "America/Chicago", "value": 1642028016}, "headsign": "Greenspoint TC", "line": {"agencies": [{"name": "Metropolitan Transit Authority of Harris County", "phone": "1 (713) 635-4000", "url": "http://www.ridemetro.org/"}], "color": "#004080", "name": "Jensen / Greens", "short_name": "6", "text_color": "#ffffff", "url": "https://www.ridemetro.org/MetroPDFs/Schedules/BusSchedules/n006-Jensen-Greens.pdf", "vehicle": {"icon": "//maps.gstatic.com/mapfiles/transit/iw2/6/bus2.png", "name": "Bus", "type": "BUS"}}, "num_stops": 14, "trip_short_name": "JENSENGREE"}, "travel_mode": "TRANSIT"}, {"distance": {"text": "207 ft", "value": 63}, "duration": {"text": "1 min", "value": 66}, "end_location": {"lat": 29.8021569, "lng": -95.34201689999999}, "html_instructions": "Walk to Cavalcade St @ Jensen Dr", "polyline": {"points": "}s{tDno|dQi@?M?O?O?D["}, "start_location": {"lat": 29.8017549, "lng": -95.3421599}, "steps": [{"distance": {"text": "148 ft", "value": 45}, "duration": {"text": "1 min", "value": 43}, "end_location": {"lat": 29.8021865, "lng": -95.3421642}, "html_instructions": "Head <b>north</b> on <b>Jensen Dr</b> toward <b>Cavalcade St</b>", "polyline": {"points": "}s{tDno|dQi@?M?O?O?"}, "start_location": {"lat": 29.8017549, "lng": -95.3421599}, "travel_mode": "WALKING"}, {"distance": {"text": "59 ft", "value": 18}, "duration": {"text": "1 min", "value": 23}, "end_location": {"lat": 29.8021569, "lng": -95.34201689999999}, "html_instructions": "Turn <b>right</b> onto <b>Cavalcade St</b>", "maneuver": "turn-right", "polyline": {"points": "uv{tDno|dQD["}, "start_location": {"lat": 29.8021865, "lng": -95.3421642}, "travel_mode": "WALKING"}], "travel_mode": "WALKING"}, {"distance": {"text": "6.8 mi", "value": 10958}, "duration": {"text": "26 mins", "value": 1569}, "end_location": {"lat": 29.80163, "lng": -95.454342}, "html_instructions": "Bus towards Memorial City", "polyline": {"points": "qv{tDpn|dQHBGb@K~@AHW|Bc@jEo@fFWlBK|@EVSbBQpAGr@Mp@Eb@CNOrAKdBCf@?HAx@?xB@d@@j@?pA@nA?X@dB?T@fAB~D@bD@ZBbEBzB@fAGrAAXGvA@vD@xC@^@tD@x@?V?v@?l@?\\BpD@nB?fA@jA?tA?T?\\?lA@nA?tA@dA?Z@bA?pB@vDAlBAV?LANAT?RAXCR?@CXQ|@Kf@Sz@ENOr@CRE\\Cb@KfCARCpAAv@AXCf@?DAT?LAHCfAAd@?D?lB?h@?VBjC?lB?x@@z@@fB?fD@fDE`BA|@?HA\\@V?lA@L?\\?x@?V@j@@t@?L?JB`@@T@NBN@N@V?f@@f@?`A?r@?L?xBAP?JALAPANIbAEb@?TAR?V?fH?p@@vD@xAC^C^CRA@ETC\\Af@?P?P?LA`@@\\BpA?^@j@?H@tA?n@?b@@b@?X?P?V@`A?v@@dA?V?vA@T?lB@jB@tA?XB|E?~A@zB@nB?V?V@t@?L?R?L@R?N?f@?h@@|@?\\?d@?b@@n@?pA@|B?d@?`@@t@?T?pA@v@@rA?v@@bD@~@?nA@H?tB@^@dC?P?j@@x@?x@?t@@P?dA@|A?\\?^@dC@zB?xA?N@V?fA@`ABfE?tABtJ?pB@rA?r@?H?|@?jB?@?j@@h@AL?\\?J@f@?|B?h@?|@?n@?N?|G?J@tE?d@@dC?p@AL@J?V@P@H?B?D@F@HBH@JDPDLDLDHDJDJHLFHFHLL?@TVTVn@v@NRh@h@NPVX^f@BJBFBFf@v@P`@DZDVBT@F?D@F?H?P@P?X?N?F?j@@pAIpB@f@?V?fA?j@?V@h@AjA?h@@~@?b@@^Af@@d@?X?bA?jA?b@@nC?J?d@Aj@?v@?P@dB?jA?bC?`A?\\@dH?`D?dC@fE?jD?T@`F@vB?jD?vC?X?`E@V@zCAb@?fAAX@fB@fA?T@|B?l@A~A?x@?XAzB?`A?dB?l@?P?F?H@^?Z?@?H?@?Z?h@?f@?j@?^?t@@j@BnAAV@|@@fB?bBG?"}, "start_location": {"lat": 29.802168, "lng": -95.34201399999999}, "transit_details": {"arrival_stop": {"location": {"lat": 29.80163, "lng": -95.454342}, "name": "W 18th St @ Northwest Fwy"}, "arrival_time": {"text": "5:33pm", "time_zone": "America/Chicago", "value": 1642030420}, "departure_stop": {"location": {"lat": 29.802168, "lng": -95.34201399999999}, "name": "Cavalcade St @ Jensen Dr"}, "departure_time": {"text": "5:07pm", "time_zone": "America/Chicago", "value": 1642028851}, "headsign": "Memorial City", "line": {"agencies": [{"name": "Metropolitan Transit Authority of Harris County", "phone": "1 (713) 635-4000", "url": "http://www.ridemetro.org/"}], "color": "#004080", "name": "Long Point / Cavalcade", "short_name": "26", "text_color": "#ffffff", "url": "https://www.ridemetro.org/MetroPDFs/Schedules/BusSchedules/n026-Long-Point-Cavalcade.pdf", "vehicle": {"icon": "//maps.gstatic.com/mapfiles/transit/iw2/6/bus2.png", "name": "Bus", "type": "BUS"}}, "num_stops": 41, "trip_short_name": "LONGPOINT"}, "travel_mode": "TRANSIT"}, {"distance": {"text": "322 ft", "value": 98}, "duration": {"text": "1 min", "value": 77}, "end_location": {"lat": 29.8019199, "lng": -95.45428179999999}, "html_instructions": "Walk to 4400 W 18th St, Houston, TX 77092, USA", "polyline": {"points": "es{tDrlreQ?z@YEc@E?G@Q@a@"}, "start_location": {"lat": 29.8016264, "lng": -95.454342}, "steps": [{"distance": {"text": "95 ft", "value": 29}, "duration": {"text": "1 min", "value": 22}, "end_location": {"lat": 29.8016252, "lng": -95.45463819999999}, "html_instructions": "Head <b>west</b> on <b>W 18th St</b>/<wbr/><b>NW Mall</b>", "polyline": {"points": "es{tDrlreQ?z@"}, "start_location": {"lat": 29.8016264, "lng": -95.454342}, "travel_mode": "WALKING"}, {"distance": {"text": "131 ft", "value": 40}, "duration": {"text": "1 min", "value": 33}, "end_location": {"lat": 29.8019405, "lng": -95.4545788}, "html_instructions": "Turn <b>right</b><div style=\"font-size:0.9em\">Restricted usage road</div>", "maneuver": "turn-right", "polyline": {"points": "es{tDnnreQYEc@E"}, "start_location": {"lat": 29.8016252, "lng": -95.45463819999999}, "travel_mode": "WALKING"}, {"distance": {"text": "95 ft", "value": 29}, "duration": {"text": "1 min", "value": 22}, "end_location": {"lat": 29.8019199, "lng": -95.45428179999999}, "html_instructions": "Turn <b>right</b><div style=\"font-size:0.9em\">Restricted usage road</div><div style=\"font-size:0.9em\">Destination will be on the left</div>", "maneuver": "turn-right", "polyline": {"points": "cu{tDbnreQ?G@Q@a@"}, "start_location": {"lat": 29.8019405, "lng": -95.4545788}, "travel_mode": "WALKING"}], "travel_mode": "WALKING"}], "traffic_speed_entry": [], "via_waypoint": []}], "overview_polyline": {"points": "e|mtDfubeQeBnD}AzCd@JBKERgB_@u@SeEaAoCu@qCgAgBkAeGsEcGiEsEiDwIqGoPyL{KiIc@[qCqBgCvEcCxEsC|FeBhD|AdA`Av@d@ZdBnAmBxDeBhD_BmA[U_GeEu@i@UOP_@pAgCJQdBgDz@gBh@cAqCsB{AiAgBqAoK_I}BgBsQuMiHmFyHqFyKcIeBsAYQKCwB_@{@Qc@AaDw@m@KkEaAmBe@yBg@QEQQOS[[e@_Bi@_Bi@qAMYkDgI[u@WkAAaD}@?E?_@?gH@CsRAwBBi@?kA?[Ic@YuAqAiG[mA}C_GiAiCk@wAHEC@Wk@IOX??E?L{@AmGBwBBwCBkC?wMFmG?yNB}e@RgYTue@VyFEm@?AS@Ji@?]?O?D[F@SbBYfCc@jEo@fFc@jDYzBYdCStASbBOlCAbA@~CBfFRb[@fAGrAIpBFfPF~PDnOBhKEbDGvAa@`CYjASfAI`AMzCKjECr@ElB?rBBzHBdK@fDE`BAfA@pC@zCDpBFt@BnA@jDAjCAXShCAhJ@hFAxBOjAEhBFjIJjYZx|@Nb_@J~[@zM@nJB|W@bABZLp@Vp@^l@x@~@hBtBf@j@^f@BJFNf@v@P`@Jr@D\\@h@@bA@|BIpB@f@?~A?bA?tB@hB@pC?zLBdWDvd@@jKA`HDbIA`F?tK?bEDpE@`HG??z@YEc@E?GBs@"}, "summary": "", "warnings": ["Walking directions are in beta. Use caution \u2013 This route may be missing sidewalks or pedestrian paths."], "waypoint_order": []}], "status": "OK"}