{"geocoded_waypoints": [{"geocoder_status": "OK", "place_id": "ChIJezbwLjnAQIYRsm0uHd_aJDA", "types": ["establishment", "point_of_interest", "school"]}, {"geocoder_status": "OK", "place_id": "ChIJ9_tphxzHQIYRIMyPy_d3VZU", "types": ["establishment", "point_of_interest"]}], "routes": [{"bounds": {"northeast": {"lat": 29.803869, "lng": -95.4031601}, "southwest": {"lat": 29.697069, "lng": -95.45463819999999}}, "copyrights": "Map data \u00a92022", "legs": [{"arrival_time": {"text": "4:49pm", "time_zone": "America/Chicago", "value": 1642027797}, "departure_time": {"text": "3:41pm", "time_zone": "America/Chicago", "value": 1642023688}, "distance": {"text": "12.1 mi", "value": 19426}, "duration": {"text": "1 hour 8 mins", "value": 4109}, "end_address": "4400 W 18th St, Houston, TX 77092, USA", "end_location": {"lat": 29.8019199, "lng": -95.45428179999999}, "start_address": "7550 Seuss Dr, Houston, TX 77025, USA", "start_location": {"lat": 29.6976721, "lng": -95.42000039999999}, "steps": [{"distance": {"text": "341 ft", "value": 104}, "duration": {"text": "1 min", "value": 86}, "end_location": {"lat": 29.6971525, "lng": -95.4194668}, "html_instructions": "Walk to Braeswood Blvd @ Seuss Dr", "polyline": {"points": "migtD~ukeQn@EBE@W?[CId@UJGBA"}, "start_location": {"lat": 29.6976721, "lng": -95.42000039999999}, "steps": [{"distance": {"text": "217 ft", "value": 66}, "duration": {"text": "1 min", "value": 48}, "end_location": {"lat": 29.69742369999999, "lng": -95.4196295}, "html_instructions": "Head <b>south</b> toward <b>Seuss Dr</b>", "polyline": {"points": "migtD~ukeQn@EBE@W?[CI"}, "start_location": {"lat": 29.6976721, "lng": -95.42000039999999}, "travel_mode": "WALKING"}, {"distance": {"text": "125 ft", "value": 38}, "duration": {"text": "1 min", "value": 38}, "end_location": {"lat": 29.6971525, "lng": -95.4194668}, "html_instructions": "Turn <b>right</b> onto <b>Seuss Dr</b>", "maneuver": "turn-right", "polyline": {"points": "{ggtDtskeQd@UJGBA"}, "start_location": {"lat": 29.69742369999999, "lng": -95.4196295}, "travel_mode": "WALKING"}], "travel_mode": "WALKING"}, {"distance": {"text": "1.3 mi", "value": 2130}, "duration": {"text": "5 mins", "value": 306}, "end_location": {"lat": 29.704328, "lng": -95.40361999999999}, "html_instructions": "Bus towards Eastwood TC", "polyline": {"points": "uegtDprkeQGBEKw@kB[q@GIOc@IFEISg@Oc@K_@QYI]Mq@OgAIiAAgA?gAFyCDgAHeB`@}DJ{@n@kFiBuAFKAAKISMe@_@IGMIo@g@i@_@SOyAiAOKMK}AiAGEEEIC_@UQMq@g@g@_@MMaC_BcD_CqCoBcBiAUUADa@YJWtAaDVq@Nq@L{@Bq@}@GKAMEKKEQ?QBOTq@BMAUBMBK@KB]EIKEa@H{@LA?@J"}, "start_location": {"lat": 29.697069, "lng": -95.419448}, "transit_details": {"arrival_stop": {"location": {"lat": 29.704328, "lng": -95.40361999999999}, "name": "Texas Medical Center Transit Center"}, "arrival_time": {"text": "3:48pm", "time_zone": "America/Chicago", "value": 1642024080}, "departure_stop": {"location": {"lat": 29.697069, "lng": -95.419448}, "name": "Braeswood Blvd @ Seuss Dr"}, "departure_time": {"text": "3:42pm", "time_zone": "America/Chicago", "value": 1642023774}, "headsign": "Eastwood TC", "line": {"agencies": [{"name": "Metropolitan Transit Authority of Harris County", "phone": "1 (713) 635-4000", "url": "http://www.ridemetro.org/"}], "color": "#004080", "name": "Beechnut", "short_name": "4", "text_color": "#ffffff", "url": "https://www.ridemetro.org/MetroPDFs/Schedules/BusSchedules/n004-Beechnut.pdf", "vehicle": {"icon": "//maps.gstatic.com/mapfiles/transit/iw2/6/bus2.png", "name": "Bus", "type": "BUS"}}, "num_stops": 6, "trip_short_name": "BEECHNUT"}, "travel_mode": "TRANSIT"}, {"distance": {"text": "7.9 mi", "value": 12693}, "duration": {"text": "34 mins", "value": 2040}, "end_location": {"lat": 29.803613, "lng": -95.41008699999999}, "html_instructions": "Bus towards N Shepherd P&R", "polyline": {"points": "ashtDroheQFj@kAh@QBKAKKCQ@O?i@?A?e@j@Kn@KDAp@Mr@KPHDPDVERC\\AJCJCL@TCLUp@CN?PDPJJLDhAHCp@Mz@Op@Wp@gAhC?@CFIPEJIPEHELWh@QXINOPSNkAl@OH]PE@MFC@MBS@e@@M?o@A]??|B?vA?^@nG?j@?R?P@b@?~@@rAA`A@n@?h@oA?[?_@?WAsBBQ?Q?eD@uB@S?Y?yAA{@@yC@kC@K?gD?cDB_D@}A?oA@_B@c@?cE@w@@}AAAc@?g@AQCYCg@Iq@E[Gc@Km@Os@Me@IUSu@GUw@oCMc@Uw@cBp@IDkAb@kAf@{@^SHy@ZEBSF_@JKBi@LA@SDWDa@FI@a@F]DWBYBQ@o@DA?M@w@@W@M?K?oA?gA?K?sA@uA@K@iB?s@?iD@yB?S?c@@gB?oCBU@eB@e@?]?eA?S?O?U?aA?i@@A?[?A?Y@k@?]?m@?W?iD@c@@aA@eADcAAQ?aA?S@c@?U@y@Ao@AgB?cA@sA?cA@Q?iD@wA?u@@e@?c@?M?_A@]?y@?y@@Y?K?y@@O?s@?y@?eB@cA?y@@O?K?W?I?c@?E?}ABE?q@?gA?]Aa@G[GSCg@AS@M?Y?a@?m@?_A?c@@S?sC@gA@iA?kD?iB?_@?[?Y?q@@gB?{@?Y@qA?eA?I?uD@i@@_A?Q?O?{@?m@?M?g@@y@@g@@Q?[?{@?OGEAGCEEGCECECGEY[OYEKCECGEQ_AuCAEEIQe@IQCEACGIEGEGGIIIEEOKGEQKMEk@Oo@@M?{@?WIgB?KEC?SAYAU?IA]?SAeA?S?g@AcA@EBIFKFA@CBIHCDGHGXQ@aAJa@Da@DC?}AL]D]DK@KEA?A?I?G?M?MAAAA?C?AAE?CAA?OCC?AAM?WA[FE@E@c@HG@YD_@HeAPKBw@TgABW?C?W?k@@_A@K?[@SBe@Dc@@SBa@?eA@[?M?eA@c@?e@?]?_@@Y?k@?M?qCBg@?Q?M@U?e@?M?qCB]?w@@_@?E@W?e@?mB@gA?k@@]?qB@c@@a@CE@e@@m@?S@kA?cA@aCBM?oC@eA@oA@Y?[?O?a@Bm@?U?o@?e@@I?A?A?y@?M@YAS@O?_@@w@@y@?]?M?YAMAMCOEYIIAa@Kc@Ku@QGACAm@MAAOCIAK?OAM?M?A?I?O?S@M@IBc@Jq@P}@Vg@Jk@Ji@Hc@Be@DE?c@Bs@ByABA?oCBYA}B@I?A?q@@K?E?k@?C?O@u@?S?k@@w@@K?a@?O?[@U?U?U?k@@k@?Y@C?I?S?kC@y@@K?W@[?S?A?W?G?U@S?c@?e@@O?E?[?mCBeA@U?Y?S?U@A?S?aA@_@?e@@Q?S?U?s@?C?W?qB@sB@eBBg@?oBBaGBq@@w@?aB@i@@W@_B@yA@aB@Q?qD@U@gB?eB@eBA_A@?K"}, "start_location": {"lat": 29.704328, "lng": -95.40361999999999}, "transit_details": {"arrival_stop": {"location": {"lat": 29.803613, "lng": -95.41008699999999}, "name": "N Shepherd Dr @ W 20th St"}, "arrival_time": {"text": "4:29pm", "time_zone": "America/Chicago", "value": 1642026540}, "departure_stop": {"location": {"lat": 29.704328, "lng": -95.40361999999999}, "name": "Texas Medical Center Transit Center"}, "departure_time": {"text": "3:55pm", "time_zone": "America/Chicago", "value": 1642024500}, "headsign": "N Shepherd P&R", "line": {"agencies": [{"name": "Metropolitan Transit Authority of Harris County", "phone": "1 (713) 635-4000", "url": "http://www.ridemetro.org/"}], "color": "#004080", "name": "Shepherd", "short_name": "27", "text_color": "#ffffff", "url": "https://www.ridemetro.org/MetroPDFs/Schedules/BusSchedules/n027-Shepherd.pdf", "vehicle": {"icon": "//maps.gstatic.com/mapfiles/transit/iw2/6/bus2.png", "name": "Bus", "type": "BUS"}}, "num_stops": 53, "trip_short_name": "SHEPHERD"}, "travel_mode": "TRANSIT"}, {"distance": {"text": "112 ft", "value": 34}, "duration": {"text": "1 min", "value": 34}, "end_location": {"lat": 29.803842, "lng": -95.41002979999999}, "html_instructions": "Walk to W 20th St @ N Shepherd Dr", "polyline": {"points": "q_|tDdxieQ_@@M??Q"}, "start_location": {"lat": 29.8036121, "lng": -95.410111}, "steps": [{"distance": {"text": "69 ft", "value": 21}, "duration": {"text": "1 min", "value": 15}, "end_location": {"lat": 29.8038391, "lng": -95.4101207}, "html_instructions": "Head <b>north</b> on <b>N Shepherd Dr</b> toward <b>W 20th St</b>", "polyline": {"points": "q_|tDdxieQ_@@M?"}, "start_location": {"lat": 29.8036121, "lng": -95.410111}, "travel_mode": "WALKING"}, {"distance": {"text": "43 ft", "value": 13}, "duration": {"text": "1 min", "value": 19}, "end_location": {"lat": 29.803842, "lng": -95.41002979999999}, "html_instructions": "Turn <b>right</b> onto <b>W 20th St</b>", "maneuver": "turn-right", "polyline": {"points": "_a|tDfxieQ?Q"}, "start_location": {"lat": 29.8038391, "lng": -95.4101207}, "travel_mode": "WALKING"}], "travel_mode": "WALKING"}, {"distance": {"text": "2.7 mi", "value": 4367}, "duration": {"text": "10 mins", "value": 582}, "end_location": {"lat": 29.80163, "lng": -95.454342}, "html_instructions": "Bus towards Memorial City", "polyline": {"points": "ea|tDvwieQJ?@V?fA@`ABfE?tABtJ?pB@rA?r@?H?|@?jB?@?j@@h@AL?\\?J@f@?|B?h@?|@?n@?N?|G?J@tE?d@@dC?p@AL@J?V@P@H?B?D@F@HBH@JDPDLDLDHDJDJHLFHFHLL?@TVTVn@v@NRh@h@NPVX^f@BJBFBFf@v@P`@DZDVBT@F?D@F?H?P@P?X?N?F?j@@pAIpB@f@?V?fA?j@?V@h@AjA?h@@~@?b@@^Af@@d@?X?bA?jA?b@@nC?J?d@Aj@?v@?P@dB?jA?bC?`A?\\@dH?`D?dC@fE?jD?T@`F@vB?jD?vC?X?`E@V@zCAb@?fAAX@fB@fA?T@|B?l@A~A?x@?XAzB?`A?dB?l@?P?F?H@^?Z?@?H?@?Z?h@?f@?j@?^?t@@j@BnAAV@|@@fB?bBG?"}, "start_location": {"lat": 29.803869, "lng": -95.410039}, "transit_details": {"arrival_stop": {"location": {"lat": 29.80163, "lng": -95.454342}, "name": "W 18th St @ Northwest Fwy"}, "arrival_time": {"text": "4:48pm", "time_zone": "America/Chicago", "value": 1642027720}, "departure_stop": {"location": {"lat": 29.803869, "lng": -95.410039}, "name": "W 20th St @ N Shepherd Dr"}, "departure_time": {"text": "4:38pm", "time_zone": "America/Chicago", "value": 1642027138}, "headsign": "Memorial City", "line": {"agencies": [{"name": "Metropolitan Transit Authority of Harris County", "phone": "1 (713) 635-4000", "url": "http://www.ridemetro.org/"}], "color": "#004080", "name": "Long Point / Cavalcade", "short_name": "26", "text_color": "#ffffff", "url": "https://www.ridemetro.org/MetroPDFs/Schedules/BusSchedules/n026-Long-Point-Cavalcade.pdf", "vehicle": {"icon": "//maps.gstatic.com/mapfiles/transit/iw2/6/bus2.png", "name": "Bus", "type": "BUS"}}, "num_stops": 14, "trip_short_name": "LONGPOINT"}, "travel_mode": "TRANSIT"}, {"distance": {"text": "322 ft", "value": 98}, "duration": {"text": "1 min", "value": 77}, "end_location": {"lat": 29.8019199, "lng": -95.45428179999999}, "html_instructions": "Walk to 4400 W 18th St, Houston, TX 77092, USA", "polyline": {"points": "es{tDrlreQ?z@YEc@E?G@Q@a@"}, "start_location": {"lat": 29.8016264, "lng": -95.454342}, "steps": [{"distance": {"text": "95 ft", "value": 29}, "duration": {"text": "1 min", "value": 22}, "end_location": {"lat": 29.8016252, "lng": -95.45463819999999}, "html_instructions": "Head <b>west</b> on <b>W 18th St</b>/<wbr/><b>NW Mall</b>", "polyline": {"points": "es{tDrlreQ?z@"}, "start_location": {"lat": 29.8016264, "lng": -95.454342}, "travel_mode": "WALKING"}, {"distance": {"text": "131 ft", "value": 40}, "duration": {"text": "1 min", "value": 33}, "end_location": {"lat": 29.8019405, "lng": -95.4545788}, "html_instructions": "Turn <b>right</b><div style=\"font-size:0.9em\">Restricted usage road</div>", "maneuver": "turn-right", "polyline": {"points": "es{tDnnreQYEc@E"}, "start_location": {"lat": 29.8016252, "lng": -95.45463819999999}, "travel_mode": "WALKING"}, {"distance": {"text": "95 ft", "value": 29}, "duration": {"text": "1 min", "value": 22}, "end_location": {"lat": 29.8019199, "lng": -95.45428179999999}, "html_instructions": "Turn <b>right</b><div style=\"font-size:0.9em\">Restricted usage road</div><div style=\"font-size:0.9em\">Destination will be on the left</div>", "maneuver": "turn-right", "polyline": {"points": "cu{tDbnreQ?G@Q@a@"}, "start_location": {"lat": 29.8019405, "lng": -95.4545788}, "travel_mode": "WALKING"}], "travel_mode": "WALKING"}], "traffic_speed_entry": [], "via_waypoint": []}], "overview_polyline": {"points": "migtD~ukeQn@EBE@s@CId@UNINCGB}@wBc@{@Oc@IFYq@[cAQYI]]yBIiAAgAFaFNmDl@yFn@kFiBuADMoA_AqImGw@e@yBcBeH_FuFyDUUADa@YJWlBsE\\mBBq@}@GYGKKEQBa@X_AAUBMBKDi@EIKE}AV?JFj@kAh@]@KKCQ@y@?g@rCg@r@KPHJh@Ip@EVCL@TCLY`ADb@JJLDhAHCp@]lB_BzDSf@m@rA[h@c@`@_CjAQHa@DaC?BzR@dG?h@oA?{@?oD@iIBuC?eHBsD?cIDqHB{FB}AAAc@Ay@GaAc@_D]yA]kAcBaGuKlEiBd@oATaBR}AJkBDoD?_HDkJ@qHFoF@eE@wJDgCFuAAoCBuGAsIB}JB}JDeF@}EB_AIo@KcB?sD@kSBeZF{CDwA?UI[QMIY[OYIQIYyAkEWe@]c@o@c@y@U}@@{@?WIgB?KEWAo@AaCC{@AcA@EBUNEDMNOb@wCX}CXK@KEC?Q?[AAAA?QCc@EWA[FKBeBZqATw@TgAB[?cA@kA@o@D_CJuDBmJDaID}JFoC@eAAmBD_RJ{BBuB@iC@oDBu@CeEaAcAUs@Ci@?a@Bm@NoBh@sAVyBRwAF{ABqHB{DBsKHyMHwQJie@Z{HDsJ@?K?Bm@@?QE@J?@V@hCB|GDnR?vH@vRBpNBd@Hf@Vv@\\n@`CtCx@z@v@`AFRj@~@V|@Hl@B^@lA?r@@pAIpB@~@?rB@`AAtB@jD@nE@`MBda@BzO?~OBrDAjB@~E@jDAxCA|H@xC@|GDlG?bBG??z@}@K@Y@a@"}, "summary": "", "warnings": ["Walking directions are in beta. Use caution \u2013 This route may be missing sidewalks or pedestrian paths."], "waypoint_order": []}, {"bounds": {"northeast": {"lat": 29.8026444, "lng": -95.4063745}, "southwest": {"lat": 29.697069, "lng": -95.4593211}}, "copyrights": "Map data \u00a92022", "legs": [{"arrival_time": {"text": "4:55pm", "time_zone": "America/Chicago", "value": 1642028139}, "departure_time": {"text": "3:41pm", "time_zone": "America/Chicago", "value": 1642023688}, "distance": {"text": "11.2 mi", "value": 18077}, "duration": {"text": "1 hour 14 mins", "value": 4451}, "end_address": "4400 W 18th St, Houston, TX 77092, USA", "end_location": {"lat": 29.8019199, "lng": -95.45428179999999}, "start_address": "7550 Seuss Dr, Houston, TX 77025, USA", "start_location": {"lat": 29.6976721, "lng": -95.42000039999999}, "steps": [{"distance": {"text": "341 ft", "value": 104}, "duration": {"text": "1 min", "value": 86}, "end_location": {"lat": 29.6971525, "lng": -95.4194668}, "html_instructions": "Walk to Braeswood Blvd @ Seuss Dr", "polyline": {"points": "migtD~ukeQn@EBE@W?[CId@UJGBA"}, "start_location": {"lat": 29.6976721, "lng": -95.42000039999999}, "steps": [{"distance": {"text": "217 ft", "value": 66}, "duration": {"text": "1 min", "value": 48}, "end_location": {"lat": 29.69742369999999, "lng": -95.4196295}, "html_instructions": "Head <b>south</b> toward <b>Seuss Dr</b>", "polyline": {"points": "migtD~ukeQn@EBE@W?[CI"}, "start_location": {"lat": 29.6976721, "lng": -95.42000039999999}, "travel_mode": "WALKING"}, {"distance": {"text": "125 ft", "value": 38}, "duration": {"text": "1 min", "value": 38}, "end_location": {"lat": 29.6971525, "lng": -95.4194668}, "html_instructions": "Turn <b>right</b> onto <b>Seuss Dr</b>", "maneuver": "turn-right", "polyline": {"points": "{ggtDtskeQd@UJGBA"}, "start_location": {"lat": 29.69742369999999, "lng": -95.4196295}, "travel_mode": "WALKING"}], "travel_mode": "WALKING"}, {"distance": {"text": "1.0 mi", "value": 1667}, "duration": {"text": "4 mins", "value": 231}, "end_location": {"lat": 29.7039834, "lng": -95.4066781}, "html_instructions": "Bus towards Eastwood TC", "polyline": {"points": "uegtDprkeQGBEKw@kB[q@GIOc@IFEISg@Oc@K_@QYI]Mq@OgAIiAAgA?gAFyCDgAHeB`@}DJ{@n@kFiBuAFKAAKISMe@_@IGMIo@g@i@_@SOyAiAOKMK}AiAGEEEIC_@UQMq@g@g@_@MMaC_BcD_CqCoBcBiAUULQ"}, "start_location": {"lat": 29.697069, "lng": -95.419448}, "transit_details": {"arrival_stop": {"location": {"lat": 29.7039834, "lng": -95.4066781}, "name": "Main St @ Pressler St"}, "arrival_time": {"text": "3:46pm", "time_zone": "America/Chicago", "value": 1642024005}, "departure_stop": {"location": {"lat": 29.697069, "lng": -95.419448}, "name": "Braeswood Blvd @ Seuss Dr"}, "departure_time": {"text": "3:42pm", "time_zone": "America/Chicago", "value": 1642023774}, "headsign": "Eastwood TC", "line": {"agencies": [{"name": "Metropolitan Transit Authority of Harris County", "phone": "1 (713) 635-4000", "url": "http://www.ridemetro.org/"}], "color": "#004080", "name": "Beechnut", "short_name": "4", "text_color": "#ffffff", "url": "https://www.ridemetro.org/MetroPDFs/Schedules/BusSchedules/n004-Beechnut.pdf", "vehicle": {"icon": "//maps.gstatic.com/mapfiles/transit/iw2/6/bus2.png", "name": "Bus", "type": "BUS"}}, "num_stops": 5, "trip_short_name": "BEECHNUT"}, "travel_mode": "TRANSIT"}, {"distance": {"text": "164 ft", "value": 50}, "duration": {"text": "1 min", "value": 38}, "end_location": {"lat": 29.7041574, "lng": -95.4063745}, "html_instructions": "Walk to Pressler St @ Main St", "polyline": {"points": "cqhtD`cieQYW@AHQIOCK"}, "start_location": {"lat": 29.7040217, "lng": -95.4067338}, "steps": [{"distance": {"text": "72 ft", "value": 22}, "duration": {"text": "1 min", "value": 16}, "end_location": {"lat": 29.7041479, "lng": -95.4066137}, "html_instructions": "Head <b>northeast</b> on <b>Main St</b> toward <b>Pressler St</b>", "polyline": {"points": "cqhtD`cieQYW"}, "start_location": {"lat": 29.7040217, "lng": -95.4067338}, "travel_mode": "WALKING"}, {"distance": {"text": "56 ft", "value": 17}, "duration": {"text": "1 min", "value": 12}, "end_location": {"lat": 29.70413779999999, "lng": -95.4064344}, "html_instructions": "Turn <b>right</b> onto <b>Pressler St</b>", "maneuver": "turn-right", "polyline": {"points": "}qhtDhbieQ@AHQIO"}, "start_location": {"lat": 29.7041479, "lng": -95.4066137}, "travel_mode": "WALKING"}, {"distance": {"text": "36 ft", "value": 11}, "duration": {"text": "1 min", "value": 10}, "end_location": {"lat": 29.7041574, "lng": -95.4063745}, "html_instructions": "Turn <b>left</b><div style=\"font-size:0.9em\">Destination will be on the left</div>", "maneuver": "turn-left", "polyline": {"points": "{qhtDdaieQCK"}, "start_location": {"lat": 29.70413779999999, "lng": -95.4064344}, "travel_mode": "WALKING"}], "travel_mode": "WALKING"}, {"distance": {"text": "5.2 mi", "value": 8335}, "duration": {"text": "25 mins", "value": 1500}, "end_location": {"lat": 29.770345, "lng": -95.409409}, "html_instructions": "Bus towards N Shepherd P&R", "polyline": {"points": "crhtDz`ieQNJCFIPEJIPEHELWh@QXINOPSNkAl@OH]PE@MFC@MBS@e@@M?o@A]??|B?vA?^@nG?j@?R?P@b@?~@@rAA`A@n@?h@oA?[?_@?WAsBBQ?Q?eD@uB@S?Y?yAA{@@yC@kC@K?gD?cDB_D@}A?oA@_B@c@?cE@w@@}AAAc@?g@AQCYCg@Iq@E[Gc@Km@Os@Me@IUSu@GUw@oCMc@Uw@cBp@IDkAb@kAf@{@^SHy@ZEBSF_@JKBi@LA@SDWDa@FI@a@F]DWBYBQ@o@DA?M@w@@W@M?K?oA?gA?K?sA@uA@K@iB?s@?iD@yB?S?c@@gB?oCBU@eB@e@?]?eA?S?O?U?aA?i@@A?[?A?Y@k@?]?m@?W?iD@c@@aA@eADcAAQ?aA?S@c@?U@y@Ao@AgB?cA@sA?cA@Q?iD@wA?u@@e@?c@?M?_A@]?y@?y@@Y?K?y@@O?s@?y@?eB@cA?y@@O?K?W?I?c@?E?}ABE?q@?gA?]Aa@G[GSCg@AS@M?Y?a@?m@?_A?c@@S?sC@gA@iA?kD?iB?_@?[?Y?q@@gB?{@?Y@qA?eA?I?uD@i@@_A?Q?O?{@?m@?M?g@@y@@g@@Q?[?{@?OGEAGCEEGCECECGEY[OYEKCECGEQ_AuCAEEIQe@IQCEACGIEGEGGIIIEEOKGEQKMEk@Oo@@M?{@?WIgB?KEC?SAYAU?IA]?SAeA?S?g@AcA@EBIFKFA@CBIHCDGHGXQ@aAJa@Da@DC?}AL]D]DK@KEA?A?I?G?M?MAAAA?C?AAE?CAA?OCC?AAM?WA[FE@E@c@HG@YD_@HeAPKBw@TgABW?C?W?k@@_A@K?[@SBe@Dc@@SBa@?eA@[?M?eA@c@?e@?]?_@@Y?k@?M?qCBg@?Q?M@U?e@?M?qCB]?w@@_@?E@AO"}, "start_location": {"lat": 29.704177, "lng": -95.40638299999999}, "transit_details": {"arrival_stop": {"location": {"lat": 29.770345, "lng": -95.409409}, "name": "Shepherd Dr @ Washington Ave"}, "arrival_time": {"text": "4:22pm", "time_zone": "America/Chicago", "value": 1642026120}, "departure_stop": {"location": {"lat": 29.704177, "lng": -95.40638299999999}, "name": "Pressler St @ Main St"}, "departure_time": {"text": "3:57pm", "time_zone": "America/Chicago", "value": 1642024620}, "headsign": "N Shepherd P&R", "line": {"agencies": [{"name": "Metropolitan Transit Authority of Harris County", "phone": "1 (713) 635-4000", "url": "http://www.ridemetro.org/"}], "color": "#004080", "name": "Shepherd", "short_name": "27", "text_color": "#ffffff", "url": "https://www.ridemetro.org/MetroPDFs/Schedules/BusSchedules/n027-Shepherd.pdf", "vehicle": {"icon": "//maps.gstatic.com/mapfiles/transit/iw2/6/bus2.png", "name": "Bus", "type": "BUS"}}, "num_stops": 37, "trip_short_name": "SHEPHERD"}, "travel_mode": "TRANSIT"}, {"distance": {"text": "82 ft", "value": 25}, "duration": {"text": "1 min", "value": 28}, "end_location": {"lat": 29.7704974, "lng": -95.4093594}, "html_instructions": "Walk to Washington Ave @ Shepherd Dr", "polyline": {"points": "soutD~sieQO@O??Q"}, "start_location": {"lat": 29.7703444, "lng": -95.4094437}, "steps": [{"distance": {"text": "43 ft", "value": 13}, "duration": {"text": "1 min", "value": 9}, "end_location": {"lat": 29.7704965, "lng": -95.4094472}, "html_instructions": "Head <b>north</b> on <b>Shepherd Dr</b> toward <b>Washington Ave</b>", "polyline": {"points": "soutD~sieQO@O?"}, "start_location": {"lat": 29.7703444, "lng": -95.4094437}, "travel_mode": "WALKING"}, {"distance": {"text": "39 ft", "value": 12}, "duration": {"text": "1 min", "value": 19}, "end_location": {"lat": 29.7704974, "lng": -95.4093594}, "html_instructions": "Turn <b>right</b> onto <b>Washington Ave</b>", "maneuver": "turn-right", "polyline": {"points": "sputD`tieQ?Q"}, "start_location": {"lat": 29.7704965, "lng": -95.4094472}, "travel_mode": "WALKING"}], "travel_mode": "WALKING"}, {"distance": {"text": "4.4 mi", "value": 7158}, "duration": {"text": "16 mins", "value": 977}, "end_location": {"lat": 29.801027, "lng": -95.45922999999999}, "html_instructions": "Bus towards Hempstead TC", "polyline": {"points": "{putDnsieQN??X?\\?^?X?N?j@?b@@`@?t@@j@?j@?N@`@?z@@dC?V@h@?RARAr@AJ?NAP?RCZAV?FCxA?XExACpAClACnAAj@CvAC|@?NA`@mC@q@Di@H[Hi@NOFA?MDE@C@I@MBMBKBK@KBKBA?M@SBSBK?e@?O@C@O?wA@S?{@@gA@[?A?A?EAmBD}A@S?G@G?OD_B@s@AO?w@?O@S?c@?_@?K?K?wA@oB?c@@}ADs@@oB@a@@_@?KE?AA?C?SCkAKw@Oo@KSCEAA?MAqCY_@?_@?C@C?A?C@C@CBA@A@?@A@?@CT?BAN?P?F@D@FBD@BBB@@B@B@B@D?T@h@@xBJZ@@dJ?FB`F@tCBpL?TBvL?NBjJ@|A?|CBtG?T@`G?b@AP?LCLAFCHGLINGL]n@u@rAkA`CKNsA~BqA`CCBQXMNOPIFABEBKFKFODiAROBa@FE@E@IBGBGBEDCB?@A@?BAB@F@FFH]JSVMNIHIJ?@KRIXu@hAIRA@MPW^MTw@fAa@n@ORMVKPQ^O\\O`@Wn@ENELAFKZMb@A@MDKZw@|BEJO^Yn@i@bAQ\\W`@EJ[d@EHg@x@c@n@OTINSXKP]d@_DxEMRe@r@oAnBQV[f@CDKN]`@ORE@C?C@C@q@bAKNQTs@bAEHEJCB?@AB?@?@CPGHS\\[d@iAbBq@`A_@n@e@r@G@C@C@Yb@q@`A]f@QV_@j@A@?@A@W\\KNABGHOVCBILc@l@W\\GLGHU\\?BABAJOX]d@OVo@dAiAhBa@n@Y`@QXY`@AD{A|B_B~BwAxBMR{A|BU\\W`@sBtCg@z@a@L{@vA]b@Sd@w@lAYh@OQ"}, "start_location": {"lat": 29.770538, "lng": -95.40935999999999}, "transit_details": {"arrival_stop": {"location": {"lat": 29.801027, "lng": -95.45922999999999}, "name": "Hempstead Rd @ W 18th St"}, "arrival_time": {"text": "4:45pm", "time_zone": "America/Chicago", "value": 1642027552}, "departure_stop": {"location": {"lat": 29.770538, "lng": -95.40935999999999}, "name": "Washington Ave @ Shepherd Dr"}, "departure_time": {"text": "4:29pm", "time_zone": "America/Chicago", "value": 1642026575}, "headsign": "Hempstead TC", "line": {"agencies": [{"name": "Metropolitan Transit Authority of Harris County", "phone": "1 (713) 635-4000", "url": "http://www.ridemetro.org/"}], "color": "#004080", "name": "Cottage Grove", "short_name": "71", "text_color": "#ffffff", "url": "https://www.ridemetro.org/MetroPDFs/Schedules/BusSchedules/n071-Cottage-Grove.pdf", "vehicle": {"icon": "//maps.gstatic.com/mapfiles/transit/iw2/6/bus2.png", "name": "Bus", "type": "BUS"}}, "num_stops": 22, "trip_short_name": "COTTGROV"}, "travel_mode": "TRANSIT"}, {"distance": {"text": "0.5 mi", "value": 738}, "duration": {"text": "10 mins", "value": 587}, "end_location": {"lat": 29.8019199, "lng": -95.45428179999999}, "html_instructions": "Walk to 4400 W 18th St, Houston, TX 77092, USA", "polyline": {"points": "mo{tDdkseQKPKKKAK?I@IB?Q?aA?M?QAO?OM?M@M?mED@[Ae@?g@ASDKP]d@}@Xq@B]QOIIOMEKKAQUGGEIAE?C?A@C@EBEV_@KMNWHMJSRa@Ts@R}@Jy@Hy@?G@Q@a@"}, "start_location": {"lat": 29.8010254, "lng": -95.4592253}, "steps": [{"distance": {"text": "49 ft", "value": 15}, "duration": {"text": "1 min", "value": 11}, "end_location": {"lat": 29.8011512, "lng": -95.4592626}, "html_instructions": "Head <b>northwest</b>", "polyline": {"points": "mo{tDdkseQKPKK"}, "start_location": {"lat": 29.8010254, "lng": -95.4592253}, "travel_mode": "WALKING"}, {"distance": {"text": "102 ft", "value": 31}, "duration": {"text": "1 min", "value": 23}, "end_location": {"lat": 29.8013705, "lng": -95.4592806}, "html_instructions": "Turn <b>right</b> toward <b>W 18th St</b>", "maneuver": "turn-right", "polyline": {"points": "ep{tDjkseQKAK?I@IB"}, "start_location": {"lat": 29.8011512, "lng": -95.4592626}, "travel_mode": "WALKING"}, {"distance": {"text": "240 ft", "value": 73}, "duration": {"text": "1 min", "value": 61}, "end_location": {"lat": 29.8014508, "lng": -95.4585436}, "html_instructions": "Turn <b>right</b> onto <b>W 18th St</b>", "maneuver": "turn-right", "polyline": {"points": "qq{tDnkseQ?Q?aA?M?QAO?OM?"}, "start_location": {"lat": 29.8013705, "lng": -95.4592806}, "travel_mode": "WALKING"}, {"distance": {"text": "440 ft", "value": 134}, "duration": {"text": "2 mins", "value": 127}, "end_location": {"lat": 29.80261729999999, "lng": -95.45858140000001}, "html_instructions": "Turn <b>left</b> onto <b>Mangum Rd</b>", "maneuver": "turn-left", "polyline": {"points": "ar{tDzfseQM@M?mED"}, "start_location": {"lat": 29.8014508, "lng": -95.4585436}, "travel_mode": "WALKING"}, {"distance": {"text": "0.1 mi", "value": 168}, "duration": {"text": "2 mins", "value": 133}, "end_location": {"lat": 29.8021725, "lng": -95.45703209999999}, "html_instructions": "Turn <b>right</b>", "maneuver": "turn-right", "polyline": {"points": "ky{tDbgseQ@[Ae@?g@ASDKP]d@}@Xq@B]"}, "start_location": {"lat": 29.80261729999999, "lng": -95.45858140000001}, "travel_mode": "WALKING"}, {"distance": {"text": "348 ft", "value": 106}, "duration": {"text": "1 min", "value": 80}, "end_location": {"lat": 29.8024852, "lng": -95.4562641}, "html_instructions": "Turn <b>left</b><div style=\"font-size:0.9em\">Partial restricted usage road</div>", "maneuver": "turn-left", "polyline": {"points": "qv{tDl}reQQOIIOMEKKAQUGGEIAE?C?A@C@EBEV_@"}, "start_location": {"lat": 29.8021725, "lng": -95.45703209999999}, "travel_mode": "WALKING"}, {"distance": {"text": "33 ft", "value": 10}, "duration": {"text": "1 min", "value": 8}, "end_location": {"lat": 29.8025494, "lng": -95.456192}, "html_instructions": "Turn <b>left</b><div style=\"font-size:0.9em\">Restricted usage road</div>", "maneuver": "turn-left", "polyline": {"points": "qx{tDrxreQKM"}, "start_location": {"lat": 29.8024852, "lng": -95.4562641}, "travel_mode": "WALKING"}, {"distance": {"text": "0.1 mi", "value": 201}, "duration": {"text": "2 mins", "value": 144}, "end_location": {"lat": 29.8019199, "lng": -95.45428179999999}, "html_instructions": "Turn <b>right</b><div style=\"font-size:0.9em\">Restricted usage road</div><div style=\"font-size:0.9em\">Destination will be on the left</div>", "maneuver": "turn-right", "polyline": {"points": "}x{tDdxreQNWHMJSRa@Ts@R}@Jy@Hy@?G@Q@a@"}, "start_location": {"lat": 29.8025494, "lng": -95.456192}, "travel_mode": "WALKING"}], "travel_mode": "WALKING"}], "traffic_speed_entry": [], "via_waypoint": []}], "overview_polyline": {"points": "migtD~ukeQn@EBE@s@CId@UNINCGB}@wBc@{@Oc@IFYq@[cAQYI]]yBIiAAgAFaFNmDl@yFn@kFiBuADMoA_AqImGw@e@yBcBeH_FuFyDUULQGHYWJSM[C@NJMX[t@i@bAY`@mCxAe@Ny@B}@A]??|B?vB@`J@xF@xAkB?}D@aIBsBAuEBcNDmLDgF@uC?GwBMyAM_A[aBW{@aB_GUw@cBp@uAh@uElBeAZwAZkBVsBN_BDqD?aEDaM@oHD_IBqEBmG@eBBiCBkC@gFAkQFiHBySHeBA}@O{@Ea@@iD?sGDoQ@wODkC?wCDm@?{@?OGMEMIKGa@a@]s@mAwDa@aA[c@g@a@_@Qk@Oo@@iA?WIgB?OEm@CqACeE?]TY\\GXQ@cBPaDXi@FMEa@?MAOC[Ge@Aa@HkAReBZcAX{BBsCDqBN_IBmIFwIFAO@D_@@?QG?N??X?|@?h@@fDFlKKxDW|MIpEA`@mC@q@Di@HeAXQFa@J{AVg@Fq@?{BDkHFaCBOD_B@cAA_C@oC@sC@qCFqCB_@?KEAAWCkAKw@OcAOgD]gA@MFEFEj@Bf@JNPDtEPFdVPlw@@vGAt@CZEPw@zAaCtE_BnCuAdC_@h@a@`@WNyAX}@N_@PEJ?JHP]JSVWXILUl@aA~AkBnCkAlBiAnCY`AOd@MDKZ}@hCi@nAyAnCmBxCkHxKaCtDi@p@UTG@u@dAwArBKT?BCPGHo@bA{BdDeAbBKBmBnCs@fAmAfB{@jAOVU`@CNmB|CwCtEoLnQkCvDg@z@a@L{@vA]b@Sd@w@lAYh@OQKPKKKAU@IB?Q?oAAa@?OM?[@mED@[AmAB_@v@{AXq@B][YUYKAQUMQ?ODKV_@KMXe@^u@Ts@^wBHaABs@"}, "summary": "", "warnings": ["Walking directions are in beta. Use caution \u2013 This route may be missing sidewalks or pedestrian paths."], "waypoint_order": []}, {"bounds": {"northeast": {"lat": 29.803869, "lng": -95.4031601}, "southwest": {"lat": 29.696446, "lng": -95.45463819999999}}, "copyrights": "Map data \u00a92022", "legs": [{"arrival_time": {"text": "4:49pm", "time_zone": "America/Chicago", "value": 1642027797}, "departure_time": {"text": "3:33pm", "time_zone": "America/Chicago", "value": 1642023230}, "distance": {"text": "12.2 mi", "value": 19632}, "duration": {"text": "1 hour 16 mins", "value": 4567}, "end_address": "4400 W 18th St, Houston, TX 77092, USA", "end_location": {"lat": 29.8019199, "lng": -95.45428179999999}, "start_address": "7550 Seuss Dr, Houston, TX 77025, USA", "start_location": {"lat": 29.6976721, "lng": -95.42000039999999}, "steps": [{"distance": {"text": "0.3 mi", "value": 415}, "duration": {"text": "6 mins", "value": 344}, "end_location": {"lat": 29.6964394, "lng": -95.4183856}, "html_instructions": "Walk to Braeswood Blvd @ Kirby Dr", "polyline": {"points": "migtD~ukeQn@EBE@W?[CIEOb@Se@iAe@eAk@wALAB?LCFAVGPEv@WZONGLIBFRXHHRRRRJHBD"}, "start_location": {"lat": 29.6976721, "lng": -95.42000039999999}, "steps": [{"distance": {"text": "217 ft", "value": 66}, "duration": {"text": "1 min", "value": 48}, "end_location": {"lat": 29.6974536, "lng": -95.4195541}, "html_instructions": "Head <b>south</b> toward <b>Seuss Dr</b>", "polyline": {"points": "migtD~ukeQn@EBE@W?[CIEO"}, "start_location": {"lat": 29.6976721, "lng": -95.42000039999999}, "travel_mode": "WALKING"}, {"distance": {"text": "92 ft", "value": 28}, "duration": {"text": "1 min", "value": 22}, "end_location": {"lat": 29.6972678, "lng": -95.4194466}, "html_instructions": "Turn <b>right</b> onto <b>Seuss Dr</b>", "maneuver": "turn-right", "polyline": {"points": "ahgtDdskeQb@S"}, "start_location": {"lat": 29.6974536, "lng": -95.4195541}, "travel_mode": "WALKING"}, {"distance": {"text": "453 ft", "value": 138}, "duration": {"text": "2 mins", "value": 99}, "end_location": {"lat": 29.6977951, "lng": -95.41827939999999}, "html_instructions": "Turn <b>left</b> onto <b>N Braeswood Blvd</b>", "maneuver": "turn-left", "polyline": {"points": "}fgtDprkeQe@iAe@eAk@wALA"}, "start_location": {"lat": 29.6972678, "lng": -95.4194466}, "travel_mode": "WALKING"}, {"distance": {"text": "354 ft", "value": 108}, "duration": {"text": "2 mins", "value": 109}, "end_location": {"lat": 29.6968926, "lng": -95.4178915}, "html_instructions": "Turn <b>right</b> onto <b>Kirby Dr</b>", "maneuver": "turn-right", "polyline": {"points": "gjgtDfkkeQB?LCFAVGPEv@WZONGLI"}, "start_location": {"lat": 29.6977951, "lng": -95.41827939999999}, "travel_mode": "WALKING"}, {"distance": {"text": "246 ft", "value": 75}, "duration": {"text": "1 min", "value": 66}, "end_location": {"lat": 29.6964394, "lng": -95.4183856}, "html_instructions": "Turn <b>right</b> onto <b>S Braeswood Blvd</b>", "maneuver": "turn-right", "polyline": {"points": "qdgtDxhkeQBFRXHHRRRRJHBD"}, "start_location": {"lat": 29.6968926, "lng": -95.4178915}, "travel_mode": "WALKING"}], "travel_mode": "WALKING"}, {"distance": {"text": "1.3 mi", "value": 2025}, "duration": {"text": "4 mins", "value": 265}, "end_location": {"lat": 29.704328, "lng": -95.40361999999999}, "html_instructions": "Bus towards TMC TC", "polyline": {"points": "yagtD|kkeQADKIYWY[W]GOI[MHAMASKWISCIMe@Mq@G]C]AEAWAOCuCA[@u@?aA?SBOLqADg@Hy@@CTiBBO\\mCBWaAw@[We@_@SO{@o@i@a@AAKISMe@_@IGMIo@g@i@_@SOyAiAOKMK}AiAGEEEIC_@UQMq@g@g@_@MMaC_BcD_CqCoBcBiAUU][DKHQJUJWFOFOFORg@Re@VaAPgA@W?Q@Q{@CICCCECEGCE?I?I?I@GPm@@G@GAGAECEAACAIAG?_ANM}@"}, "start_location": {"lat": 29.696446, "lng": -95.41839499999999}, "transit_details": {"arrival_stop": {"location": {"lat": 29.704328, "lng": -95.40361999999999}, "name": "Texas Medical Center Transit Center"}, "arrival_time": {"text": "3:44pm", "time_zone": "America/Chicago", "value": 1642023840}, "departure_stop": {"location": {"lat": 29.696446, "lng": -95.41839499999999}, "name": "Braeswood Blvd @ Kirby Dr"}, "departure_time": {"text": "3:39pm", "time_zone": "America/Chicago", "value": 1642023575}, "headsign": "TMC TC", "line": {"agencies": [{"name": "Metropolitan Transit Authority of Harris County", "phone": "1 (713) 635-4000", "url": "http://www.ridemetro.org/"}], "color": "#004080", "name": "Braeswood", "short_name": "68", "text_color": "#ffffff", "url": "https://www.ridemetro.org/MetroPDFs/Schedules/BusSchedules/n068-Braeswood.pdf", "vehicle": {"icon": "//maps.gstatic.com/mapfiles/transit/iw2/6/bus2.png", "name": "Bus", "type": "BUS"}}, "num_stops": 6, "trip_short_name": "BRAESWOOD"}, "travel_mode": "TRANSIT"}, {"distance": {"text": "7.9 mi", "value": 12693}, "duration": {"text": "34 mins", "value": 2040}, "end_location": {"lat": 29.803613, "lng": -95.41008699999999}, "html_instructions": "Bus towards N Shepherd P&R", "polyline": {"points": "ashtDroheQFj@kAh@QBKAKKCQ@O?i@?A?e@j@Kn@KDAp@Mr@KPHDPDVERC\\AJCJCL@TCLUp@CN?PDPJJLDhAHCp@Mz@Op@Wp@gAhC?@CFIPEJIPEHELWh@QXINOPSNkAl@OH]PE@MFC@MBS@e@@M?o@A]??|B?vA?^@nG?j@?R?P@b@?~@@rAA`A@n@?h@oA?[?_@?WAsBBQ?Q?eD@uB@S?Y?yAA{@@yC@kC@K?gD?cDB_D@}A?oA@_B@c@?cE@w@@}AAAc@?g@AQCYCg@Iq@E[Gc@Km@Os@Me@IUSu@GUw@oCMc@Uw@cBp@IDkAb@kAf@{@^SHy@ZEBSF_@JKBi@LA@SDWDa@FI@a@F]DWBYBQ@o@DA?M@w@@W@M?K?oA?gA?K?sA@uA@K@iB?s@?iD@yB?S?c@@gB?oCBU@eB@e@?]?eA?S?O?U?aA?i@@A?[?A?Y@k@?]?m@?W?iD@c@@aA@eADcAAQ?aA?S@c@?U@y@Ao@AgB?cA@sA?cA@Q?iD@wA?u@@e@?c@?M?_A@]?y@?y@@Y?K?y@@O?s@?y@?eB@cA?y@@O?K?W?I?c@?E?}ABE?q@?gA?]Aa@G[GSCg@AS@M?Y?a@?m@?_A?c@@S?sC@gA@iA?kD?iB?_@?[?Y?q@@gB?{@?Y@qA?eA?I?uD@i@@_A?Q?O?{@?m@?M?g@@y@@g@@Q?[?{@?OGEAGCEEGCECECGEY[OYEKCECGEQ_AuCAEEIQe@IQCEACGIEGEGGIIIEEOKGEQKMEk@Oo@@M?{@?WIgB?KEC?SAYAU?IA]?SAeA?S?g@AcA@EBIFKFA@CBIHCDGHGXQ@aAJa@Da@DC?}AL]D]DK@KEA?A?I?G?M?MAAAA?C?AAE?CAA?OCC?AAM?WA[FE@E@c@HG@YD_@HeAPKBw@TgABW?C?W?k@@_A@K?[@SBe@Dc@@SBa@?eA@[?M?eA@c@?e@?]?_@@Y?k@?M?qCBg@?Q?M@U?e@?M?qCB]?w@@_@?E@W?e@?mB@gA?k@@]?qB@c@@a@CE@e@@m@?S@kA?cA@aCBM?oC@eA@oA@Y?[?O?a@Bm@?U?o@?e@@I?A?A?y@?M@YAS@O?_@@w@@y@?]?M?YAMAMCOEYIIAa@Kc@Ku@QGACAm@MAAOCIAK?OAM?M?A?I?O?S@M@IBc@Jq@P}@Vg@Jk@Ji@Hc@Be@DE?c@Bs@ByABA?oCBYA}B@I?A?q@@K?E?k@?C?O@u@?S?k@@w@@K?a@?O?[@U?U?U?k@@k@?Y@C?I?S?kC@y@@K?W@[?S?A?W?G?U@S?c@?e@@O?E?[?mCBeA@U?Y?S?U@A?S?aA@_@?e@@Q?S?U?s@?C?W?qB@sB@eBBg@?oBBaGBq@@w@?aB@i@@W@_B@yA@aB@Q?qD@U@gB?eB@eBA_A@?K"}, "start_location": {"lat": 29.704328, "lng": -95.40361999999999}, "transit_details": {"arrival_stop": {"location": {"lat": 29.803613, "lng": -95.41008699999999}, "name": "N Shepherd Dr @ W 20th St"}, "arrival_time": {"text": "4:29pm", "time_zone": "America/Chicago", "value": 1642026540}, "departure_stop": {"location": {"lat": 29.704328, "lng": -95.40361999999999}, "name": "Texas Medical Center Transit Center"}, "departure_time": {"text": "3:55pm", "time_zone": "America/Chicago", "value": 1642024500}, "headsign": "N Shepherd P&R", "line": {"agencies": [{"name": "Metropolitan Transit Authority of Harris County", "phone": "1 (713) 635-4000", "url": "http://www.ridemetro.org/"}], "color": "#004080", "name": "Shepherd", "short_name": "27", "text_color": "#ffffff", "url": "https://www.ridemetro.org/MetroPDFs/Schedules/BusSchedules/n027-Shepherd.pdf", "vehicle": {"icon": "//maps.gstatic.com/mapfiles/transit/iw2/6/bus2.png", "name": "Bus", "type": "BUS"}}, "num_stops": 53, "trip_short_name": "SHEPHERD"}, "travel_mode": "TRANSIT"}, {"distance": {"text": "112 ft", "value": 34}, "duration": {"text": "1 min", "value": 34}, "end_location": {"lat": 29.803842, "lng": -95.41002979999999}, "html_instructions": "Walk to W 20th St @ N Shepherd Dr", "polyline": {"points": "q_|tDdxieQ_@@M??Q"}, "start_location": {"lat": 29.8036121, "lng": -95.410111}, "steps": [{"distance": {"text": "69 ft", "value": 21}, "duration": {"text": "1 min", "value": 15}, "end_location": {"lat": 29.8038391, "lng": -95.4101207}, "html_instructions": "Head <b>north</b> on <b>N Shepherd Dr</b> toward <b>W 20th St</b>", "polyline": {"points": "q_|tDdxieQ_@@M?"}, "start_location": {"lat": 29.8036121, "lng": -95.410111}, "travel_mode": "WALKING"}, {"distance": {"text": "43 ft", "value": 13}, "duration": {"text": "1 min", "value": 19}, "end_location": {"lat": 29.803842, "lng": -95.41002979999999}, "html_instructions": "Turn <b>right</b> onto <b>W 20th St</b>", "maneuver": "turn-right", "polyline": {"points": "_a|tDfxieQ?Q"}, "start_location": {"lat": 29.8038391, "lng": -95.4101207}, "travel_mode": "WALKING"}], "travel_mode": "WALKING"}, {"distance": {"text": "2.7 mi", "value": 4367}, "duration": {"text": "10 mins", "value": 582}, "end_location": {"lat": 29.80163, "lng": -95.454342}, "html_instructions": "Bus towards Memorial City", "polyline": {"points": "ea|tDvwieQJ?@V?fA@`ABfE?tABtJ?pB@rA?r@?H?|@?jB?@?j@@h@AL?\\?J@f@?|B?h@?|@?n@?N?|G?J@tE?d@@dC?p@AL@J?V@P@H?B?D@F@HBH@JDPDLDLDHDJDJHLFHFHLL?@TVTVn@v@NRh@h@NPVX^f@BJBFBFf@v@P`@DZDVBT@F?D@F?H?P@P?X?N?F?j@@pAIpB@f@?V?fA?j@?V@h@AjA?h@@~@?b@@^Af@@d@?X?bA?jA?b@@nC?J?d@Aj@?v@?P@dB?jA?bC?`A?\\@dH?`D?dC@fE?jD?T@`F@vB?jD?vC?X?`E@V@zCAb@?fAAX@fB@fA?T@|B?l@A~A?x@?XAzB?`A?dB?l@?P?F?H@^?Z?@?H?@?Z?h@?f@?j@?^?t@@j@BnAAV@|@@fB?bBG?"}, "start_location": {"lat": 29.803869, "lng": -95.410039}, "transit_details": {"arrival_stop": {"location": {"lat": 29.80163, "lng": -95.454342}, "name": "W 18th St @ Northwest Fwy"}, "arrival_time": {"text": "4:48pm", "time_zone": "America/Chicago", "value": 1642027720}, "departure_stop": {"location": {"lat": 29.803869, "lng": -95.410039}, "name": "W 20th St @ N Shepherd Dr"}, "departure_time": {"text": "4:38pm", "time_zone": "America/Chicago", "value": 1642027138}, "headsign": "Memorial City", "line": {"agencies": [{"name": "Metropolitan Transit Authority of Harris County", "phone": "1 (713) 635-4000", "url": "http://www.ridemetro.org/"}], "color": "#004080", "name": "Long Point / Cavalcade", "short_name": "26", "text_color": "#ffffff", "url": "https://www.ridemetro.org/MetroPDFs/Schedules/BusSchedules/n026-Long-Point-Cavalcade.pdf", "vehicle": {"icon": "//maps.gstatic.com/mapfiles/transit/iw2/6/bus2.png", "name": "Bus", "type": "BUS"}}, "num_stops": 14, "trip_short_name": "LONGPOINT"}, "travel_mode": "TRANSIT"}, {"distance": {"text": "322 ft", "value": 98}, "duration": {"text": "1 min", "value": 77}, "end_location": {"lat": 29.8019199, "lng": -95.45428179999999}, "html_instructions": "Walk to 4400 W 18th St, Houston, TX 77092, USA", "polyline": {"points": "es{tDrlreQ?z@YEc@E?G@Q@a@"}, "start_location": {"lat": 29.8016264, "lng": -95.454342}, "steps": [{"distance": {"text": "95 ft", "value": 29}, "duration": {"text": "1 min", "value": 22}, "end_location": {"lat": 29.8016252, "lng": -95.45463819999999}, "html_instructions": "Head <b>west</b> on <b>W 18th St</b>/<wbr/><b>NW Mall</b>", "polyline": {"points": "es{tDrlreQ?z@"}, "start_location": {"lat": 29.8016264, "lng": -95.454342}, "travel_mode": "WALKING"}, {"distance": {"text": "131 ft", "value": 40}, "duration": {"text": "1 min", "value": 33}, "end_location": {"lat": 29.8019405, "lng": -95.4545788}, "html_instructions": "Turn <b>right</b><div style=\"font-size:0.9em\">Restricted usage road</div>", "maneuver": "turn-right", "polyline": {"points": "es{tDnnreQYEc@E"}, "start_location": {"lat": 29.8016252, "lng": -95.45463819999999}, "travel_mode": "WALKING"}, {"distance": {"text": "95 ft", "value": 29}, "duration": {"text": "1 min", "value": 22}, "end_location": {"lat": 29.8019199, "lng": -95.45428179999999}, "html_instructions": "Turn <b>right</b><div style=\"font-size:0.9em\">Restricted usage road</div><div style=\"font-size:0.9em\">Destination will be on the left</div>", "maneuver": "turn-right", "polyline": {"points": "cu{tDbnreQ?G@Q@a@"}, "start_location": {"lat": 29.8019405, "lng": -95.4545788}, "travel_mode": "WALKING"}], "travel_mode": "WALKING"}], "traffic_speed_entry": [], "via_waypoint": []}], "overview_polyline": {"points": "migtD~ukeQn@EBE@s@IYb@Se@iAqA}CPA~@SrAg@\\QV`@\\\\^\\@DADKIs@s@_@m@I[MHCa@Uk@Qo@UoAIkAEqD@wBBc@RyBd@wD`@eD}AoAuB_BkA{@uG_FyBaBi@YcAu@u@m@eH_FuFyDs@q@f@kAj@wARe@VaAPgA@W@c@{@CMGKKCO?SRu@BOCMEGMCgANM}@Fj@kAh@QBKAKKAa@?k@?e@j@Kt@MdBYPHDPDVEREh@CJCL@TY~@C`@DPJJLDhAHCp@Mz@g@bBgAjC]v@u@zAY`@_B|@aAd@QDy@B}@A]??|B?vB@zH@hC@nFcDA}HD}F?mJDkIB}F@wKDuC?AkASeCM_A[aBs@gCeAsDUw@cBp@uAh@gCfAgBp@wA^wATqBTqAHiBBwF@aBB}C?{IBsJFoH@qD@gHDiCBsA?gC@oH?eNDgUHqCB}CA}@O{@E}A@wRDoLBcNB_D@oCB{@?OGMEYQa@a@Ue@mAuDc@gAS[]a@WQ_@Qk@Oo@@iA?WIgB?OEmAEkCAkB?OJ[VKNGXQ@cBPe@DeDZYEc@AAASC{@GsEx@cAX_BBgCBaBJw@DgB@sC@}B@oIDyIF_GB}D@wOJaIFkDB{FBu@GuA]eBa@iAUw@Ao@@WDuA\\eBb@uATsBLmCFqCBcD?oB@mEDmOJ{NHyEDeMFoSLuRJkE?_A@?K?B_@@M??QE@J?@~AHtU@zM@nJB|W@bABZLp@Vp@^l@x@~@hBtBf@j@^f@BJFNf@v@P`@Jr@D\\@h@@bA@|BIpB@f@?~A?bA?tB@hB@pC?zLBdWDvd@@jKA`HDbIA`F?tK?bEDpE@`HG??z@YEc@E?GBs@"}, "summary": "", "warnings": ["Walking directions are in beta. Use caution \u2013 This route may be missing sidewalks or pedestrian paths."], "waypoint_order": []}, {"bounds": {"northeast": {"lat": 29.8041315, "lng": -95.3869994}, "southwest": {"lat": 29.697069, "lng": -95.45463819999999}}, "copyrights": "Map data \u00a92022", "legs": [{"arrival_time": {"text": "4:34pm", "time_zone": "America/Chicago", "value": 1642026897}, "departure_time": {"text": "3:26pm", "time_zone": "America/Chicago", "value": 1642022788}, "distance": {"text": "13.2 mi", "value": 21241}, "duration": {"text": "1 hour 8 mins", "value": 4109}, "end_address": "4400 W 18th St, Houston, TX 77092, USA", "end_location": {"lat": 29.8019199, "lng": -95.45428179999999}, "start_address": "7550 Seuss Dr, Houston, TX 77025, USA", "start_location": {"lat": 29.6976721, "lng": -95.42000039999999}, "steps": [{"distance": {"text": "341 ft", "value": 104}, "duration": {"text": "1 min", "value": 86}, "end_location": {"lat": 29.6971525, "lng": -95.4194668}, "html_instructions": "Walk to Braeswood Blvd @ Seuss Dr", "polyline": {"points": "migtD~ukeQn@EBE@W?[CId@UJGBA"}, "start_location": {"lat": 29.6976721, "lng": -95.42000039999999}, "steps": [{"distance": {"text": "217 ft", "value": 66}, "duration": {"text": "1 min", "value": 48}, "end_location": {"lat": 29.69742369999999, "lng": -95.4196295}, "html_instructions": "Head <b>south</b> toward <b>Seuss Dr</b>", "polyline": {"points": "migtD~ukeQn@EBE@W?[CI"}, "start_location": {"lat": 29.6976721, "lng": -95.42000039999999}, "travel_mode": "WALKING"}, {"distance": {"text": "125 ft", "value": 38}, "duration": {"text": "1 min", "value": 38}, "end_location": {"lat": 29.6971525, "lng": -95.4194668}, "html_instructions": "Turn <b>right</b> onto <b>Seuss Dr</b>", "maneuver": "turn-right", "polyline": {"points": "{ggtDtskeQd@UJGBA"}, "start_location": {"lat": 29.69742369999999, "lng": -95.4196295}, "travel_mode": "WALKING"}], "travel_mode": "WALKING"}, {"distance": {"text": "1.3 mi", "value": 2130}, "duration": {"text": "5 mins", "value": 306}, "end_location": {"lat": 29.704328, "lng": -95.40361999999999}, "html_instructions": "Bus towards Eastwood TC", "polyline": {"points": "uegtDprkeQGBEKw@kB[q@GIOc@IFEISg@Oc@K_@QYI]Mq@OgAIiAAgA?gAFyCDgAHeB`@}DJ{@n@kFiBuAFKAAKISMe@_@IGMIo@g@i@_@SOyAiAOKMK}AiAGEEEIC_@UQMq@g@g@_@MMaC_BcD_CqCoBcBiAUUADa@YJWtAaDVq@Nq@L{@Bq@}@GKAMEKKEQ?QBOTq@BMAUBMBK@KB]EIKEa@H{@LA?@J"}, "start_location": {"lat": 29.697069, "lng": -95.419448}, "transit_details": {"arrival_stop": {"location": {"lat": 29.704328, "lng": -95.40361999999999}, "name": "Texas Medical Center Transit Center"}, "arrival_time": {"text": "3:33pm", "time_zone": "America/Chicago", "value": 1642023180}, "departure_stop": {"location": {"lat": 29.697069, "lng": -95.419448}, "name": "Braeswood Blvd @ Seuss Dr"}, "departure_time": {"text": "3:27pm", "time_zone": "America/Chicago", "value": 1642022874}, "headsign": "Eastwood TC", "line": {"agencies": [{"name": "Metropolitan Transit Authority of Harris County", "phone": "1 (713) 635-4000", "url": "http://www.ridemetro.org/"}], "color": "#004080", "name": "Beechnut", "short_name": "4", "text_color": "#ffffff", "url": "https://www.ridemetro.org/MetroPDFs/Schedules/BusSchedules/n004-Beechnut.pdf", "vehicle": {"icon": "//maps.gstatic.com/mapfiles/transit/iw2/6/bus2.png", "name": "Bus", "type": "BUS"}}, "num_stops": 6, "trip_short_name": "BEECHNUT"}, "travel_mode": "TRANSIT"}, {"distance": {"text": "7.7 mi", "value": 12332}, "duration": {"text": "33 mins", "value": 1971}, "end_location": {"lat": 29.803849, "lng": -95.387502}, "html_instructions": "Bus towards Greenspoint TC", "polyline": {"points": "ashtDroheQKcA@?`@Ib@GXEBAB@B@@@FF@B@D@D?R?DC^ANKd@Y`AGT?D?H?@?F@H@FBFBFDDDBFBH@B?`AF?PAVQfAW`ASd@Sf@GNGNGNKVGLCFIPa@UQMMOMKKIIIqAgAyBaBa@[EAAAs@g@[Y]Uo@e@kA{@gBiACAEAMAkBqAk@_@c@[GEa@[o@g@_@[iA{@iAy@[YSSmBsAg@_@c@[ECi@a@_@WwAcAaBmAYSECMI_Am@o@c@{AiAkBsAcBoAWQYSkA{@MKm@c@_@YQOUQaAs@CAgBqAi@_@UQ_@W[Ws@i@w@k@eAw@oEcDiBsAECGEECg@]IG]YOMWUcFqDk@a@}AiAWQy@m@]Yo@e@MICCCCEEGG[[?IAIAEAECIEGCGCGQOECCAKEICICKAE?EAK@CBEDEFCFCH?@?@?@?@OPGDE@I?YF]?iA?aB?g@?e@?W?}@@Y?s@?C?c@?c@@M?c@?S@K?kA?sA?qC@M?m@@oB@Y?}@@A?Q?u@?m@?GECCS?]?e@?Q@G?M?C?G?[?M?I@GAO?]@KJG?E?q@?e@@[?Q?O?I?S?cB?G?g@?i@?S?_@?e@?o@@E?]@aA?w@@o@?Q@eC@Q?qB?w@?wB@k@@Q?}@?kB@oC@Y@i@?_B?a@?_A?_@?k@?e@?[?i@?eCBGESCWAaABc@?O?o@?U?M?[?c@Ba@BK@M@C@G@SDIBe@Nu@Rc@L[JKDMFKDaAPi@DG@Q@U@s@BiA@q@@W@iB?aA@M?e@?]@_A@K?wA@o@@cA@_A?qBBU@uCBu@@g@?c@?c@?_@?c@@cC@e@@yA?a@?_@@_@?yA@]@cA?C@e@@c@@o@BW@K?S@Y?i@DA?Y@Q@I@G@QBG@e@DU@g@@m@@a@?C?mABaB?Y@[?]?W?gAAS?c@?W?_@AWCC?M?C?WAc@@c@?c@GQC[?I?Q?Q?a@BQ@?@Q?A?A?Q@EAA?E?U?A?KAW?e@AqBG_@Ca@AO?o@Cm@?[?u@AoEBQ?]?O?cACYCYA]C_@GUEg@Gg@MA?]KOEu@UQCiBk@s@WSG_@OKEA?aBm@a@OEC[KEAAAYGOEQEA?SEKCGAOCKA_@EkBEk@Ai@?a@?sB@W?QASCQAQCAAi@IQEMCICOG_@OAAMGMG[QMGOKEEIIUOc@_@CCUQACOOu@q@ECq@q@AASSw@u@?AYYUS_@_@WUu@s@IIA??AIGEEKKCAGEGCIGQIQK]OAAYKEAOGWIYGc@IQCQCQAQAE?]CG?M?iAD}@H_@Hq@PgAZSFa@NEBG@GDIBMDC@E@K@Y@Q@Q?K?A?A?A@CBCDU?aB?}CB[?uDBkB@[?K?Q?Q?aA@y@?{@?qA@{A?K?e@@kA@i@@[?gA?g@@E?Y?E?a@?yA@S?m@?Y?uB@S@q@?_@BE?Q?M@w@?MAi@?k@?c@?O?_A@I?M@o@@mB?Y@S?wB@o@@w@?O?Q?}A?k@@i@@}@?c@@y@?wA@mC@Q?oA@Y?U@sB?W@qB?c@@I?yA@m@?cA?W@gB?_@?w@?sA@wA@Q?}@@sAIc@HFa@D]B]@QH?"}, "start_location": {"lat": 29.704328, "lng": -95.40361999999999}, "transit_details": {"arrival_stop": {"location": {"lat": 29.803849, "lng": -95.387502}, "name": "W Cavalcade St @ N Main St"}, "arrival_time": {"text": "4:12pm", "time_zone": "America/Chicago", "value": 1642025571}, "departure_stop": {"location": {"lat": 29.704328, "lng": -95.40361999999999}, "name": "Texas Medical Center Transit Center"}, "departure_time": {"text": "3:40pm", "time_zone": "America/Chicago", "value": 1642023600}, "headsign": "Greenspoint TC", "line": {"agencies": [{"name": "Metropolitan Transit Authority of Harris County", "phone": "1 (713) 635-4000", "url": "http://www.ridemetro.org/"}], "color": "#004080", "name": "Airline / Montrose", "short_name": "56", "text_color": "#ffffff", "url": "https://www.ridemetro.org/MetroPDFs/Schedules/BusSchedules/n056-Airline-Montrose.pdf", "vehicle": {"icon": "//maps.gstatic.com/mapfiles/transit/iw2/6/bus2.png", "name": "Bus", "type": "BUS"}}, "num_stops": 45, "trip_short_name": "AIRLMONT"}, "travel_mode": "TRANSIT"}, {"distance": {"text": "256 ft", "value": 78}, "duration": {"text": "1 min", "value": 77}, "end_location": {"lat": 29.8040987, "lng": -95.3879358}, "html_instructions": "Walk to W Cavalcade St @ N Main St", "polyline": {"points": "ca|tDzjeeQARC\\E\\EROBC?O@DO?A"}, "start_location": {"lat": 29.8038626, "lng": -95.38750189999999}, "steps": [{"distance": {"text": "180 ft", "value": 55}, "duration": {"text": "1 min", "value": 40}, "end_location": {"lat": 29.8040284, "lng": -95.388019}, "html_instructions": "Head <b>west</b> on <b>W Cavalcade St</b> toward <b>N Main St</b>", "polyline": {"points": "ca|tDzjeeQARC\\E\\EROB"}, "start_location": {"lat": 29.8038626, "lng": -95.38750189999999}, "travel_mode": "WALKING"}, {"distance": {"text": "36 ft", "value": 11}, "duration": {"text": "1 min", "value": 18}, "end_location": {"lat": 29.8041286, "lng": -95.38803279999999}, "html_instructions": "Turn <b>right</b> onto <b>N Main St</b>", "maneuver": "turn-right", "polyline": {"points": "eb|tDbneeQC?O@"}, "start_location": {"lat": 29.8040284, "lng": -95.388019}, "travel_mode": "WALKING"}, {"distance": {"text": "39 ft", "value": 12}, "duration": {"text": "1 min", "value": 19}, "end_location": {"lat": 29.8040987, "lng": -95.3879358}, "html_instructions": "Turn <b>right</b> onto <b>W Cavalcade St</b>", "maneuver": "turn-right", "polyline": {"points": "yb|tDdneeQDO?A"}, "start_location": {"lat": 29.8041286, "lng": -95.38803279999999}, "travel_mode": "WALKING"}], "travel_mode": "WALKING"}, {"distance": {"text": "4.0 mi", "value": 6499}, "duration": {"text": "14 mins", "value": 864}, "end_location": {"lat": 29.80163, "lng": -95.454342}, "html_instructions": "Bus towards Memorial City", "polyline": {"points": "wb|tDpmeeQJBA@ETC\\Af@?P?P?LA`@@\\BpA?^@j@?H@tA?n@?b@@b@?X?P?V@`A?v@@dA?V?vA@T?lB@jB@tA?XB|E?~A@zB@nB?V?V@t@?L?R?L@R?N?f@?h@@|@?\\?d@?b@@n@?pA@|B?d@?`@@t@?T?pA@v@@rA?v@@bD@~@?nA@H?tB@^@dC?P?j@@x@?x@?t@@P?dA@|A?\\?^@dC@zB?xA?N@V?fA@`ABfE?tABtJ?pB@rA?r@?H?|@?jB?@?j@@h@AL?\\?J@f@?|B?h@?|@?n@?N?|G?J@tE?d@@dC?p@AL@J?V@P@H?B?D@F@HBH@JDPDLDLDHDJDJHLFHFHLL?@TVTVn@v@NRh@h@NPVX^f@BJBFBFf@v@P`@DZDVBT@F?D@F?H?P@P?X?N?F?j@@pAIpB@f@?V?fA?j@?V@h@AjA?h@@~@?b@@^Af@@d@?X?bA?jA?b@@nC?J?d@Aj@?v@?P@dB?jA?bC?`A?\\@dH?`D?dC@fE?jD?T@`F@vB?jD?vC?X?`E@V@zCAb@?fAAX@fB@fA?T@|B?l@A~A?x@?XAzB?`A?dB?l@?P?F?H@^?Z?@?H?@?Z?h@?f@?j@?^?t@@j@BnAAV@|@@fB?bBG?"}, "start_location": {"lat": 29.804119, "lng": -95.38793299999999}, "transit_details": {"arrival_stop": {"location": {"lat": 29.80163, "lng": -95.454342}, "name": "W 18th St @ Northwest Fwy"}, "arrival_time": {"text": "4:33pm", "time_zone": "America/Chicago", "value": 1642026820}, "departure_stop": {"location": {"lat": 29.804119, "lng": -95.38793299999999}, "name": "W Cavalcade St @ N Main St"}, "departure_time": {"text": "4:19pm", "time_zone": "America/Chicago", "value": 1642025956}, "headsign": "Memorial City", "line": {"agencies": [{"name": "Metropolitan Transit Authority of Harris County", "phone": "1 (713) 635-4000", "url": "http://www.ridemetro.org/"}], "color": "#004080", "name": "Long Point / Cavalcade", "short_name": "26", "text_color": "#ffffff", "url": "https://www.ridemetro.org/MetroPDFs/Schedules/BusSchedules/n026-Long-Point-Cavalcade.pdf", "vehicle": {"icon": "//maps.gstatic.com/mapfiles/transit/iw2/6/bus2.png", "name": "Bus", "type": "BUS"}}, "num_stops": 24, "trip_short_name": "LONGPOINT"}, "travel_mode": "TRANSIT"}, {"distance": {"text": "322 ft", "value": 98}, "duration": {"text": "1 min", "value": 77}, "end_location": {"lat": 29.8019199, "lng": -95.45428179999999}, "html_instructions": "Walk to 4400 W 18th St, Houston, TX 77092, USA", "polyline": {"points": "es{tDrlreQ?z@YEc@E?G@Q@a@"}, "start_location": {"lat": 29.8016264, "lng": -95.454342}, "steps": [{"distance": {"text": "95 ft", "value": 29}, "duration": {"text": "1 min", "value": 22}, "end_location": {"lat": 29.8016252, "lng": -95.45463819999999}, "html_instructions": "Head <b>west</b> on <b>W 18th St</b>/<wbr/><b>NW Mall</b>", "polyline": {"points": "es{tDrlreQ?z@"}, "start_location": {"lat": 29.8016264, "lng": -95.454342}, "travel_mode": "WALKING"}, {"distance": {"text": "131 ft", "value": 40}, "duration": {"text": "1 min", "value": 33}, "end_location": {"lat": 29.8019405, "lng": -95.4545788}, "html_instructions": "Turn <b>right</b><div style=\"font-size:0.9em\">Restricted usage road</div>", "maneuver": "turn-right", "polyline": {"points": "es{tDnnreQYEc@E"}, "start_location": {"lat": 29.8016252, "lng": -95.45463819999999}, "travel_mode": "WALKING"}, {"distance": {"text": "95 ft", "value": 29}, "duration": {"text": "1 min", "value": 22}, "end_location": {"lat": 29.8019199, "lng": -95.45428179999999}, "html_instructions": "Turn <b>right</b><div style=\"font-size:0.9em\">Restricted usage road</div><div style=\"font-size:0.9em\">Destination will be on the left</div>", "maneuver": "turn-right", "polyline": {"points": "cu{tDbnreQ?G@Q@a@"}, "start_location": {"lat": 29.8019405, "lng": -95.4545788}, "travel_mode": "WALKING"}], "travel_mode": "WALKING"}], "traffic_speed_entry": [], "via_waypoint": []}], "overview_polyline": {"points": "migtD~ukeQn@EBE@s@CId@UNINCGB}@wBc@{@Oc@IFYq@[cAQYI]]yBIiAAgAFaFNmDl@yFn@kFiBuADMoA_AqImGw@e@yBcBeH_FuFyDUUADa@YJWlBsE\\mBBq@}@GYGKKEQBa@X_AAUBMBKDi@EIKE}AV?JIcAbBYFBHHBH@XEt@m@bC@\\N\\LFL@`AFAh@i@hCg@lAc@fAKTIPa@UQM[[USqAgAyBaBg@]u@i@y@o@{BaBkBkASCcEsC{D{CeBsAaCgB{BaBsF}DcC_BeN_KiCoBkDeCmPyL_Ao@m@g@{FgE{EkD_BmAm@m@E_@Qa@WSOGe@IEAODKLGP?FWVO@YF]?kD?cD@uB?gLDmIDm@?GEWC}A@eB?]@KJG?w@?aA@_A?}D?gHDgPFqODqD?eA?eCBGEk@EeBBcB?_ABm@Dm@JiCt@aA^kBVYBeEHaJF_RPwLDgIHqENsCTaJHmFCm@C{@?c@?c@Gm@C[?eAFkA?oGQoDEoGBuCMu@MoAUeBg@QCiBk@gA_@oCcAiAa@gBa@[EkCKkF?i@Ae@EoAUgA_@y@c@m@c@sAeAmEgEiDcD[[]ScAg@gA_@aBYgAGU?gCNmD~@w@Za@LiADO?EDCDU?_GBqEBeD@iE@yLFkGBuEBeADeAAuA?}B@yLHuZNkNDcGBoA@sAIc@HL_ADo@F?Ep@Kp@SBO@DOCCHDIr@AxABpDBzDDjIHlTHxU\\~aAJv\\BrK?tJ@zVD~@BZPt@Vn@f@n@zAhBhAnAv@`AFRj@~@V|@Jz@BrC@pAIpB@~@@tDAtB@bB@fC?xMBnZ@nOBxI?bIBnKAlFBhGCnH@tH?fEBhEBdD?bBG??z@}@KB{@"}, "summary": "", "warnings": ["Walking directions are in beta. Use caution \u2013 This route may be missing sidewalks or pedestrian paths."], "waypoint_order": []}], "status": "OK"}