{"geocoded_waypoints": [{"geocoder_status": "OK", "place_id": "ChIJrWexf2K9QIYRmjYwF0NICFQ", "types": ["establishment", "point_of_interest", "school", "secondary_school"]}, {"geocoder_status": "OK", "place_id": "ChIJ9_tphxzHQIYRIMyPy_d3VZU", "types": ["establishment", "point_of_interest"]}], "routes": [{"bounds": {"northeast": {"lat": 29.804029, "lng": -95.2536464}, "southwest": {"lat": 29.6849211, "lng": -95.45463819999999}}, "copyrights": "Map data \u00a92022", "legs": [{"arrival_time": {"text": "6:04pm", "time_zone": "America/Chicago", "value": 1642032297}, "departure_time": {"text": "4:18pm", "time_zone": "America/Chicago", "value": 1642025894}, "distance": {"text": "20.8 mi", "value": 33536}, "duration": {"text": "1 hour 47 mins", "value": 6403}, "end_address": "4400 W 18th St, Houston, TX 77092, USA", "end_location": {"lat": 29.8019199, "lng": -95.45428179999999}, "start_address": "8501 Howard Dr, Houston, TX 77017, USA", "start_location": {"lat": 29.6861869, "lng": -95.25449599999999}, "steps": [{"distance": {"text": "0.1 mi", "value": 206}, "duration": {"text": "3 mins", "value": 170}, "end_location": {"lat": 29.6849433, "lng": -95.2550218}, "html_instructions": "Walk to Galveston Rd @ Howard Dr", "polyline": {"points": "uaetDrkkdQA?CACAACCE?Y?U@_@BW@]FUdArBXd@~@~Al@bAHKBCJKPO"}, "start_location": {"lat": 29.6861869, "lng": -95.25449599999999}, "steps": [{"distance": {"text": "167 ft", "value": 51}, "duration": {"text": "1 min", "value": 37}, "end_location": {"lat": 29.685841, "lng": -95.25423029999999}, "html_instructions": "Head <b>southeast</b> on <b>Berrydale St</b> toward <b>Howard Dr</b>", "polyline": {"points": "uaetDrkkdQA?CACAACCE?Y?U@_@BW@]FUdArB"}, "start_location": {"lat": 29.6861869, "lng": -95.25449599999999}, "travel_mode": "WALKING"}, {"distance": {"text": "417 ft", "value": 127}, "duration": {"text": "2 mins", "value": 93}, "end_location": {"lat": 29.6851086, "lng": -95.255181}, "html_instructions": "Turn <b>right</b> onto <b>Howard Dr</b>", "maneuver": "turn-right", "polyline": {"points": "o_etD|ikdQXd@~@~Al@bAHK"}, "start_location": {"lat": 29.685841, "lng": -95.25423029999999}, "travel_mode": "WALKING"}, {"distance": {"text": "92 ft", "value": 28}, "duration": {"text": "1 min", "value": 40}, "end_location": {"lat": 29.6849433, "lng": -95.2550218}, "html_instructions": "Turn <b>left</b> onto <b>Galveston Rd</b>", "maneuver": "turn-left", "polyline": {"points": "}zdtDzokdQBCJKPO"}, "start_location": {"lat": 29.6851086, "lng": -95.255181}, "travel_mode": "WALKING"}], "travel_mode": "WALKING"}, {"distance": {"text": "3.0 mi", "value": 4870}, "duration": {"text": "11 mins", "value": 656}, "end_location": {"lat": 29.685249, "lng": -95.295656}, "html_instructions": "Bus towards Wheeler TC", "polyline": {"points": "_zdtDvnkdQFHWTMN_BvAQN_A|@Y\\IT_BzAYVa@^gExD}AvAaDtCgDzCWTYVuClCg@d@MLy@t@w@r@[XC@[XKJKJ]\\QLQNy@t@MLo@j@GFw@p@oBhBmAfAoAhAe@b@X`@JNNTf@r@jAdBpAjBh@x@JNFHJNzA|BDFbAzAFJf@r@DFRZtDnFHLxDvFFJhBfC|@nAd@t@DFl@|@V^JNvE`H\\f@lA`B|@tARVLPb@p@n@`At@fAPXHTPj@BVIJEH@NANAHAH@F?D@B@DBFFL@@BB?@FJ@@@@FH?@BBDRLZDTBPB^@@FRAV?^?J@zC@^?j@@t@@ZBdD@\\@dC?N@|A@xB@jC?RF`N@T?PHjI?v@?F@fA@zA?J?J?N?R@J?N?R?^@~@@jA?N@d@@~@@pB@nB@\\?nBB|A?xBENAD@\\?~@?l@?N?XG?"}, "start_location": {"lat": 29.684959, "lng": -95.254999}, "transit_details": {"arrival_stop": {"location": {"lat": 29.685249, "lng": -95.295656}, "name": "Park Place Blvd @ Telephone Rd"}, "arrival_time": {"text": "4:32pm", "time_zone": "America/Chicago", "value": 1642026720}, "departure_stop": {"location": {"lat": 29.684959, "lng": -95.254999}, "name": "Galveston Rd @ Howard Dr"}, "departure_time": {"text": "4:21pm", "time_zone": "America/Chicago", "value": 1642026064}, "headsign": "Wheeler TC", "line": {"agencies": [{"name": "Metropolitan Transit Authority of Harris County", "phone": "1 (713) 635-4000", "url": "http://www.ridemetro.org/"}], "color": "#004080", "name": "Southmore", "short_name": "5", "text_color": "#ffffff", "url": "https://www.ridemetro.org/MetroPDFs/Schedules/BusSchedules/n005-Southmore.pdf", "vehicle": {"icon": "//maps.gstatic.com/mapfiles/transit/iw2/6/bus2.png", "name": "Bus", "type": "BUS"}}, "num_stops": 14, "trip_short_name": "SOUTHMORE"}, "travel_mode": "TRANSIT"}, {"distance": {"text": "390 ft", "value": 119}, "duration": {"text": "1 min", "value": 88}, "end_location": {"lat": 29.6856832, "lng": -95.2965605}, "html_instructions": "Walk to Telephone Rd @ Park Place Blvd", "polyline": {"points": "w{dtDzlsdQ?|@?t@QJGD}@l@"}, "start_location": {"lat": 29.6852427, "lng": -95.295656}, "steps": [{"distance": {"text": "194 ft", "value": 59}, "duration": {"text": "1 min", "value": 45}, "end_location": {"lat": 29.6852442, "lng": -95.2962438}, "html_instructions": "Head <b>west</b> on <b>Park Pl Blvd</b> toward <b>Telephone Rd</b>", "polyline": {"points": "w{dtDzlsdQ?|@?t@"}, "start_location": {"lat": 29.6852427, "lng": -95.295656}, "travel_mode": "WALKING"}, {"distance": {"text": "197 ft", "value": 60}, "duration": {"text": "1 min", "value": 43}, "end_location": {"lat": 29.6856832, "lng": -95.2965605}, "html_instructions": "Turn <b>right</b> onto <b>Telephone Rd</b><div style=\"font-size:0.9em\">Destination will be on the right</div>", "maneuver": "turn-right", "polyline": {"points": "w{dtDnpsdQQJGD}@l@"}, "start_location": {"lat": 29.6852442, "lng": -95.2962438}, "travel_mode": "WALKING"}], "travel_mode": "WALKING"}, {"distance": {"text": "14.2 mi", "value": 22801}, "duration": {"text": "1 hour 4 mins", "value": 3866}, "end_location": {"lat": 29.804029, "lng": -95.398901}, "html_instructions": "Bus towards N Shepherd P&R", "polyline": {"points": "w~dtDbrsdQJR[ROPi@Vi@Zg@X_Ah@MFOJm@ZyAx@g@Xq@\\c@Ta@R}@`@c@HKBE@MBYDkAHkDDg@@Q?S?a@?_A?m@?_@?w@Fw@Fy@RWFi@NMD_@LmA`@e@kAGSIKACQQIGECAAIEqAc@MC{@WWI]KA?ICu@Ue@OA?YKMCSGqA_@OEgAWm@Q_Bc@a@Km@Oq@Qu@S}@WAAE?c@Cm@C]A_@?}@GoAUm@QiASOGIRUnAGXMf@Mp@Ox@k@nCq@|CAFAHy@~DMh@Q~@i@hCUlACHKh@UlAKd@ET[`BERCLg@~BWjAABSt@K`@w@hAw@hAk@x@UZQVORo@~@W\\EFg@p@c@n@ORo@~@EFOVKLILU`@[f@?BQZEHO\\KTADGNy@`Ck@fBW|@Of@EJk@jBcAlDOp@[tAADUnAK|@?BK`A?@SbBUnC[~CEh@Q~AWCSAQAA?S?W@W?Y?c@@gA?oC?u@?m@?g@C]Ca@IoAQSEQCUGWIi@OKEIPkArAw@|@MLQTUVY\\IHYZ]`@cAjAq@r@c@f@o@r@A?]`@c@TMFeCdAyB|@OJIDUJQFQHIBULIDUJSHc@Pc@PYLIDWHKDSJ_@NKDo@Vi@TOFYLUHSHSH_@LiCfAc@NIDSH_EbBe@RoAh@WJq@Xu@ZGBi@TyB`Ac@PMFcBr@m@VWJQH{Ap@OFq@Xa@NEBEBC@C@IBC@{An@WJa@P}@^c@P{B~@KDUHoBx@y@\\YNi@RYLqD|AOF_CbAmAf@o@XIBcAb@_A^OH_A`@ULKDGDEBA@GFEDILGJS`@_@n@m@bAMPCFMNKPg@|@wAfCE@A?A@MT]v@IVENAJG`@Gj@Ab@G`AIx@Gd@GX[xA_@hBRFr@RpA`@NFz@Vn@Rj@Ph@NJD|@VNDPDfBh@n@RlDbA|Ad@~Af@v@Pn@Al@?d@EF?p@Ch@?l@DTiADOF[Nq@Z{AXAVDd@Pb@NB@STnAHNNBD@LANGT]`@MNG@K?GAWKa@Yc@YMQGIEO@E?EBKHe@?WK@K?Kj@UFSGMY[i@QYg@i@c@_@m@c@eBk@?Aa@KMEsDiAoBm@_@KICuAc@SG]KCA]KcCu@eBi@OEm@Qi@Me@GS?QAa@@WBC@G?SDA?E@c@F]BK?c@Ba@?Y?C?_@C[CUCWKe@Oa@M_@MMEGVu@pDI\\ABKf@SjAEX?La@tBa@rBI`@cBfIQx@wBnKQ|@S~@YnAG\\]|A[xAKd@]`BCLGXUlAMn@Op@Op@iAvF]bBEXAFI^CNCHCNIV]~@Q`@Wj@INeBjDqAdCOZGLGHADWh@KPm@jAGLGJaB~CgBhDyAtCKTgBlDy@zAk@jAuAnCQZUj@Wd@_@t@MTKJg@bAIN]p@OZMTINCFQZS\\AFS`@INGP{AtCA@IRWh@GLMPCHo@lAMPKVIL?@?@INCFA@GJ?@A@ABEHCDA@a@t@i@fA{@`BKTUb@QMuB}AGGA?CAA?A@A??@A@EDu@xA_@p@SRQLIFKDODEBE?G@IB]DMBKBEBM@UD_@HIBC@IBQLIFIJKRQTsAlCKP?BABADINs@pAi@bAgArBa@t@aBnDQZgArBMTADABCFA@OVwAnCuAnCMT_@x@gAtB]p@{@bB?@KViBdDIRMTkA|BdAz@t@f@RNbBnAj@r@Lj@BvA?TBVGT?b@?bBB|A@n@?L?B?@?f@?B?Z?@?F@b@?B?DAX@l@@T?\\@nA?h@?h@A|A@V?\\?nA?f@@d@AJAL?HCJGTEREp@C`@ANAd@?@?h@?nA@tA?R@dB?F@v@?H?T?JBt@BTDRLp@D^Dn@?b@@tA?`@@x@?h@@d@?X@`AB|C?v@@n@@R?H?P@p@?~@@dA@h@?rA@F?^@rA@f@@|B?lA?p@@P?LB|D@`C@lB@P?@?F@\\?Z?dA@fA@vABjB@dA?`@?^@T?hB@p@@|B@^B|C@rA?R?V?r@_B@{ABk@@uA@yAAa@A{A?O?aC?Y?O?I?Y@[@A?G@E?G@UBMDMFOF}@^_A^QHSH]NQFC@MBEB[DWDW@Y@m@Em@GMCIACAOCEAMCe@QSISIUM_@Q[KGEWMCAUMCCAAWQ[UECSOYUOKGG[WSKSIYMKCKEqCm@c@E_ABq@@yB@O?k@Bc@BQJO@Q@MBWNB[y@?c@?[?o@?oA@qA@S?O@G?cA?{EDm@?{ABa@@C?eA?[?aB?YAmA@kA@S@C?O@g@?[?s@BG?C?U?M?E?s@A}@@}A@I?gJDI?sHD{@@eJDK?S?E?{@@m@@yEBO?_JFS?gIFW?M?yDB{C@Y?kFBsB@Q?aC@mB@iB@W?yB@c@@_E@S?cJHK?qHF]?O?O@iE?_EDK?{@?i@@cB?gBBs@@_@?Q??R?L@R?N?f@?h@@|@M?"}, "start_location": {"lat": 29.685718, "lng": -95.296499}, "transit_details": {"arrival_stop": {"location": {"lat": 29.804029, "lng": -95.398901}, "name": "W 20th St @ Yale St"}, "arrival_time": {"text": "5:46pm", "time_zone": "America/Chicago", "value": 1642031160}, "departure_stop": {"location": {"lat": 29.685718, "lng": -95.296499}, "name": "Telephone Rd @ Park Place Blvd"}, "departure_time": {"text": "4:41pm", "time_zone": "America/Chicago", "value": 1642027294}, "headsign": "N Shepherd P&R", "line": {"agencies": [{"name": "Metropolitan Transit Authority of Harris County", "phone": "1 (713) 635-4000", "url": "http://www.ridemetro.org/"}], "color": "#004080", "name": "Telephone / Heights", "short_name": "40", "text_color": "#ffffff", "url": "https://www.ridemetro.org/MetroPDFs/Schedules/BusSchedules/n040-Telephone-Heights.pdf", "vehicle": {"icon": "//maps.gstatic.com/mapfiles/transit/iw2/6/bus2.png", "name": "Bus", "type": "BUS"}}, "num_stops": 90, "trip_short_name": "TELEHEIGHT"}, "travel_mode": "TRANSIT"}, {"distance": {"text": "3.4 mi", "value": 5442}, "duration": {"text": "12 mins", "value": 725}, "end_location": {"lat": 29.80163, "lng": -95.454342}, "html_instructions": "Bus towards Memorial City", "polyline": {"points": "eb|tDbrgeQL??\\?d@?b@@n@?pA@|B?d@?`@@t@?T?pA@v@@rA?v@@bD@~@?nA@H?tB@^@dC?P?j@@x@?x@?t@@P?dA@|A?\\?^@dC@zB?xA?N@V?fA@`ABfE?tABtJ?pB@rA?r@?H?|@?jB?@?j@@h@AL?\\?J@f@?|B?h@?|@?n@?N?|G?J@tE?d@@dC?p@AL@J?V@P@H?B?D@F@HBH@JDPDLDLDHDJDJHLFHFHLL?@TVTVn@v@NRh@h@NPVX^f@BJBFBFf@v@P`@DZDVBT@F?D@F?H?P@P?X?N?F?j@@pAIpB@f@?V?fA?j@?V@h@AjA?h@@~@?b@@^Af@@d@?X?bA?jA?b@@nC?J?d@Aj@?v@?P@dB?jA?bC?`A?\\@dH?`D?dC@fE?jD?T@`F@vB?jD?vC?X?`E@V@zCAb@?fAAX@fB@fA?T@|B?l@A~A?x@?XAzB?`A?dB?l@?P?F?H@^?Z?@?H?@?Z?h@?f@?j@?^?t@@j@BnAAV@|@@fB?bBG?"}, "start_location": {"lat": 29.804029, "lng": -95.398901}, "transit_details": {"arrival_stop": {"location": {"lat": 29.80163, "lng": -95.454342}, "name": "W 18th St @ Northwest Fwy"}, "arrival_time": {"text": "6:03pm", "time_zone": "America/Chicago", "value": 1642032220}, "departure_stop": {"location": {"lat": 29.804029, "lng": -95.398901}, "name": "W 20th St @ Yale St"}, "departure_time": {"text": "5:51pm", "time_zone": "America/Chicago", "value": 1642031495}, "headsign": "Memorial City", "line": {"agencies": [{"name": "Metropolitan Transit Authority of Harris County", "phone": "1 (713) 635-4000", "url": "http://www.ridemetro.org/"}], "color": "#004080", "name": "Long Point / Cavalcade", "short_name": "26", "text_color": "#ffffff", "url": "https://www.ridemetro.org/MetroPDFs/Schedules/BusSchedules/n026-Long-Point-Cavalcade.pdf", "vehicle": {"icon": "//maps.gstatic.com/mapfiles/transit/iw2/6/bus2.png", "name": "Bus", "type": "BUS"}}, "num_stops": 18, "trip_short_name": "LONGPOINT"}, "travel_mode": "TRANSIT"}, {"distance": {"text": "322 ft", "value": 98}, "duration": {"text": "1 min", "value": 77}, "end_location": {"lat": 29.8019199, "lng": -95.45428179999999}, "html_instructions": "Walk to 4400 W 18th St, Houston, TX 77092, USA", "polyline": {"points": "es{tDrlreQ?z@YEc@E?G@Q@a@"}, "start_location": {"lat": 29.8016264, "lng": -95.454342}, "steps": [{"distance": {"text": "95 ft", "value": 29}, "duration": {"text": "1 min", "value": 22}, "end_location": {"lat": 29.8016252, "lng": -95.45463819999999}, "html_instructions": "Head <b>west</b> on <b>W 18th St</b>/<wbr/><b>NW Mall</b>", "polyline": {"points": "es{tDrlreQ?z@"}, "start_location": {"lat": 29.8016264, "lng": -95.454342}, "travel_mode": "WALKING"}, {"distance": {"text": "131 ft", "value": 40}, "duration": {"text": "1 min", "value": 33}, "end_location": {"lat": 29.8019405, "lng": -95.4545788}, "html_instructions": "Turn <b>right</b><div style=\"font-size:0.9em\">Restricted usage road</div>", "maneuver": "turn-right", "polyline": {"points": "es{tDnnreQYEc@E"}, "start_location": {"lat": 29.8016252, "lng": -95.45463819999999}, "travel_mode": "WALKING"}, {"distance": {"text": "95 ft", "value": 29}, "duration": {"text": "1 min", "value": 22}, "end_location": {"lat": 29.8019199, "lng": -95.45428179999999}, "html_instructions": "Turn <b>right</b><div style=\"font-size:0.9em\">Restricted usage road</div><div style=\"font-size:0.9em\">Destination will be on the left</div>", "maneuver": "turn-right", "polyline": {"points": "cu{tDbnreQ?G@Q@a@"}, "start_location": {"lat": 29.8019405, "lng": -95.4545788}, "travel_mode": "WALKING"}], "travel_mode": "WALKING"}], "traffic_speed_entry": [], "via_waypoint": []}], "overview_polyline": {"points": "uaetDrkkdQKGC_@@u@Du@FUdArBxAdCl@bAHKNOPOCCFHWTmBfBqAlAY\\ITyBrBiFxE_M~KeFxEcFtEkIpH}CpCe@b@X`@Zd@rBxCnC~DpDpFjMdR|NdT|DvFvClEZn@TbAOT?^A`@N^Xb@Vr@NhAFRAV?j@D|GNxUXxd@JbODdJGT@|A?|@?XG?@|@?t@QJeAr@GKJRk@d@sAr@eCvAaFlCeAh@}@`@c@HQDg@HkAHkDDy@@cD?wAFw@Fy@RaAVm@RmA`@e@kAQ_@c@a@kBo@sBm@uFaB}KuC_AYi@CkBE}@GoAUwBe@OGIR]hBwAbHoBnJqChNk@xC_AjEUx@K`@w@hAcBbCgBfC_EzFgAdBg@fAoAlDyAxEoBxGk@fCc@vCu@vHa@hEQ~AWCe@CU?mBBmG?sBGwCe@cBg@uAdBeAjAkAtAaHzHqH`Do@\\{CpAmKfEyOtGiL~EoMpFcMhFmOpGsEnBo@\\Y\\iB`Dk@z@_CdEG@OVg@nAWhBIdBQ~Ac@rB_@hBRFdCt@jA^pCz@bRrFv@Pn@ArAEx@CvADr@gDZ{AXA|@Vf@PSTnAHRT@LId@k@p@S@_@MeAs@U[CUBQHe@?WW@Kj@UFSGMYm@cAkAiAm@c@eBk@a@MqIiCqC{@kGmB}@WoAUe@Ay@Da@FsALcBB{@Gm@OuBq@iAjF_@rBEf@qDrQoDfQqCtMsD~QUhAg@vAi@lAqE|Ii@fAyJlRcKhSY`@q@rAeArBmDbHk@lAoAzBc@`AWd@mA~BgAvBUb@QM}BeBEAEB}ArCe@`@ULc@JaAPiATi@V_@f@qBxDaAjBqBvDcCdFiBjDWd@}J|RmCfFkA|BdAz@hAv@bBnAj@r@Lj@BvABl@GT?b@B`E@|@?l@@vA@zB?`G@lDAhAK`@KdAGxADrKFlBRdAJnABtEBjDHfLJdNJ~QRlZD|G?r@_B@gCDmHA{D?wAFc@H]NcDrAaA\\y@Nq@B{AM[GiA[}@a@{BgA{C}BmAg@}Cs@c@E_ABkDB{@Bc@BQJa@Be@RB[y@?_A?o@?eEDuIDgEDeF?sFHgG@ucAj@qZLe]RqWNqHDsA@Q??R@`@?v@@fBM?L??bA@rA@vGHdQFlNNnc@Fbc@BhX?bBBd@Hf@Vv@\\n@j@p@fE`FFRj@~@V|@Hl@B^@lA?r@@pAIpB@~@?rB?vD@jDBtL?jOFph@@~X@~E?dIAnK@vDFzL?bBG??z@}@K@Y@a@"}, "summary": "", "warnings": ["Walking directions are in beta. Use caution \u2013 This route may be missing sidewalks or pedestrian paths."], "waypoint_order": []}, {"bounds": {"northeast": {"lat": 29.8026444, "lng": -95.2536464}, "southwest": {"lat": 29.6849211, "lng": -95.4593211}}, "copyrights": "Map data \u00a92022", "legs": [{"arrival_time": {"text": "6:05pm", "time_zone": "America/Chicago", "value": 1642032335}, "departure_time": {"text": "4:18pm", "time_zone": "America/Chicago", "value": 1642025894}, "distance": {"text": "20.3 mi", "value": 32655}, "duration": {"text": "1 hour 47 mins", "value": 6441}, "end_address": "4400 W 18th St, Houston, TX 77092, USA", "end_location": {"lat": 29.8019199, "lng": -95.45428179999999}, "start_address": "8501 Howard Dr, Houston, TX 77017, USA", "start_location": {"lat": 29.6861869, "lng": -95.25449599999999}, "steps": [{"distance": {"text": "0.1 mi", "value": 206}, "duration": {"text": "3 mins", "value": 170}, "end_location": {"lat": 29.6849433, "lng": -95.2550218}, "html_instructions": "Walk to Galveston Rd @ Howard Dr", "polyline": {"points": "uaetDrkkdQA?CACAACCE?Y?U@_@BW@]FUdArBXd@~@~Al@bAHKBCJKPO"}, "start_location": {"lat": 29.6861869, "lng": -95.25449599999999}, "steps": [{"distance": {"text": "167 ft", "value": 51}, "duration": {"text": "1 min", "value": 37}, "end_location": {"lat": 29.685841, "lng": -95.25423029999999}, "html_instructions": "Head <b>southeast</b> on <b>Berrydale St</b> toward <b>Howard Dr</b>", "polyline": {"points": "uaetDrkkdQA?CACAACCE?Y?U@_@BW@]FUdArB"}, "start_location": {"lat": 29.6861869, "lng": -95.25449599999999}, "travel_mode": "WALKING"}, {"distance": {"text": "417 ft", "value": 127}, "duration": {"text": "2 mins", "value": 93}, "end_location": {"lat": 29.6851086, "lng": -95.255181}, "html_instructions": "Turn <b>right</b> onto <b>Howard Dr</b>", "maneuver": "turn-right", "polyline": {"points": "o_etD|ikdQXd@~@~Al@bAHK"}, "start_location": {"lat": 29.685841, "lng": -95.25423029999999}, "travel_mode": "WALKING"}, {"distance": {"text": "92 ft", "value": 28}, "duration": {"text": "1 min", "value": 40}, "end_location": {"lat": 29.6849433, "lng": -95.2550218}, "html_instructions": "Turn <b>left</b> onto <b>Galveston Rd</b>", "maneuver": "turn-left", "polyline": {"points": "}zdtDzokdQBCJKPO"}, "start_location": {"lat": 29.6851086, "lng": -95.255181}, "travel_mode": "WALKING"}], "travel_mode": "WALKING"}, {"distance": {"text": "5.4 mi", "value": 8654}, "duration": {"text": "20 mins", "value": 1228}, "end_location": {"lat": 29.696318, "lng": -95.33129500000001}, "html_instructions": "Bus towards Wheeler TC", "polyline": {"points": "_zdtDvnkdQFHWTMN_BvAQN_A|@Y\\IT_BzAYVa@^gExD}AvAaDtCgDzCWTYVuClCg@d@MLy@t@w@r@[XC@[XKJKJ]\\QLQNy@t@MLo@j@GFw@p@oBhBmAfAoAhAe@b@X`@JNNTf@r@jAdBpAjBh@x@JNFHJNzA|BDFbAzAFJf@r@DFRZtDnFHLxDvFFJhBfC|@nAd@t@DFl@|@V^JNvE`H\\f@lA`B|@tARVLPb@p@n@`At@fAPXHTPj@BVIJEH@NANAHAH@F?D@B@DBFFL@@BB?@FJ@@@@FH?@BBDRLZDTBPB^@@FRAV?^?J@zC@^?j@@t@@ZBdD@\\@dC?N@|A@xB@jC?RF`N@T?PHjI?v@?F@fA@zA?J?J?N?R@J?N?R?^@~@@jA?N@d@@~@@pB@nB@\\?nBB|A?xBENAD@\\?~@?l@?N?X?|@?z@@b@CbAAn@At@Av@?\\?l@@jB?h@AhE?rD?V@vE?p@AvB?J@H@hH?R?pC?^?|@?`@?`@?N?NAZCZAPCTI^Sr@IVA@CFGNOR[b@eAtA]f@}A|BqAfBOTSXyArBcB`CmBlCiBhCkA`BKN{AvBsAnBMPCDCBS`@EFADA@CDGLELEHCJCDAFABKZGTADADI^{@bEYvAQv@m@tCq@`DMl@SbAGZI\\m@xCGTKd@a@jBQx@Mf@Qz@[zAQv@ADYvAMn@Id@YxAOr@CLMh@c@vBWlAa@lBQfAYjAMr@ERWvACPCDGXS|@GXAFEVG\\Mp@CNEREVYvAABMj@Kf@Mf@Ml@ENAHCD_@rA_@|ACJIA"}, "start_location": {"lat": 29.684959, "lng": -95.254999}, "transit_details": {"arrival_stop": {"location": {"lat": 29.696318, "lng": -95.33129500000001}, "name": "Griggs Rd @ Beekman Rd"}, "arrival_time": {"text": "4:41pm", "time_zone": "America/Chicago", "value": 1642027292}, "departure_stop": {"location": {"lat": 29.684959, "lng": -95.254999}, "name": "Galveston Rd @ Howard Dr"}, "departure_time": {"text": "4:21pm", "time_zone": "America/Chicago", "value": 1642026064}, "headsign": "Wheeler TC", "line": {"agencies": [{"name": "Metropolitan Transit Authority of Harris County", "phone": "1 (713) 635-4000", "url": "http://www.ridemetro.org/"}], "color": "#004080", "name": "Southmore", "short_name": "5", "text_color": "#ffffff", "url": "https://www.ridemetro.org/MetroPDFs/Schedules/BusSchedules/n005-Southmore.pdf", "vehicle": {"icon": "//maps.gstatic.com/mapfiles/transit/iw2/6/bus2.png", "name": "Bus", "type": "BUS"}}, "num_stops": 28, "trip_short_name": "SOUTHMORE"}, "travel_mode": "TRANSIT"}, {"distance": {"text": "322 ft", "value": 98}, "duration": {"text": "1 min", "value": 74}, "end_location": {"lat": 29.6965907, "lng": -95.3322577}, "html_instructions": "Walk to Palm Center Transit Center", "polyline": {"points": "{`gtDrkzdQQx@GXUdAId@"}, "start_location": {"lat": 29.6963042, "lng": -95.3313005}, "steps": [{"distance": {"text": "322 ft", "value": 98}, "duration": {"text": "1 min", "value": 74}, "end_location": {"lat": 29.6965907, "lng": -95.3322577}, "html_instructions": "Head <b>west</b> on <b>Griggs Rd</b> toward <b>Beekman Rd</b><div style=\"font-size:0.9em\">Destination will be on the left</div>", "polyline": {"points": "{`gtDrkzdQQx@GXUdAId@"}, "start_location": {"lat": 29.6963042, "lng": -95.3313005}, "travel_mode": "WALKING"}], "travel_mode": "WALKING"}, {"distance": {"text": "6.0 mi", "value": 9678}, "duration": {"text": "28 mins", "value": 1680}, "end_location": {"lat": 29.760969, "lng": -95.36625699999999}, "html_instructions": "Light rail towards Theater District WB", "polyline": {"points": "ebgtDxqzdQA?_@fBENERCRERCVGVEZGXUjAGZAJANEVe@xBOp@U`ACLEJEJGLCDGHGJIJKHGFMHKFMFIDMBKBIBG@M?O@K?K?G?KAMAIAKEKCm@Qm@QGCgBi@i@QKCo@S}@Us@Si@Qm@SUGo@SMCe@OMEYIGAWK_@Ko@S_@Km@Q]KeA[e@MOEKEKCOCOCOCQAM?M?M?M@M@M@E@I?KBMDMDu@VkBv@gAb@i@TeAf@g@TYLuAj@EBa@NA@MDcAb@sBx@]LkAf@sAh@e@Pi@TaBp@UHWHWFOFUDk@LI@i@LoAXk@J{@ROBKDMBOFMFMFMDKFOHMHIHEBOLMJSTUTGFs@t@YXYZg@f@MNIHKJMHKHIDA@SHeA^GBIBIDGDGBEDGFIHGHEFEJCFEJCHCF]`BERa@pB_@jBa@pBw@vDw@zDWjAa@pB]`BEPCLELELCLELGLCHCF{@pBEHEJCHEHCHCHCJCFCJCLCLUbAETETg@|BWnAc@xBKd@_@dBw@zDELCJEJGJEFEDGFIFIDIBIBI@I@I?G?I?GAKCKCMEa@Mm@]QIUKYIsDgA}Ae@UISKIEMIIEMI_AWUGOEOEm@My@OgAUy@Q[GyAa@c@IWEYEu@KOCQA_@CUAU?W?I?m@?_@?S?M?M?_@Ce@CI?MAM?q@Ai@?aAAiA?OAO?MAOCOAMCKEOEKEg@Sq@[QGQGOEOEy@Se@KQEOEg@O{@Wy@WgA[kA]g@OqAa@iBi@}Ae@]KmBk@EAa@Ka@Ma@Ka@Ma@Ms@SOE_A[mAc@wAg@yAe@aA[YIuAa@gBi@s@Sk@QWGsAa@YIQEQEOCSCWESAuCQOAc@CMAO?Q?M@O@G@OBKDIBMFEBEBGDGBEDGDEFGFGFEJEHA@GHsAfCEJGJGHKJIHIFOHKFOFMBMBMBO@O?IAC?MAOCQEUIGCYK]OUIOGMEQEMCQEOCC?KAUCUAO?Q?S@Q@_@B[Bu@FUBI@a@B_AH_AHuALU@WBI@E@C?KBM@IBI@MDmAZk@NMHQHIBIDQDc@JSFMDMFIDIFIDIJIFQLIHKFKDMHMJIFIJKLA@INk@fAaAlBg@~@S^MTc@z@oAbCMRi@dAw@zACDCDCFq@pAYj@OVCHOVGLGNWl@GNINGPKPKRGPGNKNIJg@`AS`@S`@S^GNENAL?L@LBNFLFJf@n@FHFJDJBN@H?HCXGVOZYl@c@|@GLIN{@xACHQZoAdCa@v@aAlBEJeBdDS`@sAhC[l@_AnBGJ{@`Bm@lAMVg@`Ac@v@GNEHEHABc@v@a@x@_@r@cB|CEHsAjCQ\\u@zADD"}, "start_location": {"lat": 29.696507, "lng": -95.332291}, "transit_details": {"arrival_stop": {"location": {"lat": 29.760969, "lng": -95.36625699999999}, "name": "Theater District"}, "arrival_time": {"text": "5:18pm", "time_zone": "America/Chicago", "value": 1642029480}, "departure_stop": {"location": {"lat": 29.696507, "lng": -95.332291}, "name": "Palm Center Transit Center"}, "departure_time": {"text": "4:50pm", "time_zone": "America/Chicago", "value": 1642027800}, "headsign": "Theater District WB", "line": {"agencies": [{"name": "Metropolitan Transit Authority of Harris County", "phone": "1 (713) 635-4000", "url": "http://www.ridemetro.org/"}], "color": "#79466a", "name": "Metrorail Purple Line", "short_name": "Purple", "text_color": "#ffffff", "url": "https://www.ridemetro.org/Pages/PurpleLine.aspx", "vehicle": {"icon": "//maps.gstatic.com/mapfiles/transit/iw2/6/tram2.png", "name": "Light rail", "type": "TRAM"}}, "num_stops": 9}, "travel_mode": "TRANSIT"}, {"distance": {"text": "230 ft", "value": 70}, "duration": {"text": "1 min", "value": 63}, "end_location": {"lat": 29.7606014, "lng": -95.3658147}, "html_instructions": "Walk to Louisiana St @ Capitol St", "polyline": {"points": "gustD|eaeQb@}@NUFMRL"}, "start_location": {"lat": 29.7609995, "lng": -95.36623089999999}, "steps": [{"distance": {"text": "177 ft", "value": 54}, "duration": {"text": "1 min", "value": 41}, "end_location": {"lat": 29.7607388, "lng": -95.3658063}, "html_instructions": "Head <b>southeast</b> on <b>Capitol St</b> toward <b>Louisiana St</b>", "polyline": {"points": "gustD|eaeQb@}@NU"}, "start_location": {"lat": 29.7609995, "lng": -95.36623089999999}, "travel_mode": "WALKING"}, {"distance": {"text": "52 ft", "value": 16}, "duration": {"text": "1 min", "value": 22}, "end_location": {"lat": 29.7606014, "lng": -95.3658147}, "html_instructions": "Turn <b>right</b> onto <b>Louisiana St</b>", "maneuver": "turn-right", "polyline": {"points": "ssstDhcaeQFMRL"}, "start_location": {"lat": 29.7607388, "lng": -95.3658063}, "travel_mode": "WALKING"}], "travel_mode": "WALKING"}, {"distance": {"text": "8.2 mi", "value": 13211}, "duration": {"text": "32 mins", "value": 1896}, "end_location": {"lat": 29.801027, "lng": -95.45922999999999}, "html_instructions": "Bus towards SH 249", "polyline": {"points": "srstD`caeQILQMCCi@_@QMUQkA{@aCiB[UqCqBAAqCqBa@v@k@dAINIJGHA@A@GJGDC@C@C@E?M?C?Q?M?ICIEAAEGC\\SdBGd@E^O`A?BM|@M|@EZOjAALGX?@?@CJALGl@?@A@?BAHAJAHShAETCJEPCHCLGVWdAKXQh@O`@GTGLS^IPS\\AB}@~AGFADABMv@EV?@OfAOnAEXAPGd@Gn@?XGrACb@Cr@Ev@ALEp@AVEv@ALGrAEt@G~@?BGdAATGlACj@ItACb@AT?TAFG`AATCb@GzAGtAMfCANGfA?DKtBAHMfCEbAANALCr@AVAr@Al@?d@CrAAx@Cx@?NCzBAJAz@Cv@GnAQvCEz@EbAM~B?HAp@C|@GjCCj@MtFGHAB?BALCb@Af@?R?TA`@A`@ARGt@AVGp@AXGz@KtBCZ?B?@@D?B@D@FGlACd@A`@GtACZA\\KfBG|@Ez@C`@C\\A`@El@El@Cb@CZCf@Cd@AREp@APIzACXANATALANAHC\\AZATC\\A`@IbBEp@ALCp@GfAG~@G~@Cj@AXCVAL?BCd@AL?NCl@Cd@El@Ab@Ev@ANMxCCXAXAXQtCCl@?z@@dA?|A@d@?~B@d@?N?zA?P?N@d@?b@?X?\\?^?X?N?j@?b@@`@?t@@j@?j@?N@`@?z@@dC?V@h@?RARAr@AJ?NAP?RCZAV?FCxA?XExACpAClACnAAj@CvAC|@?NA`@Ab@GxAAVIhAI|BEf@KnDEv@Cv@EpAGlACz@?DA`@APCvAAPCDABCHC`AAPAF@JC@A@A@A@A@A@?@CBc@FKDG@C?IBC@C@C@C@A@EBMLwAlAc@\\sAhA_Av@MJa@^sBbB_Av@QLq@h@IHKHOLw@p@w@n@]Z_@ZSPGFIFaAz@EBe@b@QRUVY\\q@~@s@`AOPGF?@o@v@?@CB}@hAQPKNYd@c@|@ILg@bAU`@IPA@S`@g@bAw@zAq@rA}AxCkA|Bc@v@IPYh@Uf@IP?`@?DCHI\\I`@I`@CVATARA^?\\Ar@?^@`@@@?b@?@@^@hB?f@?XCjA?D?XCXCZEVId@Ot@Ot@GVUfAAD{@`E?@Mj@?@K^[|AMn@Sx@On@I`@I^[xAGZMn@Mh@Kf@Qx@Qr@_@rBg@`DKl@Gd@CXMdA?BALGj@CXCVCXE`@IfAMzBE|AAr@AXC?Ar@CbDAjCCpF@l@@v@AzG~@@X?V?Z^?r@Ap@?bAAtA?R?d@?XEAw@B?u@@S?_@AcA@cA@w@@k@ZA^@DA`AAN??H?P?f@?j@?l@?d@JCF@D?DABA@CDIDSB[@g@BUBM@AN]FGJY@K?MCUCKCCA?OGQAGAE?E@GDQJOPMD[BY@W?aAAY@c@?AVAzAAb@?f@?L?ZAn@?`B?R?f@sBNO@Q@Y?W?K@wA@y@@K?u@?wA@U?O?}@@I?Y?_@?_@@oA@oD@eABM?A?a@?c@?qA@W?w@?cA@s@?c@@_@?uA@a@?OAY?q@@c@?_@?[@cA@a@?U?G?C?E?]@S?S@]@c@?}@@M?w@@]?mA@_B@W?E?e@Aa@EQEWG[OUM[QIG_@Ui@i@e@_@OQQQOMCCc@a@MR{A|BU\\W`@sBtCg@z@a@L{@vA]b@Sd@w@lAYh@OQ"}, "start_location": {"lat": 29.760582, "lng": -95.365768}, "transit_details": {"arrival_stop": {"location": {"lat": 29.801027, "lng": -95.45922999999999}, "name": "Hempstead Rd @ W 18th St"}, "arrival_time": {"text": "5:55pm", "time_zone": "America/Chicago", "value": 1642031748}, "departure_stop": {"location": {"lat": 29.760582, "lng": -95.365768}, "name": "Louisiana St @ Capitol St"}, "departure_time": {"text": "5:24pm", "time_zone": "America/Chicago", "value": 1642029852}, "headsign": "SH 249", "line": {"agencies": [{"name": "Metropolitan Transit Authority of Harris County", "phone": "1 (713) 635-4000", "url": "http://www.ridemetro.org/"}], "color": "#004080", "name": "Antoine / Washington", "short_name": "85", "text_color": "#ffffff", "url": "https://www.ridemetro.org/MetroPDFs/Schedules/BusSchedules/n085-Antoine-Washington.pdf", "vehicle": {"icon": "//maps.gstatic.com/mapfiles/transit/iw2/6/bus2.png", "name": "Bus", "type": "BUS"}}, "num_stops": 44, "trip_short_name": "ANTOINWAS"}, "travel_mode": "TRANSIT"}, {"distance": {"text": "0.5 mi", "value": 738}, "duration": {"text": "10 mins", "value": 587}, "end_location": {"lat": 29.8019199, "lng": -95.45428179999999}, "html_instructions": "Walk to 4400 W 18th St, Houston, TX 77092, USA", "polyline": {"points": "mo{tDdkseQKPKKKAK?I@IB?Q?aA?M?QAO?OM?M@M?mED@[Ae@?g@ASDKP]d@}@Xq@B]QOIIOMEKKAQUGGEIAE?C?A@C@EBEV_@KMNWHMJSRa@Ts@R}@Jy@Hy@?G@Q@a@"}, "start_location": {"lat": 29.8010254, "lng": -95.4592253}, "steps": [{"distance": {"text": "49 ft", "value": 15}, "duration": {"text": "1 min", "value": 11}, "end_location": {"lat": 29.8011512, "lng": -95.4592626}, "html_instructions": "Head <b>northwest</b>", "polyline": {"points": "mo{tDdkseQKPKK"}, "start_location": {"lat": 29.8010254, "lng": -95.4592253}, "travel_mode": "WALKING"}, {"distance": {"text": "102 ft", "value": 31}, "duration": {"text": "1 min", "value": 23}, "end_location": {"lat": 29.8013705, "lng": -95.4592806}, "html_instructions": "Turn <b>right</b> toward <b>W 18th St</b>", "maneuver": "turn-right", "polyline": {"points": "ep{tDjkseQKAK?I@IB"}, "start_location": {"lat": 29.8011512, "lng": -95.4592626}, "travel_mode": "WALKING"}, {"distance": {"text": "240 ft", "value": 73}, "duration": {"text": "1 min", "value": 61}, "end_location": {"lat": 29.8014508, "lng": -95.4585436}, "html_instructions": "Turn <b>right</b> onto <b>W 18th St</b>", "maneuver": "turn-right", "polyline": {"points": "qq{tDnkseQ?Q?aA?M?QAO?OM?"}, "start_location": {"lat": 29.8013705, "lng": -95.4592806}, "travel_mode": "WALKING"}, {"distance": {"text": "440 ft", "value": 134}, "duration": {"text": "2 mins", "value": 127}, "end_location": {"lat": 29.80261729999999, "lng": -95.45858140000001}, "html_instructions": "Turn <b>left</b> onto <b>Mangum Rd</b>", "maneuver": "turn-left", "polyline": {"points": "ar{tDzfseQM@M?mED"}, "start_location": {"lat": 29.8014508, "lng": -95.4585436}, "travel_mode": "WALKING"}, {"distance": {"text": "0.1 mi", "value": 168}, "duration": {"text": "2 mins", "value": 133}, "end_location": {"lat": 29.8021725, "lng": -95.45703209999999}, "html_instructions": "Turn <b>right</b>", "maneuver": "turn-right", "polyline": {"points": "ky{tDbgseQ@[Ae@?g@ASDKP]d@}@Xq@B]"}, "start_location": {"lat": 29.80261729999999, "lng": -95.45858140000001}, "travel_mode": "WALKING"}, {"distance": {"text": "348 ft", "value": 106}, "duration": {"text": "1 min", "value": 80}, "end_location": {"lat": 29.8024852, "lng": -95.4562641}, "html_instructions": "Turn <b>left</b><div style=\"font-size:0.9em\">Partial restricted usage road</div>", "maneuver": "turn-left", "polyline": {"points": "qv{tDl}reQQOIIOMEKKAQUGGEIAE?C?A@C@EBEV_@"}, "start_location": {"lat": 29.8021725, "lng": -95.45703209999999}, "travel_mode": "WALKING"}, {"distance": {"text": "33 ft", "value": 10}, "duration": {"text": "1 min", "value": 8}, "end_location": {"lat": 29.8025494, "lng": -95.456192}, "html_instructions": "Turn <b>left</b><div style=\"font-size:0.9em\">Restricted usage road</div>", "maneuver": "turn-left", "polyline": {"points": "qx{tDrxreQKM"}, "start_location": {"lat": 29.8024852, "lng": -95.4562641}, "travel_mode": "WALKING"}, {"distance": {"text": "0.1 mi", "value": 201}, "duration": {"text": "2 mins", "value": 144}, "end_location": {"lat": 29.8019199, "lng": -95.45428179999999}, "html_instructions": "Turn <b>right</b><div style=\"font-size:0.9em\">Restricted usage road</div><div style=\"font-size:0.9em\">Destination will be on the left</div>", "maneuver": "turn-right", "polyline": {"points": "}x{tDdxreQNWHMJSRa@Ts@R}@Jy@Hy@?G@Q@a@"}, "start_location": {"lat": 29.8025494, "lng": -95.456192}, "travel_mode": "WALKING"}], "travel_mode": "WALKING"}], "traffic_speed_entry": [], "via_waypoint": []}], "overview_polyline": {"points": "uaetDrkkdQKGC_@@u@Du@FUdArBxAdCl@bAHKNOLSFHWTmBfBqAlAc@r@cJlIeTxRcFtEkIpH}CpCe@b@X`@Zd@rBxCnC~DpDpFjMdRrYjb@Zn@TbAOT?^A`@N^Xb@Vr@NhAFRAV?j@D|GNxUXxd@JbODdJGT@|A?tCCrEClU@|a@IbAi@lBw@nAsGbJqOnTaE~F_@r@c@fAyB|JsEtTuCxMeH`^oCdNkBrHEAYrA_@jBLDo@~CW~AeB`Je@fB[h@]\\q@^k@Lu@@k@EsBm@qJsCwEuA_I_Cw@S_AIuAF}Af@cHxCsGnCyN|FuA^oDv@cCh@y@Zw@`@m@f@oEvEo@h@eBp@c@R_@ZWd@k@~BsGt[m@nCWv@}AvDs@~CsErTWj@a@Zg@Jc@AgA[_Ag@o@U{HcCo@_@uBk@iFeAqDy@qBWcBEkB?yDKeEC}@Gu@U}B_AeG_BmP_FqIcCuFmBkGmBqJoCoAOwEY_ABm@N}@l@[d@cB~Ce@j@u@`@y@Lk@C_AW}Am@_AUu@IkA?cCPeIp@oATyBj@_@RiAZy@Zg@`@s@d@o@h@cAfBkCbFoFhK_B~Cw@bBmAhCyApC[n@G\\@ZJ\\~@pAJn@Kp@i@hAqBtDgCbFyJtRoO`Zu@zADDEEb@}@NUFMRLBGILUQ}C{BqHsFqCqBa@v@u@tAUXWT[@_@?SIGIWbC]jC{@lGOlAEb@c@|Bg@tBu@zBcCnE}@xGOnBUbFg@fJsA|Xm@xLIlCG`FIpE_@zIYhGQfHMtFGHAFGlBElBSxCWpEBPK|CYvFg@zIc@vH}@zP_AzRYbFChB@bDBzE@bD?tFFbL?hBE`BSnJUtLy@`S[~JEHGjAEf@GFABg@Ja@JOFsHlG_ItGuGvFsArAoCpDkCbD}CzF}JvRo@pAIP?`@CNS~@QbBCpCFtGGdCc@nCyBlKiCrLo@|Cc@lBgAtGe@rDMvAWzCWfHEr@EnHArRxA@V?Z^AdBAxC?x@?XEAw@B?u@@s@BkFbCCN??H?x@?xA?d@JCL@HCFMHo@JmAVe@Le@Cc@GOk@Ke@R]Vu@DwC?E~DAzD?z@cCPoABsEB_HDmNHeTHwOL_BMs@Wq@_@i@]oAiAu@u@c@a@MRqBzCkCvDg@z@a@LyAzBkArBYh@OQKPWMU@IB?Q?oAAa@?OM?[@mED@[AmAB_@v@{AXq@B][YUYKAQUMQ?ODKV_@KMXe@^u@Ts@^wBLuB"}, "summary": "", "warnings": ["Walking directions are in beta. Use caution \u2013 This route may be missing sidewalks or pedestrian paths."], "waypoint_order": []}, {"bounds": {"northeast": {"lat": 29.80413, "lng": -95.2536464}, "southwest": {"lat": 29.6849211, "lng": -95.45463819999999}}, "copyrights": "Map data \u00a92022", "legs": [{"arrival_time": {"text": "6:19pm", "time_zone": "America/Chicago", "value": 1642033197}, "departure_time": {"text": "4:18pm", "time_zone": "America/Chicago", "value": 1642025894}, "distance": {"text": "24.5 mi", "value": 39496}, "duration": {"text": "2 hours 2 mins", "value": 7303}, "end_address": "4400 W 18th St, Houston, TX 77092, USA", "end_location": {"lat": 29.8019199, "lng": -95.45428179999999}, "start_address": "8501 Howard Dr, Houston, TX 77017, USA", "start_location": {"lat": 29.6861869, "lng": -95.25449599999999}, "steps": [{"distance": {"text": "0.1 mi", "value": 206}, "duration": {"text": "3 mins", "value": 170}, "end_location": {"lat": 29.6849433, "lng": -95.2550218}, "html_instructions": "Walk to Galveston Rd @ Howard Dr", "polyline": {"points": "uaetDrkkdQA?CACAACCE?Y?U@_@BW@]FUdArBXd@~@~Al@bAHKBCJKPO"}, "start_location": {"lat": 29.6861869, "lng": -95.25449599999999}, "steps": [{"distance": {"text": "167 ft", "value": 51}, "duration": {"text": "1 min", "value": 37}, "end_location": {"lat": 29.685841, "lng": -95.25423029999999}, "html_instructions": "Head <b>southeast</b> on <b>Berrydale St</b> toward <b>Howard Dr</b>", "polyline": {"points": "uaetDrkkdQA?CACAACCE?Y?U@_@BW@]FUdArB"}, "start_location": {"lat": 29.6861869, "lng": -95.25449599999999}, "travel_mode": "WALKING"}, {"distance": {"text": "417 ft", "value": 127}, "duration": {"text": "2 mins", "value": 93}, "end_location": {"lat": 29.6851086, "lng": -95.255181}, "html_instructions": "Turn <b>right</b> onto <b>Howard Dr</b>", "maneuver": "turn-right", "polyline": {"points": "o_etD|ikdQXd@~@~Al@bAHK"}, "start_location": {"lat": 29.685841, "lng": -95.25423029999999}, "travel_mode": "WALKING"}, {"distance": {"text": "92 ft", "value": 28}, "duration": {"text": "1 min", "value": 40}, "end_location": {"lat": 29.6849433, "lng": -95.2550218}, "html_instructions": "Turn <b>left</b> onto <b>Galveston Rd</b>", "maneuver": "turn-left", "polyline": {"points": "}zdtDzokdQBCJKPO"}, "start_location": {"lat": 29.6851086, "lng": -95.255181}, "travel_mode": "WALKING"}], "travel_mode": "WALKING"}, {"distance": {"text": "7.3 mi", "value": 11802}, "duration": {"text": "28 mins", "value": 1676}, "end_location": {"lat": 29.701392, "lng": -95.357179}, "html_instructions": "Bus towards Wheeler TC", "polyline": {"points": "_zdtDvnkdQFHWTMN_BvAQN_A|@Y\\IT_BzAYVa@^gExD}AvAaDtCgDzCWTYVuClCg@d@MLy@t@w@r@[XC@[XKJKJ]\\QLQNy@t@MLo@j@GFw@p@oBhBmAfAoAhAe@b@X`@JNNTf@r@jAdBpAjBh@x@JNFHJNzA|BDFbAzAFJf@r@DFRZtDnFHLxDvFFJhBfC|@nAd@t@DFl@|@V^JNvE`H\\f@lA`B|@tARVLPb@p@n@`At@fAPXHTPj@BVIJEH@NANAHAH@F?D@B@DBFFL@@BB?@FJ@@@@FH?@BBDRLZDTBPB^@@FRAV?^?J@zC@^?j@@t@@ZBdD@\\@dC?N@|A@xB@jC?RF`N@T?PHjI?v@?F@fA@zA?J?J?N?R@J?N?R?^@~@@jA?N@d@@~@@pB@nB@\\?nBB|A?xBENAD@\\?~@?l@?N?X?|@?z@@b@CbAAn@At@Av@?\\?l@@jB?h@AhE?rD?V@vE?p@AvB?J@H@hH?R?pC?^?|@?`@?`@?N?NAZCZAPCTI^Sr@IVA@CFGNOR[b@eAtA]f@}A|BqAfBOTSXyArBcB`CmBlCiBhCkA`BKN{AvBsAnBMPCDCBS`@EFADA@CDGLELEHCJCDAFABKZGTADADI^{@bEYvAQv@m@tCq@`DMl@SbAGZI\\m@xCGTKd@a@jBQx@Mf@Qz@[zAQv@ADYvAMn@Id@YxAOr@CLMh@c@vBWlAa@lBQfAYjAMr@ERWvACPCDGXS|@GXAFEVG\\Mp@CNEREVYvAABMj@Kf@Mf@Ml@ENAHCD_@rA_@|ACJQz@EVUfAWjAKj@GRUfAUjAS~@G\\Mh@Ot@[bBYpAEPU`AGXGXSv@K`@GZI\\g@zBSx@Qv@Mf@Sx@EPEPGVIXEPM^CHM`@K\\]`AM`@]nAQv@Op@I\\UhAe@|BEPm@pC]zAo@~CGRMl@Or@UpAMl@ERGXMf@Kj@Mf@GXKd@CJI^CLS~@S~@Q|@Q~@Kb@I^GTI\\Kh@U`Ag@dCERm@tCa@|BI\\Kl@?J@HCJG\\A@AF?@ENET?DA@G\\PtAJbA?FFnAFbAF`A@J@B@DFL@p@FjD@f@@h@@\\B`ABjA@d@DbBBhATHh@Nh@NbAX@?Fg@Jy@OGGCIGEGAKAIBK@CDU@Kl@{CDM@IBGBADCDCD?F@FBDBBD@B@F?B@DABc@rB[K"}, "start_location": {"lat": 29.684959, "lng": -95.254999}, "transit_details": {"arrival_stop": {"location": {"lat": 29.701392, "lng": -95.357179}, "name": "Southeast Transit Center"}, "arrival_time": {"text": "4:49pm", "time_zone": "America/Chicago", "value": 1642027740}, "departure_stop": {"location": {"lat": 29.684959, "lng": -95.254999}, "name": "Galveston Rd @ Howard Dr"}, "departure_time": {"text": "4:21pm", "time_zone": "America/Chicago", "value": 1642026064}, "headsign": "Wheeler TC", "line": {"agencies": [{"name": "Metropolitan Transit Authority of Harris County", "phone": "1 (713) 635-4000", "url": "http://www.ridemetro.org/"}], "color": "#004080", "name": "Southmore", "short_name": "5", "text_color": "#ffffff", "url": "https://www.ridemetro.org/MetroPDFs/Schedules/BusSchedules/n005-Southmore.pdf", "vehicle": {"icon": "//maps.gstatic.com/mapfiles/transit/iw2/6/bus2.png", "name": "Bus", "type": "BUS"}}, "num_stops": 37, "trip_short_name": "SOUTHMORE"}, "travel_mode": "TRANSIT"}, {"distance": {"text": "9.3 mi", "value": 14959}, "duration": {"text": "40 mins", "value": 2381}, "end_location": {"lat": 29.800744, "lng": -95.32811699999999}, "html_instructions": "Bus towards Northline TC", "polyline": {"points": "u`htDjm_eQYIX}ADM@IBGBADCDCD?F@FBDBBD@B@F?B@DABoA~FKx@Gf@A?cAYi@Oi@OCyDEkAA]EgBAS?UKmECiAE_ACq@I}AM}AMiAAKCQAE?CCi@AKAGESSoAi@eCCMU_AEOU}@Ie@Y_Aq@{BSs@I]e@}A_@sAUy@g@kBy@uCOe@aAeDo@}BOe@EQ]kA[aA[K_AYyBq@m@QqAa@mA_@sAa@QGa@MOEICu@Uw@WUG}@YEAOEo@SICICICEAGAQCa@Co@KA?sAMUCeAMaBMc@COASACNMdAG\\AHADKbAKx@YlCEZCTCZC^Cf@?Z?J@Z@b@Dj@DX@PT|@Nj@Nb@DHHNFL@@h@~@x@hA`@n@HLZl@FJDJHRHVLXDNDPFZ@BLp@@H@JFVJn@^|BXdBDNHh@cA[{Ac@yBs@wCaA}@Wm@QQCYG[E[CYCo@AS?E@M?_@B[BE@S@QBi@HC?MBQ@]@[@Y?S?SAUAKAKAOCOCOCOEi@Mi@QQGa@KYKEAmA]_AWYMGAQGSGEA}@WcDaAi@OCAYI_@Mw@UME]KYIwBo@c@Mm@QgA[]KyBq@GCWIOGMCaBg@qAe@UIOGSKk@[]SQKIGc@]w@m@GEQOMMMMIKe@Yo@e@]Si@YOIgAe@]MGRK`@I`@Ot@S~@[vAQ|@GRG\\Ij@CVC\\A`@ANAf@?f@@P?P@VBRB^N|AJjAH`A@F?N?nAK|AQ?_A?qA?s@C]AUAUAYESGSGe@SSI[MQISIUGQGQCOE_@Ic@MUGSE[M]M_@M_@Mg@Ok@Qg@Ok@QkA]YIcBg@cA[KEi@Om@QUISGOE[O[MICCACAA?_@OA?A?QG?AA?MECAA?KEMEEA?AA?KEGCGAOGMAMAOCSAMAMCMAMESGy@YyAg@{@Ya@Oa@Qg@SYKUIe@MoA_@[KgBg@_@Kq@Sk@Q]IWEIAEAWC[AcBK]C_@A_@CSASGWIMISMECOMeAw@kA{@{BcBYS]W{@o@EEECa@[ECEEUO_CaB_@Yy@o@KGOMSOGG}CwBgA{@e@]IGSMEEKGGEw@m@IGgAw@_CcBUOwBaB]W{BcBOKQMoCsB}AiAYSyBaBe@[yAgAwB}AoA}@e@]]WSOWUa@o@OYGMEIEOGUIUE[GYE]Gc@EWKI?AEUCGAEACCCECCCGMP_@@CEYEWMa@Qe@S_@W_@QSIKYSo@g@_@U]Wu@k@m@a@ECwAgAm@c@UOc@[}@k@w@m@SOKI[W]WMKMKGGQMCCSQEG[YIIe@a@IGc@]]UOKi@Y_A]CC_AYgAS{@Ma@GA?oAEeAAgA@c@@oDBQ?aBBg@?m@?gA?W?U?UAKAG?AAYAm@GuAU_@IOCsAc@g@Q}Ak@mAYw@KyBUOAkDAiAAg@As@AkABU?i@?Q?y@?A?e@?G?c@?OAO?aA?wABQ?_@?]?WAI?W?u@?]?aB@_AA_@?sBHY@qCPmBFY?uA?K@i@?kC?sABY@Q@e@Bi@Fm@FYFkBb@a@HK@WDQBQ@M@Y@m@DS@c@@M@S@U@U@U?A?a@@G?[?c@@}@?c@?c@@gA?c@@c@?kB@qAJYBsDJwABG?G?u@?{@@cCBE?k@?]@m@?uBB}@@k@@a@@O@y@DSBG@k@Da@FS@o@DW@S@]@c@?iA@c@?g@?Q?cD?uADu@?W?eD?sA@c@?q@?[@]Da@BWDWDw@Rk@L_@Hu@LI@M@e@@w@@cA@cA?oA@_@@mA??K"}, "start_location": {"lat": 29.701392, "lng": -95.357179}, "transit_details": {"arrival_stop": {"location": {"lat": 29.800744, "lng": -95.32811699999999}, "name": "Hirsch Rd @ Cavalcade St"}, "arrival_time": {"text": "5:35pm", "time_zone": "America/Chicago", "value": 1642030541}, "departure_stop": {"location": {"lat": 29.701392, "lng": -95.357179}, "name": "Southeast Transit Center"}, "departure_time": {"text": "4:56pm", "time_zone": "America/Chicago", "value": 1642028160}, "headsign": "Northline TC", "line": {"agencies": [{"name": "Metropolitan Transit Authority of Harris County", "phone": "1 (713) 635-4000", "url": "http://www.ridemetro.org/"}], "color": "#004080", "name": "Cullen / Hirsch", "short_name": "29", "text_color": "#ffffff", "url": "https://www.ridemetro.org/MetroPDFs/Schedules/BusSchedules/n029-Cullen-Hirsch.pdf", "vehicle": {"icon": "//maps.gstatic.com/mapfiles/transit/iw2/6/bus2.png", "name": "Bus", "type": "BUS"}}, "num_stops": 51, "trip_short_name": "CULLENHIRS"}, "travel_mode": "TRANSIT"}, {"distance": {"text": "292 ft", "value": 89}, "duration": {"text": "1 min", "value": 85}, "end_location": {"lat": 29.8005867, "lng": -95.32834079999999}, "html_instructions": "Walk to Hirsch Rd @ Cavalcade St", "polyline": {"points": "sm{tDzwydQfA??N?F@Nk@?"}, "start_location": {"lat": 29.8007437, "lng": -95.32814309999999}, "steps": [{"distance": {"text": "144 ft", "value": 44}, "duration": {"text": "1 min", "value": 32}, "end_location": {"lat": 29.8003809, "lng": -95.3282201}, "html_instructions": "Head <b>south</b> on <b>Hirsch Rd</b> toward <b>Cavalcade St</b>", "polyline": {"points": "sm{tDzwydQfA??N"}, "start_location": {"lat": 29.8007437, "lng": -95.32814309999999}, "travel_mode": "WALKING"}, {"distance": {"text": "36 ft", "value": 11}, "duration": {"text": "1 min", "value": 18}, "end_location": {"lat": 29.8003734, "lng": -95.328338}, "html_instructions": "Turn <b>right</b> onto <b>Cavalcade St</b>", "maneuver": "turn-right", "polyline": {"points": "kk{tDjxydQ?F@N"}, "start_location": {"lat": 29.8003809, "lng": -95.3282201}, "travel_mode": "WALKING"}, {"distance": {"text": "98 ft", "value": 30}, "duration": {"text": "1 min", "value": 32}, "end_location": {"lat": 29.8005867, "lng": -95.32834079999999}, "html_instructions": "Turn <b>right</b> onto <b>Hirsch Rd</b>", "maneuver": "turn-right", "polyline": {"points": "ik{tDbyydQk@?"}, "start_location": {"lat": 29.8003734, "lng": -95.328338}, "travel_mode": "WALKING"}, {"distance": {"text": "13 ft", "value": 4}, "duration": {"text": "1 min", "value": 3}, "end_location": {"lat": 29.8005867, "lng": -95.32834079999999}, "html_instructions": "Turn <b>left</b><div style=\"font-size:0.9em\">Destination will be on the right</div>", "maneuver": "turn-left", "polyline": {"points": "ul{tDbyydQ"}, "start_location": {"lat": 29.8005867, "lng": -95.32834079999999}, "travel_mode": "WALKING"}], "travel_mode": "WALKING"}, {"distance": {"text": "7.7 mi", "value": 12342}, "duration": {"text": "30 mins", "value": 1772}, "end_location": {"lat": 29.80163, "lng": -95.454342}, "html_instructions": "Bus towards Memorial City", "polyline": {"points": "yl{tDdyydQ?It@??n@?j@@bD?p@@hA?X?x@DvCFpD?rA@zBGvAEpAGjBARC\\K`AEb@]fBKb@EPGVYdAUdAMx@W|AOjAMx@EZGd@WbBKj@Ib@EVAFIf@ADKn@Kz@In@K|@SdBK|@Gb@K~@AHW|Bc@jEo@fFWlBK|@EVSbBQpAGr@Mp@Eb@CNOrAKdBCf@?HAx@?xB@d@@j@?pA@nA?X@dB?T@fAB~D@bD@ZBbEBzB@fAGrAAXGvA@vD@xC@^@tD@x@?V?v@?l@?\\BpD@nB?fA@jA?tA?T?\\?lA@nA?tA@dA?Z@bA?pB@vDAlBAV?LANAT?RAXCR?@CXQ|@Kf@Sz@ENOr@CRE\\Cb@KfCARCpAAv@AXCf@?DAT?LAHCfAAd@?D?lB?h@?VBjC?lB?x@@z@@fB?fD@fDE`BA|@?HA\\@V?lA@L?\\?x@?V@j@@t@?L?JB`@@T@NBN@N@V?f@@f@?`A?r@?L?xBAP?JALAPANIbAEb@?TAR?V?fH?p@@vD@xAC^C^CRA@ETC\\Af@?P?P?LA`@@\\BpA?^@j@?H@tA?n@?b@@b@?X?P?V@`A?v@@dA?V?vA@T?lB@jB@tA?XB|E?~A@zB@nB?V?V@t@?L?R?L@R?N?f@?h@@|@?\\?d@?b@@n@?pA@|B?d@?`@@t@?T?pA@v@@rA?v@@bD@~@?nA@H?tB@^@dC?P?j@@x@?x@?t@@P?dA@|A?\\?^@dC@zB?xA?N@V?fA@`ABfE?tABtJ?pB@rA?r@?H?|@?jB?@?j@@h@AL?\\?J@f@?|B?h@?|@?n@?N?|G?J@tE?d@@dC?p@AL@J?V@P@H?B?D@F@HBH@JDPDLDLDHDJDJHLFHFHLL?@TVTVn@v@NRh@h@NPVX^f@BJBFBFf@v@P`@DZDVBT@F?D@F?H?P@P?X?N?F?j@@pAIpB@f@?V?fA?j@?V@h@AjA?h@@~@?b@@^Af@@d@?X?bA?jA?b@@nC?J?d@Aj@?v@?P@dB?jA?bC?`A?\\@dH?`D?dC@fE?jD?T@`F@vB?jD?vC?X?`E@V@zCAb@?fAAX@fB@fA?T@|B?l@A~A?x@?XAzB?`A?dB?l@?P?F?H@^?Z?@?H?@?Z?h@?f@?j@?^?t@@j@BnAAV@|@@fB?bBG?"}, "start_location": {"lat": 29.800614, "lng": -95.32835}, "transit_details": {"arrival_stop": {"location": {"lat": 29.80163, "lng": -95.454342}, "name": "W 18th St @ Northwest Fwy"}, "arrival_time": {"text": "6:18pm", "time_zone": "America/Chicago", "value": 1642033120}, "departure_stop": {"location": {"lat": 29.800614, "lng": -95.32835}, "name": "Hirsch Rd @ Cavalcade St"}, "departure_time": {"text": "5:49pm", "time_zone": "America/Chicago", "value": 1642031348}, "headsign": "Memorial City", "line": {"agencies": [{"name": "Metropolitan Transit Authority of Harris County", "phone": "1 (713) 635-4000", "url": "http://www.ridemetro.org/"}], "color": "#004080", "name": "Long Point / Cavalcade", "short_name": "26", "text_color": "#ffffff", "url": "https://www.ridemetro.org/MetroPDFs/Schedules/BusSchedules/n026-Long-Point-Cavalcade.pdf", "vehicle": {"icon": "//maps.gstatic.com/mapfiles/transit/iw2/6/bus2.png", "name": "Bus", "type": "BUS"}}, "num_stops": 46, "trip_short_name": "LONGPOINT"}, "travel_mode": "TRANSIT"}, {"distance": {"text": "322 ft", "value": 98}, "duration": {"text": "1 min", "value": 77}, "end_location": {"lat": 29.8019199, "lng": -95.45428179999999}, "html_instructions": "Walk to 4400 W 18th St, Houston, TX 77092, USA", "polyline": {"points": "es{tDrlreQ?z@YEc@E?G@Q@a@"}, "start_location": {"lat": 29.8016264, "lng": -95.454342}, "steps": [{"distance": {"text": "95 ft", "value": 29}, "duration": {"text": "1 min", "value": 22}, "end_location": {"lat": 29.8016252, "lng": -95.45463819999999}, "html_instructions": "Head <b>west</b> on <b>W 18th St</b>/<wbr/><b>NW Mall</b>", "polyline": {"points": "es{tDrlreQ?z@"}, "start_location": {"lat": 29.8016264, "lng": -95.454342}, "travel_mode": "WALKING"}, {"distance": {"text": "131 ft", "value": 40}, "duration": {"text": "1 min", "value": 33}, "end_location": {"lat": 29.8019405, "lng": -95.4545788}, "html_instructions": "Turn <b>right</b><div style=\"font-size:0.9em\">Restricted usage road</div>", "maneuver": "turn-right", "polyline": {"points": "es{tDnnreQYEc@E"}, "start_location": {"lat": 29.8016252, "lng": -95.45463819999999}, "travel_mode": "WALKING"}, {"distance": {"text": "95 ft", "value": 29}, "duration": {"text": "1 min", "value": 22}, "end_location": {"lat": 29.8019199, "lng": -95.45428179999999}, "html_instructions": "Turn <b>right</b><div style=\"font-size:0.9em\">Restricted usage road</div><div style=\"font-size:0.9em\">Destination will be on the left</div>", "maneuver": "turn-right", "polyline": {"points": "cu{tDbnreQ?G@Q@a@"}, "start_location": {"lat": 29.8019405, "lng": -95.4545788}, "travel_mode": "WALKING"}], "travel_mode": "WALKING"}], "traffic_speed_entry": [], "via_waypoint": []}], "overview_polyline": {"points": "uaetDrkkdQKGC_@@u@Du@FUdArBxAdCl@bAHKNOLSFHWTmBfBqAlAc@r@cJlIeTxRcFtEkIpH}CpCe@b@X`@Zd@rBxCnC~DpDpFjMdRrYjb@Zn@TbAOT?^A`@N^Xb@Vr@NhAFRAV?j@D|GNxUXxd@JbODdJGT@|A?tCCrEClU@|a@IbAi@lBw@nAsGbJqOnTaE~F_@r@c@fAyB|JsEtTuCxMeH`^oCdNkBrHeCzLkCfM}B|JwA`Gk@hBk@bBo@fCuAvGaC~KeBjI_ElRqBpJk@zCKx@ATI^Mn@AFG\\PtAJjANrCLvAFL@p@HrEJtEFhCBhATHrA^dAXRaBWKOOCULq@x@{DTITHFT?Hc@rB[KYIX}AFWRQZHFPoAlGS`BeAYsA_@IeGIoDYiKW{DOuAIeA]wBiAcF_@cBkA{DcBcGoG}Ty@mC{Ae@gIeCeHwBgDcA}Gu@iDU[|BeA~JAjBNzBd@hBTl@|@~A`CtD`@bAXz@XzAt@pE^tBHh@cA[uEwAuEyAuBc@yBIoAHwCX}A?}@IyA[wBq@aFyAoK_DaN_EwGyBoBgAmByAw@w@}CmBwAo@]MGRUbAc@tB}@fESbCApBH|Af@rF?~AK|AQ?qC?qAEyAQwDwAeBa@cBi@sH}BoIgCyAk@mBq@]Kk@K_AKiBi@wI{CgKuCeG_@g@Ie@SoBwAiJaHwG{EwVwQ}PiMgI_GoB{A_AaB]wA[sBKIEWKUIGGMP_@C]Sy@Qe@k@_A[_@iA{@aD{B{HuFoCwBwCiCm@a@iBw@cA]cCa@c@GuCGmHF_GBoACqAKuB_@cBg@eC}@eCe@iCWuFC}D?wB?sDAwG@_F?mCJ_GXeD@kGFwCZqDt@_ET}CFeLFkBNkGNaC@aNL_CLiBPyBJyD@aIDuH@mCJsCl@mBZeFDoBBmA??KfAB?V@Nk@?C@?It@??zABxHLvMErEM|DWvCw@tDo@jCe@vCk@fEm@rDSlAm@xEs@fGmBzPkBbOSbBOlC?bFJjRJ~NEzCIpBFfP@vDF|QFbUEbDGvAa@`Cm@rCW|EKjECr@E`FF`UChGAfA@pCFlGJdC@jDCdDShCAhJ?bJOjAEhBB~CD|HDnJNl`@Zx{@Pbn@@p\\DvNPlAVp@^l@bDtDf@j@b@r@FNx@xAPpA@h@@bA@|BGxC?bD@~E@~I@hNHlaAA`HDbICrPFxM@`HG??z@YEc@E?GBs@"}, "summary": "", "warnings": ["Walking directions are in beta. Use caution \u2013 This route may be missing sidewalks or pedestrian paths."], "waypoint_order": []}, {"bounds": {"northeast": {"lat": 29.8144249, "lng": -95.2536464}, "southwest": {"lat": 29.6849211, "lng": -95.45463819999999}}, "copyrights": "Map data \u00a92022", "legs": [{"arrival_time": {"text": "6:19pm", "time_zone": "America/Chicago", "value": 1642033197}, "departure_time": {"text": "4:18pm", "time_zone": "America/Chicago", "value": 1642025894}, "distance": {"text": "24.6 mi", "value": 39546}, "duration": {"text": "2 hours 2 mins", "value": 7303}, "end_address": "4400 W 18th St, Houston, TX 77092, USA", "end_location": {"lat": 29.8019199, "lng": -95.45428179999999}, "start_address": "8501 Howard Dr, Houston, TX 77017, USA", "start_location": {"lat": 29.6861869, "lng": -95.25449599999999}, "steps": [{"distance": {"text": "0.1 mi", "value": 206}, "duration": {"text": "3 mins", "value": 170}, "end_location": {"lat": 29.6849433, "lng": -95.2550218}, "html_instructions": "Walk to Galveston Rd @ Howard Dr", "polyline": {"points": "uaetDrkkdQA?CACAACCE?Y?U@_@BW@]FUdArBXd@~@~Al@bAHKBCJKPO"}, "start_location": {"lat": 29.6861869, "lng": -95.25449599999999}, "steps": [{"distance": {"text": "167 ft", "value": 51}, "duration": {"text": "1 min", "value": 37}, "end_location": {"lat": 29.685841, "lng": -95.25423029999999}, "html_instructions": "Head <b>southeast</b> on <b>Berrydale St</b> toward <b>Howard Dr</b>", "polyline": {"points": "uaetDrkkdQA?CACAACCE?Y?U@_@BW@]FUdArB"}, "start_location": {"lat": 29.6861869, "lng": -95.25449599999999}, "travel_mode": "WALKING"}, {"distance": {"text": "417 ft", "value": 127}, "duration": {"text": "2 mins", "value": 93}, "end_location": {"lat": 29.6851086, "lng": -95.255181}, "html_instructions": "Turn <b>right</b> onto <b>Howard Dr</b>", "maneuver": "turn-right", "polyline": {"points": "o_etD|ikdQXd@~@~Al@bAHK"}, "start_location": {"lat": 29.685841, "lng": -95.25423029999999}, "travel_mode": "WALKING"}, {"distance": {"text": "92 ft", "value": 28}, "duration": {"text": "1 min", "value": 40}, "end_location": {"lat": 29.6849433, "lng": -95.2550218}, "html_instructions": "Turn <b>left</b> onto <b>Galveston Rd</b>", "maneuver": "turn-left", "polyline": {"points": "}zdtDzokdQBCJKPO"}, "start_location": {"lat": 29.6851086, "lng": -95.255181}, "travel_mode": "WALKING"}], "travel_mode": "WALKING"}, {"distance": {"text": "5.7 mi", "value": 9188}, "duration": {"text": "22 mins", "value": 1316}, "end_location": {"lat": 29.69793, "lng": -95.3365}, "html_instructions": "Bus towards Wheeler TC", "polyline": {"points": "_zdtDvnkdQFHWTMN_BvAQN_A|@Y\\IT_BzAYVa@^gExD}AvAaDtCgDzCWTYVuClCg@d@MLy@t@w@r@[XC@[XKJKJ]\\QLQNy@t@MLo@j@GFw@p@oBhBmAfAoAhAe@b@X`@JNNTf@r@jAdBpAjBh@x@JNFHJNzA|BDFbAzAFJf@r@DFRZtDnFHLxDvFFJhBfC|@nAd@t@DFl@|@V^JNvE`H\\f@lA`B|@tARVLPb@p@n@`At@fAPXHTPj@BVIJEH@NANAHAH@F?D@B@DBFFL@@BB?@FJ@@@@FH?@BBDRLZDTBPB^@@FRAV?^?J@zC@^?j@@t@@ZBdD@\\@dC?N@|A@xB@jC?RF`N@T?PHjI?v@?F@fA@zA?J?J?N?R@J?N?R?^@~@@jA?N@d@@~@@pB@nB@\\?nBB|A?xBENAD@\\?~@?l@?N?X?|@?z@@b@CbAAn@At@Av@?\\?l@@jB?h@AhE?rD?V@vE?p@AvB?J@H@hH?R?pC?^?|@?`@?`@?N?NAZCZAPCTI^Sr@IVA@CFGNOR[b@eAtA]f@}A|BqAfBOTSXyArBcB`CmBlCiBhCkA`BKN{AvBsAnBMPCDCBS`@EFADA@CDGLELEHCJCDAFABKZGTADADI^{@bEYvAQv@m@tCq@`DMl@SbAGZI\\m@xCGTKd@a@jBQx@Mf@Qz@[zAQv@ADYvAMn@Id@YxAOr@CLMh@c@vBWlAa@lBQfAYjAMr@ERWvACPCDGXS|@GXAFEVG\\Mp@CNEREVYvAABMj@Kf@Mf@Ml@ENAHCD_@rA_@|ACJQz@EVUfAWjAKj@GRUfAUjAS~@G\\Mh@Ot@[bBYpAEPU`AGXGXSv@K`@IC"}, "start_location": {"lat": 29.684959, "lng": -95.254999}, "transit_details": {"arrival_stop": {"location": {"lat": 29.69793, "lng": -95.3365}, "name": "Griggs Rd @ M L King Blvd"}, "arrival_time": {"text": "4:43pm", "time_zone": "America/Chicago", "value": 1642027380}, "departure_stop": {"location": {"lat": 29.684959, "lng": -95.254999}, "name": "Galveston Rd @ Howard Dr"}, "departure_time": {"text": "4:21pm", "time_zone": "America/Chicago", "value": 1642026064}, "headsign": "Wheeler TC", "line": {"agencies": [{"name": "Metropolitan Transit Authority of Harris County", "phone": "1 (713) 635-4000", "url": "http://www.ridemetro.org/"}], "color": "#004080", "name": "Southmore", "short_name": "5", "text_color": "#ffffff", "url": "https://www.ridemetro.org/MetroPDFs/Schedules/BusSchedules/n005-Southmore.pdf", "vehicle": {"icon": "//maps.gstatic.com/mapfiles/transit/iw2/6/bus2.png", "name": "Bus", "type": "BUS"}}, "num_stops": 30, "trip_short_name": "SOUTHMORE"}, "travel_mode": "TRANSIT"}, {"distance": {"text": "0.1 mi", "value": 175}, "duration": {"text": "2 mins", "value": 129}, "end_location": {"lat": 29.6992754, "lng": -95.3360587}, "html_instructions": "Walk to M L King Blvd @ Griggs Rd", "polyline": {"points": "}jgtDdl{dQERi@Si@OOGOC_@MAAg@M[KGCi@O"}, "start_location": {"lat": 29.6979105, "lng": -95.3365086}, "steps": [{"distance": {"text": "46 ft", "value": 14}, "duration": {"text": "1 min", "value": 10}, "end_location": {"lat": 29.6979431, "lng": -95.3366061}, "html_instructions": "Head <b>west</b> on <b>Griggs Rd</b> toward <b>Martin Luther King Blvd</b>", "polyline": {"points": "}jgtDdl{dQER"}, "start_location": {"lat": 29.6979105, "lng": -95.3365086}, "travel_mode": "WALKING"}, {"distance": {"text": "0.1 mi", "value": 161}, "duration": {"text": "2 mins", "value": 119}, "end_location": {"lat": 29.6992754, "lng": -95.3360587}, "html_instructions": "Turn <b>right</b> onto <b>Martin Luther King Blvd</b><div style=\"font-size:0.9em\">Destination will be on the right</div>", "maneuver": "turn-right", "polyline": {"points": "ckgtDxl{dQi@Si@OOGOC_@MAAg@M[KGCi@O"}, "start_location": {"lat": 29.6979431, "lng": -95.3366061}, "travel_mode": "WALKING"}], "travel_mode": "WALKING"}, {"distance": {"text": "9.8 mi", "value": 15806}, "duration": {"text": "37 mins", "value": 2240}, "end_location": {"lat": 29.81412, "lng": -95.327876}, "html_instructions": "Bus towards Tidwell TC", "polyline": {"points": "msgtDhi{dQCHWIc@MyAe@c@KoA_@s@UYIm@Sw@SeA[{Ae@o@QGCgA[A?KCYKOEICKCkBi@GCICWIC?UEUCSCU?S?I@G?Q@SBQDQDMDSJa@PMDmAd@?@}@^y@\\aA^{@\\m@Va@Ne@Rq@XQFSHQBM@Q?MAOAMAK?Q@S@YD_@FOJC@GDOJEFEDEDGHINS^EFCFIFONIFIDu@Z_C`Ac@NeAV_@JcB\\E@cATe@Hg@LUHSFUJQJULQLOJKHONe@f@KLKLORQRIFGHMLKL]VSPEDKJ]Zk@Xe@T_@LODQDUBYAOHcACi@CA?YAKGMEQEOEOEKCm@OOC[?YI[IMEOUGCkA]a@MKCSGOEWIF_@BIF_@Lo@He@FYBKJi@L]DOb@u@Xk@N[Tc@FMMIRe@Pm@Nq@Fo@DsAPgB@gAIO[I_ANkB`@mFlAkGvA{HdBiEbAcGvAmFjAuAZgAR_Aq@wCwBQc@QUSYOWQYa@y@CECMAI?AAI?I?Q?G@E?EBKHe@BCDGLGlAb@~@\\NNBD@LIRg@LGh@GFOBWKa@Yc@YMQGIEO@E?EBKHe@?WK@K?Kj@UFSGMY[i@QYg@i@c@_@m@c@eBk@?Aa@KMEsDiAoBm@_@KICuAc@SG]KCA]KcCu@eBi@OEm@Qi@Me@GS?QAa@@WBC@G?SDA?E@c@F]BK?c@Ba@?Y?C?_@C[CUCWKe@Oa@MGCWIMEkAc@SIGCYK}C_Am@So@SaAWUGuC{@a@MiAe@OIQKuA}@OMSOe@Ws@o@w@m@mAs@CCKGEAKEGEkAa@q@Q_@KUIm@UcB_@iCw@SEiE{AaA_@IE[OoA}@m@g@gA_ASS_@a@_@]WQsBwA{BcBo@e@{A}@SMYSq@g@aBoAm@a@aAq@aAq@YQe@a@cAq@_BcAi@[}@i@[S{AaAgAu@IGg@_@]WQKKIYSa@W]W]Yc@]aD_Co@a@cCoAwAo@]Mu@c@?Aw@_@g@WCA{@c@{@a@OIkB{@s@_@o@YIEOIeB}@SKgBaAy@]OGUKy@_@YGaBAcB?c@@W?a@AK?s@CiBEW?qA?cBA[?W?uAAc@?q@?Y?mA?]?}A?c@Am@@Y?wBA{B?cB?Q?WAyASaBU[C}@?C?c@BeADa@?Q?c@@E?G?U@O?I?m@?u@@W@E?m@@]@y@Bc@D[Dk@F_@DkCf@yA\\w@Jo@B_@@O@_E@oD?O?iDDW?}D@eD@[?{@?i@Ac@?WAE?YCwBCCBA?A?A@A?C?W?iABuA?sD@S@E?M?I?A?O?M?cC?G?E?U?[?C?I@m@?wE@gA@[?G@MDoBD[@_DTI?M?S?oEBW?k@BY?C?I@K@_@BQ@S?SHKDi@VMFm@\\C?ULYLUJi@PmABS?mF@Q?s@@eB@gD@g@@Y?s@@e@?W@_@KKEaA@U?a@@k@@]?]?o@?sB?{BHGBUD}@?m@@E?c@?C?Y?U?]?W?W?a@?c@@w@?S?aIDi@@{@@i@@UGg@Aa@AQ?A?q@?k@?_@?]?QAMCQ@kA@Q?m@@Q?c@?K?W?M?U?c@?{@?kA@I?G?cB@kC@C?gA@i@?eCBmA@q@@?^BzI@~IB~I@hA@zGBbH@~G?lAi@b@u@l@y@l@OWCIAA@QDG@Aj@YFN"}, "start_location": {"lat": 29.699273, "lng": -95.336051}, "transit_details": {"arrival_stop": {"location": {"lat": 29.81412, "lng": -95.327876}, "name": "Kashmere Transit Center"}, "arrival_time": {"text": "5:31pm", "time_zone": "America/Chicago", "value": 1642030260}, "departure_stop": {"location": {"lat": 29.699273, "lng": -95.336051}, "name": "M L King Blvd @ Griggs Rd"}, "departure_time": {"text": "4:53pm", "time_zone": "America/Chicago", "value": 1642028020}, "headsign": "Tidwell TC", "line": {"agencies": [{"name": "Metropolitan Transit Authority of Harris County", "phone": "1 (713) 635-4000", "url": "http://www.ridemetro.org/"}], "color": "#004080", "name": "MLK / Lockwood", "short_name": "80", "text_color": "#ffffff", "url": "https://www.ridemetro.org/MetroPDFs/Schedules/BusSchedules/n080-MLK-Lockwood.pdf", "vehicle": {"icon": "//maps.gstatic.com/mapfiles/transit/iw2/6/bus2.png", "name": "Bus", "type": "BUS"}}, "num_stops": 51, "trip_short_name": "MLKLOCK"}, "travel_mode": "TRANSIT"}, {"distance": {"text": "8.7 mi", "value": 14073}, "duration": {"text": "34 mins", "value": 2020}, "end_location": {"lat": 29.80163, "lng": -95.454342}, "html_instructions": "Bus towards Memorial City", "polyline": {"points": "ga~tDfvydQGOp@s@RB@@HLA\\u@l@y@l@AzAl@?DAjBAr@?vFC?L|DCdEAV?~@Av@?BAX?ZAHAJ?NCVEHAD?DAVAJA@?D?r@ErAMBAb@Cl@Ez@CN?B?L?@?fAAt@?|@AP?tHCd@AX?V?\\?zFEdA?H?z@Ah@?v@?vAAb@?t@??n@?j@@bD?p@@hA?X?x@DvCFpD?rA@zBGvAEpAGjBARC\\K`AEb@]fBKb@EPGVYdAUdAMx@W|AOjAMx@EZGd@WbBKj@Ib@EVAFIf@ADKn@Kz@In@K|@SdBK|@Gb@K~@AHW|Bc@jEo@fFWlBK|@EVSbBQpAGr@Mp@Eb@CNOrAKdBCf@?HAx@?xB@d@@j@?pA@nA?X@dB?T@fAB~D@bD@ZBbEBzB@fAGrAAXGvA@vD@xC@^@tD@x@?V?v@?l@?\\BpD@nB?fA@jA?tA?T?\\?lA@nA?tA@dA?Z@bA?pB@vDAlBAV?LANAT?RAXCR?@CXQ|@Kf@Sz@ENOr@CRE\\Cb@KfCARCpAAv@AXCf@?DAT?LAHCfAAd@?D?lB?h@?VBjC?lB?x@@z@@fB?fD@fDE`BA|@?HA\\@V?lA@L?\\?x@?V@j@@t@?L?JB`@@T@NBN@N@V?f@@f@?`A?r@?L?xBAP?JALAPANIbAEb@?TAR?V?fH?p@@vD@xAC^C^CRA@ETC\\Af@?P?P?LA`@@\\BpA?^@j@?H@tA?n@?b@@b@?X?P?V@`A?v@@dA?V?vA@T?lB@jB@tA?XB|E?~A@zB@nB?V?V@t@?L?R?L@R?N?f@?h@@|@?\\?d@?b@@n@?pA@|B?d@?`@@t@?T?pA@v@@rA?v@@bD@~@?nA@H?tB@^@dC?P?j@@x@?x@?t@@P?dA@|A?\\?^@dC@zB?xA?N@V?fA@`ABfE?tABtJ?pB@rA?r@?H?|@?jB?@?j@@h@AL?\\?J@f@?|B?h@?|@?n@?N?|G?J@tE?d@@dC?p@AL@J?V@P@H?B?D@F@HBH@JDPDLDLDHDJDJHLFHFHLL?@TVTVn@v@NRh@h@NPVX^f@BJBFBFf@v@P`@DZDVBT@F?D@F?H?P@P?X?N?F?j@@pAIpB@f@?V?fA?j@?V@h@AjA?h@@~@?b@@^Af@@d@?X?bA?jA?b@@nC?J?d@Aj@?v@?P@dB?jA?bC?`A?\\@dH?`D?dC@fE?jD?T@`F@vB?jD?vC?X?`E@V@zCAb@?fAAX@fB@fA?T@|B?l@A~A?x@?XAzB?`A?dB?l@?P?F?H@^?Z?@?H?@?Z?h@?f@?j@?^?t@@j@BnAAV@|@@fB?bBG?"}, "start_location": {"lat": 29.81412, "lng": -95.327876}, "transit_details": {"arrival_stop": {"location": {"lat": 29.80163, "lng": -95.454342}, "name": "W 18th St @ Northwest Fwy"}, "arrival_time": {"text": "6:18pm", "time_zone": "America/Chicago", "value": 1642033120}, "departure_stop": {"location": {"lat": 29.81412, "lng": -95.327876}, "name": "Kashmere Transit Center"}, "departure_time": {"text": "5:45pm", "time_zone": "America/Chicago", "value": 1642031100}, "headsign": "Memorial City", "line": {"agencies": [{"name": "Metropolitan Transit Authority of Harris County", "phone": "1 (713) 635-4000", "url": "http://www.ridemetro.org/"}], "color": "#004080", "name": "Long Point / Cavalcade", "short_name": "26", "text_color": "#ffffff", "url": "https://www.ridemetro.org/MetroPDFs/Schedules/BusSchedules/n026-Long-Point-Cavalcade.pdf", "vehicle": {"icon": "//maps.gstatic.com/mapfiles/transit/iw2/6/bus2.png", "name": "Bus", "type": "BUS"}}, "num_stops": 52, "trip_short_name": "LONGPOINT"}, "travel_mode": "TRANSIT"}, {"distance": {"text": "322 ft", "value": 98}, "duration": {"text": "1 min", "value": 77}, "end_location": {"lat": 29.8019199, "lng": -95.45428179999999}, "html_instructions": "Walk to 4400 W 18th St, Houston, TX 77092, USA", "polyline": {"points": "es{tDrlreQ?z@YEc@E?G@Q@a@"}, "start_location": {"lat": 29.8016264, "lng": -95.454342}, "steps": [{"distance": {"text": "95 ft", "value": 29}, "duration": {"text": "1 min", "value": 22}, "end_location": {"lat": 29.8016252, "lng": -95.45463819999999}, "html_instructions": "Head <b>west</b> on <b>W 18th St</b>/<wbr/><b>NW Mall</b>", "polyline": {"points": "es{tDrlreQ?z@"}, "start_location": {"lat": 29.8016264, "lng": -95.454342}, "travel_mode": "WALKING"}, {"distance": {"text": "131 ft", "value": 40}, "duration": {"text": "1 min", "value": 33}, "end_location": {"lat": 29.8019405, "lng": -95.4545788}, "html_instructions": "Turn <b>right</b><div style=\"font-size:0.9em\">Restricted usage road</div>", "maneuver": "turn-right", "polyline": {"points": "es{tDnnreQYEc@E"}, "start_location": {"lat": 29.8016252, "lng": -95.45463819999999}, "travel_mode": "WALKING"}, {"distance": {"text": "95 ft", "value": 29}, "duration": {"text": "1 min", "value": 22}, "end_location": {"lat": 29.8019199, "lng": -95.45428179999999}, "html_instructions": "Turn <b>right</b><div style=\"font-size:0.9em\">Restricted usage road</div><div style=\"font-size:0.9em\">Destination will be on the left</div>", "maneuver": "turn-right", "polyline": {"points": "cu{tDbnreQ?G@Q@a@"}, "start_location": {"lat": 29.8019405, "lng": -95.4545788}, "travel_mode": "WALKING"}], "travel_mode": "WALKING"}], "traffic_speed_entry": [], "via_waypoint": []}], "overview_polyline": {"points": "uaetDrkkdQKGC_@@u@Du@FUdArBxAdCl@bAHKNOLSFHWTmBfBqAlAc@r@cJlIeTxRcFtEkIpH}CpCe@b@X`@Zd@rBxCnC~DpDpFjMdRrYjb@Zn@TbAOT?^A`@N^Xb@Vr@NhAFRAV?j@D|GNxUXxd@JbODdJGT@|A?tCCrEClU@|a@IbAi@lBw@nAsGbJqOnTaE~F_@r@c@fAyB|JsEtTuCxMeH`^oCdNkBrHeCzLkCfMo@lCEAERi@Sy@Wo@QmA_@g@QCHWI}Bs@sBk@sDgAyEwAaGcBm@QuAMe@@iAPwGnCkIdD_@D_@A]C]@m@Fo@Ra@ZeA|AYV_A`@cDpAeBb@sE~@gBj@iAr@mAnAw@|@_A|@cA~@aCbAg@HYAOHmBG[A{@YyA]u@Ii@OWYmBk@gA[`@yB`@uBRm@|@aBd@_AFMMId@sAVaBV{D@gAIO[I_ANyInBu_@xIcIfBgAR_Aq@wCwBQc@e@o@gAqBGc@@i@P{@ROlC`ARTG`@g@LGh@WJy@e@q@k@MY@KLq@?WK@K?Kj@UFSGi@cAy@cAqAcAeBm@sIiCsC{@qK_Dy@Gs@?w@JiALkBBuAKgBm@eC}@mFcB}GoBmCiA_DsBkB}AqAw@e@UsDiAqCu@}C}@kG{Be@U}BeB{AsAwAqAoF{DkCcBaEyCkEwCiBsAiC_B}FuDaBkAyJgHsKmFqJuE{GiDyB{@aG?kEKmLCgMAiGA{Di@yACoCH{@@yDDiDLgALkDl@qCh@oADoKBePHeDAoDIIDeKFuOBcB@UFkCFiDTiGBsADqAFwAn@aBx@_A\\aBByKD}GD}@@k@QeDD_F?cCLsAD{A@eB?qQJi@@UGiACqB?}AE}CD}E?cMFsEDq@@?^DzTDhLF~Y?lAi@b@u@l@y@l@Sa@?SFIj@YFNGOp@s@TDHLA\\u@l@y@l@AzAl@?pBCjHC?L|DC|EAvBAbAE|@KjBKhDY|ACdQI~OGpDA@pHFtHFdGErESnFQdBi@jC}@tDcA|GcAtGc@xCu@pGm@jFsArLc@jDs@`Gg@xDQpEB|GLlTF~HEzCIpBBpIDfHBtHDjPBzFAnLCfAIhAw@pDSfAI`ASdHG|AGdC?tDDnJ@nGChGA|B@rDBfCFrAD^BhDAlEEz@QpC@hPAxBGr@M|ADnGJzXZx{@Lp[Pnq@Bb_@DhGZzAZn@\\b@|DpEb@r@FNx@xAJr@Fj@@fA@tCGxC?~A?xDBlD@vL?rOHfaA@rPA~L@xCDzJ@jEG??z@YEc@E?GBs@"}, "summary": "", "warnings": ["Walking directions are in beta. Use caution \u2013 This route may be missing sidewalks or pedestrian paths."], "waypoint_order": []}], "status": "OK"}