{"geocoded_waypoints": [{"geocoder_status": "OK", "place_id": "ChIJrTLELqzDQIYR3mVsVT_Cgwo", "types": ["establishment", "point_of_interest", "school"]}, {"geocoder_status": "OK", "place_id": "ChIJ9_tphxzHQIYRIMyPy_d3VZU", "types": ["establishment", "point_of_interest"]}], "routes": [{"bounds": {"northeast": {"lat": 29.803869, "lng": -95.40828909999999}, "southwest": {"lat": 29.7264993, "lng": -95.5144198}}, "copyrights": "Map data \u00a92022", "legs": [{"arrival_time": {"text": "5:19pm", "time_zone": "America/Chicago", "value": 1642029597}, "departure_time": {"text": "4:00pm", "time_zone": "America/Chicago", "value": 1642024814}, "distance": {"text": "14.4 mi", "value": 23111}, "duration": {"text": "1 hour 20 mins", "value": 4783}, "end_address": "4400 W 18th St, Houston, TX 77092, USA", "end_location": {"lat": 29.8019199, "lng": -95.45428179999999}, "start_address": "3601 Dunvale Rd, Houston, TX 77063, USA", "start_location": {"lat": 29.7265018, "lng": -95.51305479999999}, "steps": [{"distance": {"text": "0.3 mi", "value": 431}, "duration": {"text": "6 mins", "value": 332}, "end_location": {"lat": 29.72917, "lng": -95.5144198}, "html_instructions": "Walk to Richmond Ave @ Dunvale Rd", "polyline": {"points": "s}ltDp{}eQ?f@m@@?d@@nB[?yA?G?wABO?U?g@?gA?cB@Y??N?z@"}, "start_location": {"lat": 29.7265018, "lng": -95.51305479999999}, "steps": [{"distance": {"text": "62 ft", "value": 19}, "duration": {"text": "1 min", "value": 14}, "end_location": {"lat": 29.7264993, "lng": -95.5132501}, "html_instructions": "Head <b>west</b> toward <b>Dunvale Rd</b>", "polyline": {"points": "s}ltDp{}eQ?f@"}, "start_location": {"lat": 29.7265018, "lng": -95.51305479999999}, "travel_mode": "WALKING"}, {"distance": {"text": "85 ft", "value": 26}, "duration": {"text": "1 min", "value": 20}, "end_location": {"lat": 29.72673249999999, "lng": -95.5132579}, "html_instructions": "Turn <b>right</b> toward <b>Dunvale Rd</b>", "maneuver": "turn-right", "polyline": {"points": "s}ltDx|}eQm@@"}, "start_location": {"lat": 29.7264993, "lng": -95.5132501}, "travel_mode": "WALKING"}, {"distance": {"text": "249 ft", "value": 76}, "duration": {"text": "1 min", "value": 56}, "end_location": {"lat": 29.7267216, "lng": -95.51400609999999}, "html_instructions": "Turn <b>left</b> toward <b>Dunvale Rd</b>", "maneuver": "turn-left", "polyline": {"points": "a_mtDz|}eQ?d@@nB"}, "start_location": {"lat": 29.72673249999999, "lng": -95.5132579}, "travel_mode": "WALKING"}, {"distance": {"text": "0.2 mi", "value": 277}, "duration": {"text": "3 mins", "value": 208}, "end_location": {"lat": 29.7291696, "lng": -95.5141187}, "html_instructions": "Turn <b>right</b> onto <b>Dunvale Rd</b>", "maneuver": "turn-right", "polyline": {"points": "__mtDpa~eQ[?yA?G?wABO?U?g@?gA?cB@Y??N"}, "start_location": {"lat": 29.7267216, "lng": -95.51400609999999}, "travel_mode": "WALKING"}, {"distance": {"text": "108 ft", "value": 33}, "duration": {"text": "1 min", "value": 34}, "end_location": {"lat": 29.72917, "lng": -95.5144198}, "html_instructions": "Turn <b>left</b> onto <b>Richmond Ave</b>", "maneuver": "turn-left", "polyline": {"points": "inmtDfb~eQ?z@"}, "start_location": {"lat": 29.7291696, "lng": -95.5141187}, "travel_mode": "WALKING"}], "travel_mode": "WALKING"}, {"distance": {"text": "6.3 mi", "value": 10164}, "duration": {"text": "30 mins", "value": 1802}, "end_location": {"lat": 29.734151, "lng": -95.41031199999999}, "html_instructions": "Bus towards Eastwood TC", "polyline": {"points": "cnmtDbd~eQO?@cAA}A?wA?mC?GAc@?qA?i@?w@?{@?y@?g@?WA{CAiACk@AOC]AUG}@Ku@Ig@Mu@Sy@Uy@Og@IUMe@Mk@aAeDs@gCACOg@k@oBCK]kAYcAI[Kc@Q}@K_AI}@C]ACA]AECe@?EAe@@Y?e@?_BAwA@cC?g@?[Au@?WAo@?YAm@?UAcB?qB?]CeC?u@?YAI?qAAiAC{D?s@?mAAmC?]?Y?qBAmA?{B@Q?_@Au@?e@@[?_A?S@y@?oC?cD?mBDmCPoBHy@JsA@e@?[?I@iA?S?c@?yB?c@?}@?aC?g@?U?m@?M?SA_AAe@?qA?M?a@@_@?MA{@?kA?mA?i@?cA?yB?E?U?E?]@eA@S?e@@_@@s@?WAoA?qC?kA?w@?c@?o@@g@CaF?kC?eAAw@Ai@?O?E?O?OAM?yA?g@AwA?sA?MAyBAy@?m@AsA?}@?oA?K?i@Ac@?WGkEAGAg@C_@IoBIgAGkACe@?CAICm@Aa@AQAk@As@EyB?u@?_A?AAm@?CAW?A?w@?S?C@U?C?A?G?A?g@?C?c@?A?k@?C?_A@O?UAaAAc@?YE]E]Gc@?AAEI]YaAKWSk@CGOc@CMGUES?CIa@Ea@C[?IAWAe@A[AeD?eEAi@?yG?I?SAa@@U@YBYB_@Fe@D_@Hg@BMFc@DQ@U@U@W?G@Q?EAg@@e@?a@@sAB_B?M?]A}A?MAsBC{BAeBCYEeAAOIqAAU@[E{@EgBAOA{FAoC?O?}A?[AwB?G?[?U?G?eBC_E?_@?MAO?M?]?SAgEAyD?WAeBAkA?I?GAe@AMCe@?G?AM}BIs@E]CACAACAAAEAKAMCIJAC[Go@Kk@CSAGWaB[kBCKOw@CIW_BGi@My@Ia@OcBKkA?a@A_@Ag@?ACwA?CAiB?YAmBCkDA}AAkDA}A?mC?sA?}AAaC?w@?uDCgFCqA?QC{BA[Ak@CkAA_AAE?G?G?GAG?MAE@IAuAAuBAyB?eAAk@?eC?}@@WAqC?UAcA?_AA}@?y@AcA?_@?aA?M?qA?eAD?"}, "start_location": {"lat": 29.7291387, "lng": -95.5144174}, "transit_details": {"arrival_stop": {"location": {"lat": 29.734151, "lng": -95.41031199999999}, "name": "Richmond Ave @ S Shepherd Dr"}, "arrival_time": {"text": "4:36pm", "time_zone": "America/Chicago", "value": 1642026960}, "departure_stop": {"location": {"lat": 29.7291387, "lng": -95.5144174}, "name": "Richmond Ave @ Dunvale Rd"}, "departure_time": {"text": "4:05pm", "time_zone": "America/Chicago", "value": 1642025158}, "headsign": "Eastwood TC", "line": {"agencies": [{"name": "Metropolitan Transit Authority of Harris County", "phone": "1 (713) 635-4000", "url": "http://www.ridemetro.org/"}], "color": "#004080", "name": "Richmond", "short_name": "25", "text_color": "#ffffff", "url": "https://www.ridemetro.org/MetroPDFs/Schedules/BusSchedules/n025-Richmond.pdf", "vehicle": {"icon": "//maps.gstatic.com/mapfiles/transit/iw2/6/bus2.png", "name": "Bus", "type": "BUS"}}, "num_stops": 41, "trip_short_name": "RICHMOND"}, "travel_mode": "TRANSIT"}, {"distance": {"text": "266 ft", "value": 81}, "duration": {"text": "1 min", "value": 59}, "end_location": {"lat": 29.7337573, "lng": -95.41061789999999}, "html_instructions": "Walk to S Shepherd Dr @ Richmond Ave", "polyline": {"points": "kmntDlyieQ@|@v@?P?"}, "start_location": {"lat": 29.7341367, "lng": -95.4103118}, "steps": [{"distance": {"text": "112 ft", "value": 34}, "duration": {"text": "1 min", "value": 25}, "end_location": {"lat": 29.7341342, "lng": -95.41062160000001}, "html_instructions": "Head <b>west</b> on <b>Richmond Ave</b> toward <b>S Shepherd Dr</b>", "polyline": {"points": "kmntDlyieQ@|@"}, "start_location": {"lat": 29.7341367, "lng": -95.4103118}, "travel_mode": "WALKING"}, {"distance": {"text": "154 ft", "value": 47}, "duration": {"text": "1 min", "value": 34}, "end_location": {"lat": 29.7337573, "lng": -95.41061789999999}, "html_instructions": "Turn <b>left</b> onto <b>S Shepherd Dr</b>", "maneuver": "turn-left", "polyline": {"points": "imntDj{ieQv@?P?"}, "start_location": {"lat": 29.7341342, "lng": -95.41062160000001}, "travel_mode": "WALKING"}], "travel_mode": "WALKING"}, {"distance": {"text": "4.9 mi", "value": 7936}, "duration": {"text": "19 mins", "value": 1140}, "end_location": {"lat": 29.803613, "lng": -95.41008699999999}, "html_instructions": "Bus towards N Shepherd P&R", "polyline": {"points": "_kntDf{ieQ?JQ?aA?S@c@?U@y@Ao@AgB?cA@sA?cA@Q?iD@wA?u@@e@?c@?M?_A@]?y@?y@@Y?K?y@@O?s@?y@?eB@cA?y@@O?K?W?I?c@?E?}ABE?q@?gA?]Aa@G[GSCg@AS@M?Y?a@?m@?_A?c@@S?sC@gA@iA?kD?iB?_@?[?Y?q@@gB?{@?Y@qA?eA?I?uD@i@@_A?Q?O?{@?m@?M?g@@y@@g@@Q?[?{@?OGEAGCEEGCECECGEY[OYEKCECGEQ_AuCAEEIQe@IQCEACGIEGEGGIIIEEOKGEQKMEk@Oo@@M?{@?WIgB?KEC?SAYAU?IA]?SAeA?S?g@AcA@EBIFKFA@CBIHCDGHGXQ@aAJa@Da@DC?}AL]D]DK@KEA?A?I?G?M?MAAAA?C?AAE?CAA?OCC?AAM?WA[FE@E@c@HG@YD_@HeAPKBw@TgABW?C?W?k@@_A@K?[@SBe@Dc@@SBa@?eA@[?M?eA@c@?e@?]?_@@Y?k@?M?qCBg@?Q?M@U?e@?M?qCB]?w@@_@?E@W?e@?mB@gA?k@@]?qB@c@@a@CE@e@@m@?S@kA?cA@aCBM?oC@eA@oA@Y?[?O?a@Bm@?U?o@?e@@I?A?A?y@?M@YAS@O?_@@w@@y@?]?M?YAMAMCOEYIIAa@Kc@Ku@QGACAm@MAAOCIAK?OAM?M?A?I?O?S@M@IBc@Jq@P}@Vg@Jk@Ji@Hc@Be@DE?c@Bs@ByABA?oCBYA}B@I?A?q@@K?E?k@?C?O@u@?S?k@@w@@K?a@?O?[@U?U?U?k@@k@?Y@C?I?S?kC@y@@K?W@[?S?A?W?G?U@S?c@?e@@O?E?[?mCBeA@U?Y?S?U@A?S?aA@_@?e@@Q?S?U?s@?C?W?qB@sB@eBBg@?oBBaGBq@@w@?aB@i@@W@_B@yA@aB@Q?qD@U@gB?eB@eBA_A@?K"}, "start_location": {"lat": 29.733757, "lng": -95.410598}, "transit_details": {"arrival_stop": {"location": {"lat": 29.803613, "lng": -95.41008699999999}, "name": "N Shepherd Dr @ W 20th St"}, "arrival_time": {"text": "4:59pm", "time_zone": "America/Chicago", "value": 1642028340}, "departure_stop": {"location": {"lat": 29.733757, "lng": -95.410598}, "name": "S Shepherd Dr @ Richmond Ave"}, "departure_time": {"text": "4:40pm", "time_zone": "America/Chicago", "value": 1642027200}, "headsign": "N Shepherd P&R", "line": {"agencies": [{"name": "Metropolitan Transit Authority of Harris County", "phone": "1 (713) 635-4000", "url": "http://www.ridemetro.org/"}], "color": "#004080", "name": "Shepherd", "short_name": "27", "text_color": "#ffffff", "url": "https://www.ridemetro.org/MetroPDFs/Schedules/BusSchedules/n027-Shepherd.pdf", "vehicle": {"icon": "//maps.gstatic.com/mapfiles/transit/iw2/6/bus2.png", "name": "Bus", "type": "BUS"}}, "num_stops": 33, "trip_short_name": "SHEPHERD"}, "travel_mode": "TRANSIT"}, {"distance": {"text": "112 ft", "value": 34}, "duration": {"text": "1 min", "value": 34}, "end_location": {"lat": 29.803842, "lng": -95.41002979999999}, "html_instructions": "Walk to W 20th St @ N Shepherd Dr", "polyline": {"points": "q_|tDdxieQ_@@M??Q"}, "start_location": {"lat": 29.8036121, "lng": -95.410111}, "steps": [{"distance": {"text": "69 ft", "value": 21}, "duration": {"text": "1 min", "value": 15}, "end_location": {"lat": 29.8038391, "lng": -95.4101207}, "html_instructions": "Head <b>north</b> on <b>N Shepherd Dr</b> toward <b>W 20th St</b>", "polyline": {"points": "q_|tDdxieQ_@@M?"}, "start_location": {"lat": 29.8036121, "lng": -95.410111}, "travel_mode": "WALKING"}, {"distance": {"text": "43 ft", "value": 13}, "duration": {"text": "1 min", "value": 19}, "end_location": {"lat": 29.803842, "lng": -95.41002979999999}, "html_instructions": "Turn <b>right</b> onto <b>W 20th St</b>", "maneuver": "turn-right", "polyline": {"points": "_a|tDfxieQ?Q"}, "start_location": {"lat": 29.8038391, "lng": -95.4101207}, "travel_mode": "WALKING"}], "travel_mode": "WALKING"}, {"distance": {"text": "2.7 mi", "value": 4367}, "duration": {"text": "10 mins", "value": 582}, "end_location": {"lat": 29.80163, "lng": -95.454342}, "html_instructions": "Bus towards Memorial City", "polyline": {"points": "ea|tDvwieQJ?@V?fA@`ABfE?tABtJ?pB@rA?r@?H?|@?jB?@?j@@h@AL?\\?J@f@?|B?h@?|@?n@?N?|G?J@tE?d@@dC?p@AL@J?V@P@H?B?D@F@HBH@JDPDLDLDHDJDJHLFHFHLL?@TVTVn@v@NRh@h@NPVX^f@BJBFBFf@v@P`@DZDVBT@F?D@F?H?P@P?X?N?F?j@@pAIpB@f@?V?fA?j@?V@h@AjA?h@@~@?b@@^Af@@d@?X?bA?jA?b@@nC?J?d@Aj@?v@?P@dB?jA?bC?`A?\\@dH?`D?dC@fE?jD?T@`F@vB?jD?vC?X?`E@V@zCAb@?fAAX@fB@fA?T@|B?l@A~A?x@?XAzB?`A?dB?l@?P?F?H@^?Z?@?H?@?Z?h@?f@?j@?^?t@@j@BnAAV@|@@fB?bBG?"}, "start_location": {"lat": 29.803869, "lng": -95.410039}, "transit_details": {"arrival_stop": {"location": {"lat": 29.80163, "lng": -95.454342}, "name": "W 18th St @ Northwest Fwy"}, "arrival_time": {"text": "5:18pm", "time_zone": "America/Chicago", "value": 1642029520}, "departure_stop": {"location": {"lat": 29.803869, "lng": -95.410039}, "name": "W 20th St @ N Shepherd Dr"}, "departure_time": {"text": "5:08pm", "time_zone": "America/Chicago", "value": 1642028938}, "headsign": "Memorial City", "line": {"agencies": [{"name": "Metropolitan Transit Authority of Harris County", "phone": "1 (713) 635-4000", "url": "http://www.ridemetro.org/"}], "color": "#004080", "name": "Long Point / Cavalcade", "short_name": "26", "text_color": "#ffffff", "url": "https://www.ridemetro.org/MetroPDFs/Schedules/BusSchedules/n026-Long-Point-Cavalcade.pdf", "vehicle": {"icon": "//maps.gstatic.com/mapfiles/transit/iw2/6/bus2.png", "name": "Bus", "type": "BUS"}}, "num_stops": 14, "trip_short_name": "LONGPOINT"}, "travel_mode": "TRANSIT"}, {"distance": {"text": "322 ft", "value": 98}, "duration": {"text": "1 min", "value": 77}, "end_location": {"lat": 29.8019199, "lng": -95.45428179999999}, "html_instructions": "Walk to 4400 W 18th St, Houston, TX 77092, USA", "polyline": {"points": "es{tDrlreQ?z@YEc@E?G@Q@a@"}, "start_location": {"lat": 29.8016264, "lng": -95.454342}, "steps": [{"distance": {"text": "95 ft", "value": 29}, "duration": {"text": "1 min", "value": 22}, "end_location": {"lat": 29.8016252, "lng": -95.45463819999999}, "html_instructions": "Head <b>west</b> on <b>W 18th St</b>/<wbr/><b>NW Mall</b>", "polyline": {"points": "es{tDrlreQ?z@"}, "start_location": {"lat": 29.8016264, "lng": -95.454342}, "travel_mode": "WALKING"}, {"distance": {"text": "131 ft", "value": 40}, "duration": {"text": "1 min", "value": 33}, "end_location": {"lat": 29.8019405, "lng": -95.4545788}, "html_instructions": "Turn <b>right</b><div style=\"font-size:0.9em\">Restricted usage road</div>", "maneuver": "turn-right", "polyline": {"points": "es{tDnnreQYEc@E"}, "start_location": {"lat": 29.8016252, "lng": -95.45463819999999}, "travel_mode": "WALKING"}, {"distance": {"text": "95 ft", "value": 29}, "duration": {"text": "1 min", "value": 22}, "end_location": {"lat": 29.8019199, "lng": -95.45428179999999}, "html_instructions": "Turn <b>right</b><div style=\"font-size:0.9em\">Restricted usage road</div><div style=\"font-size:0.9em\">Destination will be on the left</div>", "maneuver": "turn-right", "polyline": {"points": "cu{tDbnreQ?G@Q@a@"}, "start_location": {"lat": 29.8019405, "lng": -95.4545788}, "travel_mode": "WALKING"}], "travel_mode": "WALKING"}], "traffic_speed_entry": [], "via_waypoint": []}], "overview_polyline": {"points": "s}ltDp{}eQ?f@m@@@tCuEBuC?}B@?jAD?O??aDAqGAeOEuBEm@IsAU}Aa@oBe@aBgBmGwD{M]aBU}BIeACk@?_A?aJE_HGePG_U?sL@aK?mBDmCZiDLyB?e@@{F?qJCeE?kC?cLB}C@{DA_WCwDAs@AmHCoFAmFIqHQ_EU}DGyAKkF?wBCkA@sB?cEAkC?YE]MaAe@gBs@oBQw@Ie@I}@EcBCoT?uAPyBZyBJuAFcIAwCEoFE_CS}DKoEEqTMw_@GaBW{DE]CAEEGa@CIJAKkAi@iDs@yDw@eF[oDAaAEeCG}KEuNAkJC}KCcBKoGCuACc@CoICyPC}L?eAD?B|@hA??C?JsA?w@@gFAkQFuUHmFBeBA}@O{@Ea@@iD?sGDoQ@wODkC?wCDm@?{@?OGMEMIKGa@a@]s@mAwDa@aA[c@g@a@_@Qk@Oo@@iA?WIgB?OEm@CqACeE?]TY\\GXQ@cBPaDXi@FMEa@?MAOC[Ge@Aa@HkAReBZcAX{BBsCDqBN_IBeTNsMFg@AsA@eHF{KHgD@wGDsACw@SaE_Au@Gg@?{@F{D`AuATiAHi@BmCFiHBiA@{DBmPJoNJuNFaj@\\iI@_A@?K?B_@@M??QE@J?@~ADhGDpS?fF@tH@lU@pEBv@F`@Rx@Zn@\\b@|DpE^f@BJFNf@v@P`@Jr@Fj@@fA@tCIpB@f@?~A?xDBlD@vL?rODve@BnZ@pG@rCAlCApG?lD@xC?hDDpE@jEG??z@YEc@E?GBs@"}, "summary": "", "warnings": ["Walking directions are in beta. Use caution \u2013 This route may be missing sidewalks or pedestrian paths."], "waypoint_order": []}, {"bounds": {"northeast": {"lat": 29.8026498, "lng": -95.45426839999999}, "southwest": {"lat": 29.7264993, "lng": -95.5144198}}, "copyrights": "Map data \u00a92022", "legs": [{"arrival_time": {"text": "5:16pm", "time_zone": "America/Chicago", "value": 1642029399}, "departure_time": {"text": "4:10pm", "time_zone": "America/Chicago", "value": 1642025414}, "distance": {"text": "9.4 mi", "value": 15052}, "duration": {"text": "1 hour 6 mins", "value": 3985}, "end_address": "4400 W 18th St, Houston, TX 77092, USA", "end_location": {"lat": 29.8019199, "lng": -95.45428179999999}, "start_address": "3601 Dunvale Rd, Houston, TX 77063, USA", "start_location": {"lat": 29.7265018, "lng": -95.51305479999999}, "steps": [{"distance": {"text": "0.3 mi", "value": 431}, "duration": {"text": "6 mins", "value": 332}, "end_location": {"lat": 29.72917, "lng": -95.5144198}, "html_instructions": "Walk to Richmond Ave @ Dunvale Rd", "polyline": {"points": "s}ltDp{}eQ?f@m@@?d@@nB[?yA?G?wABO?U?g@?gA?cB@Y??N?z@"}, "start_location": {"lat": 29.7265018, "lng": -95.51305479999999}, "steps": [{"distance": {"text": "62 ft", "value": 19}, "duration": {"text": "1 min", "value": 14}, "end_location": {"lat": 29.7264993, "lng": -95.5132501}, "html_instructions": "Head <b>west</b> toward <b>Dunvale Rd</b>", "polyline": {"points": "s}ltDp{}eQ?f@"}, "start_location": {"lat": 29.7265018, "lng": -95.51305479999999}, "travel_mode": "WALKING"}, {"distance": {"text": "85 ft", "value": 26}, "duration": {"text": "1 min", "value": 20}, "end_location": {"lat": 29.72673249999999, "lng": -95.5132579}, "html_instructions": "Turn <b>right</b> toward <b>Dunvale Rd</b>", "maneuver": "turn-right", "polyline": {"points": "s}ltDx|}eQm@@"}, "start_location": {"lat": 29.7264993, "lng": -95.5132501}, "travel_mode": "WALKING"}, {"distance": {"text": "249 ft", "value": 76}, "duration": {"text": "1 min", "value": 56}, "end_location": {"lat": 29.7267216, "lng": -95.51400609999999}, "html_instructions": "Turn <b>left</b> toward <b>Dunvale Rd</b>", "maneuver": "turn-left", "polyline": {"points": "a_mtDz|}eQ?d@@nB"}, "start_location": {"lat": 29.72673249999999, "lng": -95.5132579}, "travel_mode": "WALKING"}, {"distance": {"text": "0.2 mi", "value": 277}, "duration": {"text": "3 mins", "value": 208}, "end_location": {"lat": 29.7291696, "lng": -95.5141187}, "html_instructions": "Turn <b>right</b> onto <b>Dunvale Rd</b>", "maneuver": "turn-right", "polyline": {"points": "__mtDpa~eQ[?yA?G?wABO?U?g@?gA?cB@Y??N"}, "start_location": {"lat": 29.7267216, "lng": -95.51400609999999}, "travel_mode": "WALKING"}, {"distance": {"text": "108 ft", "value": 33}, "duration": {"text": "1 min", "value": 34}, "end_location": {"lat": 29.72917, "lng": -95.5144198}, "html_instructions": "Turn <b>left</b> onto <b>Richmond Ave</b>", "maneuver": "turn-left", "polyline": {"points": "inmtDfb~eQ?z@"}, "start_location": {"lat": 29.7291696, "lng": -95.5141187}, "travel_mode": "WALKING"}], "travel_mode": "WALKING"}, {"distance": {"text": "0.8 mi", "value": 1316}, "duration": {"text": "4 mins", "value": 236}, "end_location": {"lat": 29.731509, "lng": -95.50146900000001}, "html_instructions": "Bus towards Eastwood TC", "polyline": {"points": "cnmtDbd~eQO?@cAA}A?wA?mC?GAc@?qA?i@?w@?{@?y@?g@?WA{CAiACk@AOC]AUG}@Ku@Ig@Mu@Sy@Uy@Og@IUMe@Mk@aAeDs@gCACOg@k@oBCK]kAYcAI[Kc@Q}@K_AI}@C]ACA]AECe@?EN?"}, "start_location": {"lat": 29.7291387, "lng": -95.5144174}, "transit_details": {"arrival_stop": {"location": {"lat": 29.731509, "lng": -95.50146900000001}, "name": "Richmond Ave @ Hillcroft Ave"}, "arrival_time": {"text": "4:19pm", "time_zone": "America/Chicago", "value": 1642025994}, "departure_stop": {"location": {"lat": 29.7291387, "lng": -95.5144174}, "name": "Richmond Ave @ Dunvale Rd"}, "departure_time": {"text": "4:15pm", "time_zone": "America/Chicago", "value": 1642025758}, "headsign": "Eastwood TC", "line": {"agencies": [{"name": "Metropolitan Transit Authority of Harris County", "phone": "1 (713) 635-4000", "url": "http://www.ridemetro.org/"}], "color": "#004080", "name": "Richmond", "short_name": "25", "text_color": "#ffffff", "url": "https://www.ridemetro.org/MetroPDFs/Schedules/BusSchedules/n025-Richmond.pdf", "vehicle": {"icon": "//maps.gstatic.com/mapfiles/transit/iw2/6/bus2.png", "name": "Bus", "type": "BUS"}}, "num_stops": 5, "trip_short_name": "RICHMOND"}, "travel_mode": "TRANSIT"}, {"distance": {"text": "243 ft", "value": 74}, "duration": {"text": "1 min", "value": 75}, "end_location": {"lat": 29.7312128, "lng": -95.5010982}, "html_instructions": "Walk to Hillcroft Ave @ Richmond Ave", "polyline": {"points": "e}mtDds{eQ?]?O?I@Qb@?\\?"}, "start_location": {"lat": 29.7315467, "lng": -95.50146939999999}, "steps": [{"distance": {"text": "105 ft", "value": 32}, "duration": {"text": "1 min", "value": 33}, "end_location": {"lat": 29.7315435, "lng": -95.50110450000001}, "html_instructions": "Head <b>east</b> on <b>Richmond Ave</b> toward <b>Hillcroft Ave</b>", "polyline": {"points": "e}mtDds{eQ?]?O?I@Q"}, "start_location": {"lat": 29.7315467, "lng": -95.50146939999999}, "travel_mode": "WALKING"}, {"distance": {"text": "138 ft", "value": 42}, "duration": {"text": "1 min", "value": 42}, "end_location": {"lat": 29.7312128, "lng": -95.5010982}, "html_instructions": "Turn <b>right</b> onto <b>Hillcroft Ave</b>", "maneuver": "turn-right", "polyline": {"points": "c}mtDzp{eQb@?\\?"}, "start_location": {"lat": 29.7315435, "lng": -95.50110450000001}, "travel_mode": "WALKING"}], "travel_mode": "WALKING"}, {"distance": {"text": "6.1 mi", "value": 9820}, "duration": {"text": "25 mins", "value": 1482}, "end_location": {"lat": 29.783077, "lng": -95.455467}, "html_instructions": "Bus towards Northwest TC", "polyline": {"points": "a{mtDvp{eQ?J]?m@@[?a@?s@@aA@aAAeABS?y@@i@Ag@AG?QAu@CKAKA_@GMCSEKCk@IKCUAIAKAKAI?a@EMAGCC?KAO?MAa@?S?{@@C?i@@cA?_@@m@?a@?eB?}@?I?WAgA@Y@aAA{ABcA?I?sC@]?kA@_@?E?C?K?yABo@?MAkCBw@@g@?a@?YA]?M?i@@]?O@q@?I?m@?gA@{BBiE?iBB{A@eE?}ADG?yABW?WA_@@a@?sA?kA?gBAk@@sA@]@y@@o@?k@?GIAAC?MEGAEAMEICSIKEGEQK[Oa@m@CC[e@IMS[?AEIEIKWWy@WsAe@aCUoAES_@qBGYKk@o@mDQ}@GUCOY{AScAI]y@qE]gBY{A]kBUgAG_@i@uCk@{CKg@ACGe@G[Gi@?CGo@AOASc@iFC_@WuCG}@CUC[AWW{CEc@Ku@I[GSISIQOYQW[c@iAmAwAiBc@i@{@{@QSm@o@gAsACE_@c@SYyAaBi@k@IKs@w@s@y@KM]a@WYq@_AKQGKAAO[O]Qs@CEEYCSC_@C_@Aa@?S?Q?y@Ay@?uA?ICcEAcD?]AaFC}DCY@Y@O?S@G?G@IB[Fc@F[Nk@JYLa@FQNc@Ja@He@Ho@B]B_@@S@Y?Y?g@?Y?aB@W@SFw@F_@?AH_@Tu@Tg@b@w@LW@?Pc@FQJUFUHWBMFYBS@E@G@Q?IBS?Q@M?OAq@?i@?]AoAAwB?AAY?KAEA]?CAICOE[Kc@Ma@CGGOGQEGIOEISYUYCCYYa@g@QS?AOQIMMYA?Wk@I[IYIc@?CEWCUCQCe@KyAI{@CQEQEOKYUs@Ue@}AiDUi@KW_@y@QLSBY@c@?u@@m@@eCB}DDsCAK?U?}B@_A@yA@wEBeBBU?e@AW?cDBI?K?k@?U@?o@?WAO?qAA_@?UY@oA?]?A?A?G?G?SAEAWAO?Y?c@?c@@gA@a@?kB@c@@aB@m@@}@?kB?c@??RiA?eBDcB?kA@sA@A??@gA?gFDkHBQ?i@Sw@CSKISGOB_B?yA?i@BeCX?V?\\A^?\\?@?b@?BXQ^?f@?j@?d@W?"}, "start_location": {"lat": 29.731213, "lng": -95.50107899999999}, "transit_details": {"arrival_stop": {"location": {"lat": 29.783077, "lng": -95.455467}, "name": "Northwest Transit Center - South Platform"}, "arrival_time": {"text": "4:54pm", "time_zone": "America/Chicago", "value": 1642028040}, "departure_stop": {"location": {"lat": 29.731213, "lng": -95.50107899999999}, "name": "Hillcroft Ave @ Richmond Ave"}, "departure_time": {"text": "4:29pm", "time_zone": "America/Chicago", "value": 1642026558}, "headsign": "Northwest TC", "line": {"agencies": [{"name": "Metropolitan Transit Authority of Harris County", "phone": "1 (713) 635-4000", "url": "http://www.ridemetro.org/"}], "color": "#004080", "name": "Hillcroft", "short_name": "47", "text_color": "#ffffff", "url": "https://www.ridemetro.org/MetroPDFs/Schedules/BusSchedules/n047-Hillcroft.pdf", "vehicle": {"icon": "//maps.gstatic.com/mapfiles/transit/iw2/6/bus2.png", "name": "Bus", "type": "BUS"}}, "num_stops": 26, "trip_short_name": "HILLCROFT"}, "travel_mode": "TRANSIT"}, {"distance": {"text": "1.7 mi", "value": 2673}, "duration": {"text": "7 mins", "value": 412}, "end_location": {"lat": 29.801027, "lng": -95.45922999999999}, "html_instructions": "Bus towards West Belt", "polyline": {"points": "g_xtDtsreQT??`@HDB@F@D?DABA@CDIDSB[@g@BUBM@AN]FGJY@K?MCUCKCCA?OGQAGAE?E@GDQJOPMD[BY@W?aAAY@c@?AVAzAAb@?f@?L?ZAn@?`B?R?f@sBNO@Q@Y?W?K@wA@y@@K?u@?wA@U?O?}@@I?Y?_@?_@@oA@oD@eABM?A?a@?c@?qA@W?w@?cA@s@?c@@_@?uA@a@?OAY?q@@c@?_@?[@cA@a@?U?G?C?E?]@S?S@]@c@?}@@M?w@@]?mA@_B@W?E?e@Aa@EQEWG[OUM[QIG_@Ui@i@e@_@OQQQOMCCc@a@MR{A|BU\\W`@sBtCg@z@a@L{@vA]b@Sd@w@lAYh@OQ"}, "start_location": {"lat": 29.783077, "lng": -95.455467}, "transit_details": {"arrival_stop": {"location": {"lat": 29.801027, "lng": -95.45922999999999}, "name": "Hempstead Rd @ W 18th St"}, "arrival_time": {"text": "5:06pm", "time_zone": "America/Chicago", "value": 1642028812}, "departure_stop": {"location": {"lat": 29.783077, "lng": -95.455467}, "name": "Northwest Transit Center - South Platform"}, "departure_time": {"text": "5:00pm", "time_zone": "America/Chicago", "value": 1642028400}, "headsign": "West Belt", "line": {"agencies": [{"name": "Metropolitan Transit Authority of Harris County", "phone": "1 (713) 635-4000", "url": "http://www.ridemetro.org/"}], "color": "#004080", "name": "Hammerly", "short_name": "58", "text_color": "#ffffff", "url": "https://www.ridemetro.org/MetroPDFs/Schedules/BusSchedules/n058-Hammerly.pdf", "vehicle": {"icon": "//maps.gstatic.com/mapfiles/transit/iw2/6/bus2.png", "name": "Bus", "type": "BUS"}}, "num_stops": 8, "trip_short_name": "HAMMERLY"}, "travel_mode": "TRANSIT"}, {"distance": {"text": "0.5 mi", "value": 738}, "duration": {"text": "10 mins", "value": 587}, "end_location": {"lat": 29.8019199, "lng": -95.45428179999999}, "html_instructions": "Walk to 4400 W 18th St, Houston, TX 77092, USA", "polyline": {"points": "mo{tDdkseQKPKKKAK?I@IB?Q?aA?M?QAO?OM?M@M?mED@[Ae@?g@ASDKP]d@}@Xq@B]QOIIOMEKKAQUGGEIAE?C?A@C@EBEV_@KMNWHMJSRa@Ts@R}@Jy@Hy@?G@Q@a@"}, "start_location": {"lat": 29.8010254, "lng": -95.4592253}, "steps": [{"distance": {"text": "49 ft", "value": 15}, "duration": {"text": "1 min", "value": 11}, "end_location": {"lat": 29.8011512, "lng": -95.4592626}, "html_instructions": "Head <b>northwest</b>", "polyline": {"points": "mo{tDdkseQKPKK"}, "start_location": {"lat": 29.8010254, "lng": -95.4592253}, "travel_mode": "WALKING"}, {"distance": {"text": "102 ft", "value": 31}, "duration": {"text": "1 min", "value": 23}, "end_location": {"lat": 29.8013705, "lng": -95.4592806}, "html_instructions": "Turn <b>right</b> toward <b>W 18th St</b>", "maneuver": "turn-right", "polyline": {"points": "ep{tDjkseQKAK?I@IB"}, "start_location": {"lat": 29.8011512, "lng": -95.4592626}, "travel_mode": "WALKING"}, {"distance": {"text": "240 ft", "value": 73}, "duration": {"text": "1 min", "value": 61}, "end_location": {"lat": 29.8014508, "lng": -95.4585436}, "html_instructions": "Turn <b>right</b> onto <b>W 18th St</b>", "maneuver": "turn-right", "polyline": {"points": "qq{tDnkseQ?Q?aA?M?QAO?OM?"}, "start_location": {"lat": 29.8013705, "lng": -95.4592806}, "travel_mode": "WALKING"}, {"distance": {"text": "440 ft", "value": 134}, "duration": {"text": "2 mins", "value": 127}, "end_location": {"lat": 29.80261729999999, "lng": -95.45858140000001}, "html_instructions": "Turn <b>left</b> onto <b>Mangum Rd</b>", "maneuver": "turn-left", "polyline": {"points": "ar{tDzfseQM@M?mED"}, "start_location": {"lat": 29.8014508, "lng": -95.4585436}, "travel_mode": "WALKING"}, {"distance": {"text": "0.1 mi", "value": 168}, "duration": {"text": "2 mins", "value": 133}, "end_location": {"lat": 29.8021725, "lng": -95.45703209999999}, "html_instructions": "Turn <b>right</b>", "maneuver": "turn-right", "polyline": {"points": "ky{tDbgseQ@[Ae@?g@ASDKP]d@}@Xq@B]"}, "start_location": {"lat": 29.80261729999999, "lng": -95.45858140000001}, "travel_mode": "WALKING"}, {"distance": {"text": "348 ft", "value": 106}, "duration": {"text": "1 min", "value": 80}, "end_location": {"lat": 29.8024852, "lng": -95.4562641}, "html_instructions": "Turn <b>left</b><div style=\"font-size:0.9em\">Partial restricted usage road</div>", "maneuver": "turn-left", "polyline": {"points": "qv{tDl}reQQOIIOMEKKAQUGGEIAE?C?A@C@EBEV_@"}, "start_location": {"lat": 29.8021725, "lng": -95.45703209999999}, "travel_mode": "WALKING"}, {"distance": {"text": "33 ft", "value": 10}, "duration": {"text": "1 min", "value": 8}, "end_location": {"lat": 29.8025494, "lng": -95.456192}, "html_instructions": "Turn <b>left</b><div style=\"font-size:0.9em\">Restricted usage road</div>", "maneuver": "turn-left", "polyline": {"points": "qx{tDrxreQKM"}, "start_location": {"lat": 29.8024852, "lng": -95.4562641}, "travel_mode": "WALKING"}, {"distance": {"text": "0.1 mi", "value": 201}, "duration": {"text": "2 mins", "value": 144}, "end_location": {"lat": 29.8019199, "lng": -95.45428179999999}, "html_instructions": "Turn <b>right</b><div style=\"font-size:0.9em\">Restricted usage road</div><div style=\"font-size:0.9em\">Destination will be on the left</div>", "maneuver": "turn-right", "polyline": {"points": "}x{tDdxreQNWHMJSRa@Ts@R}@Jy@Hy@?G@Q@a@"}, "start_location": {"lat": 29.8025494, "lng": -95.456192}, "travel_mode": "WALKING"}], "travel_mode": "WALKING"}], "traffic_speed_entry": [], "via_waypoint": []}], "overview_polyline": {"points": "s}ltDp{}eQ?f@m@@@tCuEBuC?}B@?jAD?O??aDAqGAeOEuBEm@IsAU}Aa@oBe@aBgBmGwD{M]aBU}BIeACk@N?G??m@@[`A??C?JkA@}@?}FDmA@qAC{AGmASyASk@E{@KkACqHDeEAaBB}C@_G@uB@cD@mGDoB?iB@{LDeEDeE?}ADaBBo@AaF@sC?qBBiB@k@?GIEAUGq@UaAg@kAeB_@q@c@qA}@uEcAoFuAmHkEoUqCgOsAaPQgC]_EUqAQg@Yk@m@{@aDwD_BeB_AcA_CwCwHuIgA_B_@y@Uy@Im@G_AAu@?kAE}IGaRAs@@c@Fu@N_AZeAp@yBRuAF}@BoBBgDNwAHa@Tu@Tg@p@oAf@kA\\uAHs@D}@AiCEcFCs@WyAa@kAi@{@uA_Bk@u@OYa@gAYyAWgDMmAKa@a@mAsBoEa@aA_@y@QLm@DyA@sDD}DDsCAa@?}DBmLHkF@w@?U@?o@Ag@AqB?UY@mB?S?aAEiDBsGD{F@?RiA?iED_DBA@mRHi@Sw@CSKISGOB_B?cCBeCX?t@AbB?BXQ^?rA?d@W?T??`@LFL@HCFMHo@D}@DOVe@Le@Cc@GOQGYCK@YPOPMDu@DyAA}@@CrBAtBAlEoDReJFoVL{DBaD?uGDoEFqDBcD?s@Ks@W{A}@qBmBSQc@a@MRqBzCkCvDg@z@a@L{@vA]b@Sd@w@lAYh@OQKPKKKAU@IB?Q?oAAa@?OM?[@mED@[AmAB_@v@{AXq@B][YUYKAQUMQAIFQV_@KMXe@^u@Ts@^wBHaABs@"}, "summary": "", "warnings": ["Walking directions are in beta. Use caution \u2013 This route may be missing sidewalks or pedestrian paths."], "waypoint_order": []}, {"bounds": {"northeast": {"lat": 29.8026498, "lng": -95.45426839999999}, "southwest": {"lat": 29.7264993, "lng": -95.5144198}}, "copyrights": "Map data \u00a92022", "legs": [{"arrival_time": {"text": "5:16pm", "time_zone": "America/Chicago", "value": 1642029399}, "departure_time": {"text": "4:00pm", "time_zone": "America/Chicago", "value": 1642024814}, "distance": {"text": "9.7 mi", "value": 15656}, "duration": {"text": "1 hour 16 mins", "value": 4585}, "end_address": "4400 W 18th St, Houston, TX 77092, USA", "end_location": {"lat": 29.8019199, "lng": -95.45428179999999}, "start_address": "3601 Dunvale Rd, Houston, TX 77063, USA", "start_location": {"lat": 29.7265018, "lng": -95.51305479999999}, "steps": [{"distance": {"text": "0.3 mi", "value": 431}, "duration": {"text": "6 mins", "value": 332}, "end_location": {"lat": 29.72917, "lng": -95.5144198}, "html_instructions": "Walk to Richmond Ave @ Dunvale Rd", "polyline": {"points": "s}ltDp{}eQ?f@m@@?d@@nB[?yA?G?wABO?U?g@?gA?cB@Y??N?z@"}, "start_location": {"lat": 29.7265018, "lng": -95.51305479999999}, "steps": [{"distance": {"text": "62 ft", "value": 19}, "duration": {"text": "1 min", "value": 14}, "end_location": {"lat": 29.7264993, "lng": -95.5132501}, "html_instructions": "Head <b>west</b> toward <b>Dunvale Rd</b>", "polyline": {"points": "s}ltDp{}eQ?f@"}, "start_location": {"lat": 29.7265018, "lng": -95.51305479999999}, "travel_mode": "WALKING"}, {"distance": {"text": "85 ft", "value": 26}, "duration": {"text": "1 min", "value": 20}, "end_location": {"lat": 29.72673249999999, "lng": -95.5132579}, "html_instructions": "Turn <b>right</b> toward <b>Dunvale Rd</b>", "maneuver": "turn-right", "polyline": {"points": "s}ltDx|}eQm@@"}, "start_location": {"lat": 29.7264993, "lng": -95.5132501}, "travel_mode": "WALKING"}, {"distance": {"text": "249 ft", "value": 76}, "duration": {"text": "1 min", "value": 56}, "end_location": {"lat": 29.7267216, "lng": -95.51400609999999}, "html_instructions": "Turn <b>left</b> toward <b>Dunvale Rd</b>", "maneuver": "turn-left", "polyline": {"points": "a_mtDz|}eQ?d@@nB"}, "start_location": {"lat": 29.72673249999999, "lng": -95.5132579}, "travel_mode": "WALKING"}, {"distance": {"text": "0.2 mi", "value": 277}, "duration": {"text": "3 mins", "value": 208}, "end_location": {"lat": 29.7291696, "lng": -95.5141187}, "html_instructions": "Turn <b>right</b> onto <b>Dunvale Rd</b>", "maneuver": "turn-right", "polyline": {"points": "__mtDpa~eQ[?yA?G?wABO?U?g@?gA?cB@Y??N"}, "start_location": {"lat": 29.7267216, "lng": -95.51400609999999}, "travel_mode": "WALKING"}, {"distance": {"text": "108 ft", "value": 33}, "duration": {"text": "1 min", "value": 34}, "end_location": {"lat": 29.72917, "lng": -95.5144198}, "html_instructions": "Turn <b>left</b> onto <b>Richmond Ave</b>", "maneuver": "turn-left", "polyline": {"points": "inmtDfb~eQ?z@"}, "start_location": {"lat": 29.7291696, "lng": -95.5141187}, "travel_mode": "WALKING"}], "travel_mode": "WALKING"}, {"distance": {"text": "3.2 mi", "value": 5224}, "duration": {"text": "16 mins", "value": 962}, "end_location": {"lat": 29.731787, "lng": -95.461044}, "html_instructions": "Bus towards Eastwood TC", "polyline": {"points": "cnmtDbd~eQO?@cAA}A?wA?mC?GAc@?qA?i@?w@?{@?y@?g@?WA{CAiACk@AOC]AUG}@Ku@Ig@Mu@Sy@Uy@Og@IUMe@Mk@aAeDs@gCACOg@k@oBCK]kAYcAI[Kc@Q}@K_AI}@C]ACA]AECe@?EAe@@Y?e@?_BAwA@cC?g@?[Au@?WAo@?YAm@?UAcB?qB?]CeC?u@?YAI?qAAiAC{D?s@?mAAmC?]?Y?qBAmA?{B@Q?_@Au@?e@@[?_A?S@y@?oC?cD?mBDmCPoBHy@JsA@e@?[?I@iA?S?c@?yB?c@?}@?aC?g@?U?m@?M?SA_AAe@?qA?M?a@@_@?MA{@?kA?mA?i@?cA?yB?E?U?E?]@eA@S?e@@_@@s@?WAoA?qC?kA?w@?c@?o@@g@CaF?kC?eAAw@Ai@?O?E?O?OAM?yA?g@AwA?sA?MAyBAy@?m@AsA?}@?oA?K?i@Ac@?WGkEAGAg@C_@IoBIgAGkACe@?CAICm@Aa@AQAk@As@EyB?u@?_A?AAm@?CAWPC"}, "start_location": {"lat": 29.7291387, "lng": -95.5144174}, "transit_details": {"arrival_stop": {"location": {"lat": 29.731787, "lng": -95.461044}, "name": "Richmond Ave @ Post Oak Blvd"}, "arrival_time": {"text": "4:22pm", "time_zone": "America/Chicago", "value": 1642026120}, "departure_stop": {"location": {"lat": 29.7291387, "lng": -95.5144174}, "name": "Richmond Ave @ Dunvale Rd"}, "departure_time": {"text": "4:05pm", "time_zone": "America/Chicago", "value": 1642025158}, "headsign": "Eastwood TC", "line": {"agencies": [{"name": "Metropolitan Transit Authority of Harris County", "phone": "1 (713) 635-4000", "url": "http://www.ridemetro.org/"}], "color": "#004080", "name": "Richmond", "short_name": "25", "text_color": "#ffffff", "url": "https://www.ridemetro.org/MetroPDFs/Schedules/BusSchedules/n025-Richmond.pdf", "vehicle": {"icon": "//maps.gstatic.com/mapfiles/transit/iw2/6/bus2.png", "name": "Bus", "type": "BUS"}}, "num_stops": 20, "trip_short_name": "RICHMOND"}, "travel_mode": "TRANSIT"}, {"distance": {"text": "262 ft", "value": 80}, "duration": {"text": "2 mins", "value": 97}, "end_location": {"lat": 29.7323059, "lng": -95.4605332}, "html_instructions": "Walk to Richmond NB", "polyline": {"points": "__ntDnvseQ@LQEICQG?O@g@?QKG]KIC"}, "start_location": {"lat": 29.7318356, "lng": -95.4610443}, "steps": [{"distance": {"text": "52 ft", "value": 16}, "duration": {"text": "1 min", "value": 21}, "end_location": {"lat": 29.7320559, "lng": -95.46093909999999}, "html_instructions": "Head <b>north</b> on <b>Southwest Fwy</b> toward <b>Richmond Ave</b>", "polyline": {"points": "__ntDnvseQ@LQEICQG?O"}, "start_location": {"lat": 29.7318356, "lng": -95.4610443}, "travel_mode": "WALKING"}, {"distance": {"text": "89 ft", "value": 27}, "duration": {"text": "1 min", "value": 39}, "end_location": {"lat": 29.7320542, "lng": -95.4606476}, "html_instructions": "Turn <b>right</b> onto <b>Richmond Ave</b>", "maneuver": "turn-right", "polyline": {"points": "k`ntDzuseQ@g@?Q"}, "start_location": {"lat": 29.7320559, "lng": -95.46093909999999}, "travel_mode": "WALKING"}, {"distance": {"text": "121 ft", "value": 37}, "duration": {"text": "1 min", "value": 37}, "end_location": {"lat": 29.7323059, "lng": -95.4605332}, "html_instructions": "Turn <b>left</b> onto <b>Post Oak Blvd</b><div style=\"font-size:0.9em\">Destination will be on the right</div>", "maneuver": "turn-left", "polyline": {"points": "i`ntD`tseQKG]KIC"}, "start_location": {"lat": 29.7320542, "lng": -95.4606476}, "travel_mode": "WALKING"}], "travel_mode": "WALKING"}, {"distance": {"text": "4.0 mi", "value": 6371}, "duration": {"text": "21 mins", "value": 1260}, "end_location": {"lat": 29.783398, "lng": -95.454597}, "html_instructions": "Bus towards Northwest TC", "polyline": {"points": "}antDhsseQAFe@K_@EGAoBMmAB{@@M@mAA_B?iADK@}@D{@Fc@Do@?[?[?}A@K?a@Ac@A[BE?W?[AwA@e@Ay@C]AqACcABW?S?c@AO?E@WBqA`@[H_@H[FWDWBE@Q@Q@m@AeA@k@?Q?yA?w@@w@?y@B}@@Q@m@?_@?w@@eB@@TuCDoBD}@@wBBoCBO?CA{ENm@?q@AY?[Ic@GUEs@KSEg@Ow@[WEe@Yg@]YSWSe@c@W]SSAEUYCEMUS]OWSe@IWSk@iAwDIU@[Qi@[gAMe@GYKg@GgA?W?SP??u@AC?C?OQGIAG?A?S@G?I?_A@kBBK?kB@uC@W?gB?g@?}B?Q?wA?u@Be@Bg@JwAXo@J{@@yA@sB?S@}@@iAFu@B{@@kBFyADcCJeCJkFN_CHeCBG?gA@eADY@U@mD@_ABcBDI?qA@c@@}@@A?qA?kADi@D_A?y@@C?oACaA?aA@mA@o@Bu@FK?i@@s@BS?G?}@AC?oA?yA?mBA_C?S?iA?eBDcB?kA@sA@sA@yADC?wA@s@@O?M?O?w@?s@?e@@{@@i@@o@@y@Bs@?@SDoA@oA@Q?gA@e@?Y@cBv@@J?FAD?AG"}, "start_location": {"lat": 29.732309, "lng": -95.460533}, "transit_details": {"arrival_stop": {"location": {"lat": 29.783398, "lng": -95.454597}, "name": "Northwest Transit Center - METRORapid Platform"}, "arrival_time": {"text": "4:51pm", "time_zone": "America/Chicago", "value": 1642027860}, "departure_stop": {"location": {"lat": 29.732309, "lng": -95.460533}, "name": "Richmond NB"}, "departure_time": {"text": "4:30pm", "time_zone": "America/Chicago", "value": 1642026600}, "headsign": "Northwest TC", "line": {"agencies": [{"name": "Metropolitan Transit Authority of Harris County", "phone": "1 (713) 635-4000", "url": "http://www.ridemetro.org/"}], "color": "#000000", "name": "METRORapid Silver Line", "short_name": "Silver", "text_color": "#ffffff", "url": "https://www.ridemetro.org/MetroPDFs/Schedules/BusSchedules/433-Silver-Line.pdf", "vehicle": {"icon": "//maps.gstatic.com/mapfiles/transit/iw2/6/bus2.png", "name": "Bus", "type": "BUS"}}, "num_stops": 8, "trip_short_name": "SILVER LINE"}, "travel_mode": "TRANSIT"}, {"distance": {"text": "456 ft", "value": 139}, "duration": {"text": "2 mins", "value": 102}, "end_location": {"lat": 29.7827161, "lng": -95.4551537}, "html_instructions": "Walk to Northwest Transit Center - South Platform", "polyline": {"points": "gaxtDfnreQD?BAV?D?J?N@LDBBELNJLL\\LJAEHCNET"}, "start_location": {"lat": 29.7833985, "lng": -95.4546003}, "steps": [{"distance": {"text": "335 ft", "value": 102}, "duration": {"text": "1 min", "value": 76}, "end_location": {"lat": 29.78264219999999, "lng": -95.4549134}, "html_instructions": "Head <b>south</b>", "polyline": {"points": "gaxtDfnreQD?BAV?D?J?N@LDBBELNJLL\\LJA"}, "start_location": {"lat": 29.7833985, "lng": -95.4546003}, "travel_mode": "WALKING"}, {"distance": {"text": "121 ft", "value": 37}, "duration": {"text": "1 min", "value": 26}, "end_location": {"lat": 29.7827161, "lng": -95.4551537}, "html_instructions": "Sharp <b>right</b>", "maneuver": "turn-sharp-right", "polyline": {"points": "o|wtDdpreQEHCNET"}, "start_location": {"lat": 29.78264219999999, "lng": -95.4549134}, "travel_mode": "WALKING"}], "travel_mode": "WALKING"}, {"distance": {"text": "1.7 mi", "value": 2673}, "duration": {"text": "7 mins", "value": 412}, "end_location": {"lat": 29.801027, "lng": -95.45922999999999}, "html_instructions": "Bus towards West Belt", "polyline": {"points": "g_xtDtsreQT??`@HDB@F@D?DABA@CDIDSB[@g@BUBM@AN]FGJY@K?MCUCKCCA?OGQAGAE?E@GDQJOPMD[BY@W?aAAY@c@?AVAzAAb@?f@?L?ZAn@?`B?R?f@sBNO@Q@Y?W?K@wA@y@@K?u@?wA@U?O?}@@I?Y?_@?_@@oA@oD@eABM?A?a@?c@?qA@W?w@?cA@s@?c@@_@?uA@a@?OAY?q@@c@?_@?[@cA@a@?U?G?C?E?]@S?S@]@c@?}@@M?w@@]?mA@_B@W?E?e@Aa@EQEWG[OUM[QIG_@Ui@i@e@_@OQQQOMCCc@a@MR{A|BU\\W`@sBtCg@z@a@L{@vA]b@Sd@w@lAYh@OQ"}, "start_location": {"lat": 29.783077, "lng": -95.455467}, "transit_details": {"arrival_stop": {"location": {"lat": 29.801027, "lng": -95.45922999999999}, "name": "Hempstead Rd @ W 18th St"}, "arrival_time": {"text": "5:06pm", "time_zone": "America/Chicago", "value": 1642028812}, "departure_stop": {"location": {"lat": 29.783077, "lng": -95.455467}, "name": "Northwest Transit Center - South Platform"}, "departure_time": {"text": "5:00pm", "time_zone": "America/Chicago", "value": 1642028400}, "headsign": "West Belt", "line": {"agencies": [{"name": "Metropolitan Transit Authority of Harris County", "phone": "1 (713) 635-4000", "url": "http://www.ridemetro.org/"}], "color": "#004080", "name": "Hammerly", "short_name": "58", "text_color": "#ffffff", "url": "https://www.ridemetro.org/MetroPDFs/Schedules/BusSchedules/n058-Hammerly.pdf", "vehicle": {"icon": "//maps.gstatic.com/mapfiles/transit/iw2/6/bus2.png", "name": "Bus", "type": "BUS"}}, "num_stops": 8, "trip_short_name": "HAMMERLY"}, "travel_mode": "TRANSIT"}, {"distance": {"text": "0.5 mi", "value": 738}, "duration": {"text": "10 mins", "value": 587}, "end_location": {"lat": 29.8019199, "lng": -95.45428179999999}, "html_instructions": "Walk to 4400 W 18th St, Houston, TX 77092, USA", "polyline": {"points": "mo{tDdkseQKPKKKAK?I@IB?Q?aA?M?QAO?OM?M@M?mED@[Ae@?g@ASDKP]d@}@Xq@B]QOIIOMEKKAQUGGEIAE?C?A@C@EBEV_@KMNWHMJSRa@Ts@R}@Jy@Hy@?G@Q@a@"}, "start_location": {"lat": 29.8010254, "lng": -95.4592253}, "steps": [{"distance": {"text": "49 ft", "value": 15}, "duration": {"text": "1 min", "value": 11}, "end_location": {"lat": 29.8011512, "lng": -95.4592626}, "html_instructions": "Head <b>northwest</b>", "polyline": {"points": "mo{tDdkseQKPKK"}, "start_location": {"lat": 29.8010254, "lng": -95.4592253}, "travel_mode": "WALKING"}, {"distance": {"text": "102 ft", "value": 31}, "duration": {"text": "1 min", "value": 23}, "end_location": {"lat": 29.8013705, "lng": -95.4592806}, "html_instructions": "Turn <b>right</b> toward <b>W 18th St</b>", "maneuver": "turn-right", "polyline": {"points": "ep{tDjkseQKAK?I@IB"}, "start_location": {"lat": 29.8011512, "lng": -95.4592626}, "travel_mode": "WALKING"}, {"distance": {"text": "240 ft", "value": 73}, "duration": {"text": "1 min", "value": 61}, "end_location": {"lat": 29.8014508, "lng": -95.4585436}, "html_instructions": "Turn <b>right</b> onto <b>W 18th St</b>", "maneuver": "turn-right", "polyline": {"points": "qq{tDnkseQ?Q?aA?M?QAO?OM?"}, "start_location": {"lat": 29.8013705, "lng": -95.4592806}, "travel_mode": "WALKING"}, {"distance": {"text": "440 ft", "value": 134}, "duration": {"text": "2 mins", "value": 127}, "end_location": {"lat": 29.80261729999999, "lng": -95.45858140000001}, "html_instructions": "Turn <b>left</b> onto <b>Mangum Rd</b>", "maneuver": "turn-left", "polyline": {"points": "ar{tDzfseQM@M?mED"}, "start_location": {"lat": 29.8014508, "lng": -95.4585436}, "travel_mode": "WALKING"}, {"distance": {"text": "0.1 mi", "value": 168}, "duration": {"text": "2 mins", "value": 133}, "end_location": {"lat": 29.8021725, "lng": -95.45703209999999}, "html_instructions": "Turn <b>right</b>", "maneuver": "turn-right", "polyline": {"points": "ky{tDbgseQ@[Ae@?g@ASDKP]d@}@Xq@B]"}, "start_location": {"lat": 29.80261729999999, "lng": -95.45858140000001}, "travel_mode": "WALKING"}, {"distance": {"text": "348 ft", "value": 106}, "duration": {"text": "1 min", "value": 80}, "end_location": {"lat": 29.8024852, "lng": -95.4562641}, "html_instructions": "Turn <b>left</b><div style=\"font-size:0.9em\">Partial restricted usage road</div>", "maneuver": "turn-left", "polyline": {"points": "qv{tDl}reQQOIIOMEKKAQUGGEIAE?C?A@C@EBEV_@"}, "start_location": {"lat": 29.8021725, "lng": -95.45703209999999}, "travel_mode": "WALKING"}, {"distance": {"text": "33 ft", "value": 10}, "duration": {"text": "1 min", "value": 8}, "end_location": {"lat": 29.8025494, "lng": -95.456192}, "html_instructions": "Turn <b>left</b><div style=\"font-size:0.9em\">Restricted usage road</div>", "maneuver": "turn-left", "polyline": {"points": "qx{tDrxreQKM"}, "start_location": {"lat": 29.8024852, "lng": -95.4562641}, "travel_mode": "WALKING"}, {"distance": {"text": "0.1 mi", "value": 201}, "duration": {"text": "2 mins", "value": 144}, "end_location": {"lat": 29.8019199, "lng": -95.45428179999999}, "html_instructions": "Turn <b>right</b><div style=\"font-size:0.9em\">Restricted usage road</div><div style=\"font-size:0.9em\">Destination will be on the left</div>", "maneuver": "turn-right", "polyline": {"points": "}x{tDdxreQNWHMJSRa@Ts@R}@Jy@Hy@?G@Q@a@"}, "start_location": {"lat": 29.8025494, "lng": -95.456192}, "travel_mode": "WALKING"}], "travel_mode": "WALKING"}], "traffic_speed_entry": [], "via_waypoint": []}], "overview_polyline": {"points": "s}ltDp{}eQ?f@m@@@tCuEBuC?}B@?jAD?O??aDAqGAeOEuBEm@IsAU}Aa@oBe@aBgBmGwD{M]aBU}BIeACk@?_A?aJE_HGePG_U?sL@aK?mBDmCZiDLyB?e@@{F?qJCeE?kC?cLB}C@{DA_WCwDAs@AmHCoFAmFIqHQ_EU}DGyAKkF?wBAq@AWPCI?@L[IQG?O@y@s@WAFe@Kg@GoBMmABiABmDAuAFyBLsADaD@eACa@BqDAwAEqACcABk@?s@A]DmBj@sAVaAHqD?cGD}CB}CB@TuCDmDFgGFSA{ENm@?kAA_AQiAQ{@Uw@[WEmAw@q@g@e@c@W]UYY_@a@s@c@}@qBqG@[Qi@i@mBSaAG_B?SP?Ay@?C?OQGQAU@}DDeQBwA?u@Be@Bg@JgCd@uCBgC@gCHqBDeELiGVkJX{GJo@BmFDcFH}EFgDFqCCoCB{CLmC@{GAsC?oDDwIDiFHeB?_EDiBDs@?@SF_D@yA@_A@cBv@@RAD?AGD?ZAP?N@LDBBEL\\X\\LJAIXETgA~@T??`@LFL@HCFMHo@D}@DOVe@Le@Cc@GOQGYCK@YPOPMDu@DyAA}@@CrBAtBAlEoDRuDDaHBwLHaKDaD?qCB_EBeIHcD?s@Ks@W{A}@qBmBSQc@a@MRqBzCkCvDg@z@a@L{@vA]b@Sd@w@lAYh@OQKPKKKAU@IB?Q?oAAa@?OM?[@mED@[AmAB_@v@{AXq@B][YUYKAQUMQAIFQV_@KMXe@^u@Ts@^wBHaABs@"}, "summary": "", "warnings": ["Walking directions are in beta. Use caution \u2013 This route may be missing sidewalks or pedestrian paths."], "waypoint_order": []}, {"bounds": {"northeast": {"lat": 29.803817, "lng": -95.45426839999999}, "southwest": {"lat": 29.7264993, "lng": -95.51402759999999}}, "copyrights": "Map data \u00a92022", "legs": [{"arrival_time": {"text": "5:36pm", "time_zone": "America/Chicago", "value": 1642030584}, "departure_time": {"text": "4:16pm", "time_zone": "America/Chicago", "value": 1642025811}, "distance": {"text": "10.1 mi", "value": 16197}, "duration": {"text": "1 hour 20 mins", "value": 4773}, "end_address": "4400 W 18th St, Houston, TX 77092, USA", "end_location": {"lat": 29.8019199, "lng": -95.45428179999999}, "start_address": "3601 Dunvale Rd, Houston, TX 77063, USA", "start_location": {"lat": 29.7265018, "lng": -95.51305479999999}, "steps": [{"distance": {"text": "1.3 mi", "value": 2034}, "duration": {"text": "25 mins", "value": 1524}, "end_location": {"lat": 29.7283574, "lng": -95.50103969999999}, "html_instructions": "Walk to Hillcroft Ave @ Skyline Dr", "polyline": {"points": "s}ltDp{}eQ?f@m@@?d@@nB[?yA?G?wABO?U?AiA?K?{BAo@?m@?GCACCICiC@I?}@AG??c@?{B?w@?{@Ay@?w@?O?sCCiAAk@AQE]AUG}@Kw@Ie@Im@EOQs@Uy@Og@So@EOG[EO{@yCEOq@_CACOg@k@oB]oAEOW{@I[Ia@Os@COIy@K{@Z?\\?T?FC@A@C?C@sA?C?ABG~AC@C?I?OF??Q?I?OjBCbBAN?pAAL?n@?r@A"}, "start_location": {"lat": 29.7265018, "lng": -95.51305479999999}, "steps": [{"distance": {"text": "62 ft", "value": 19}, "duration": {"text": "1 min", "value": 14}, "end_location": {"lat": 29.7264993, "lng": -95.5132501}, "html_instructions": "Head <b>west</b> toward <b>Dunvale Rd</b>", "polyline": {"points": "s}ltDp{}eQ?f@"}, "start_location": {"lat": 29.7265018, "lng": -95.51305479999999}, "travel_mode": "WALKING"}, {"distance": {"text": "85 ft", "value": 26}, "duration": {"text": "1 min", "value": 20}, "end_location": {"lat": 29.72673249999999, "lng": -95.5132579}, "html_instructions": "Turn <b>right</b> toward <b>Dunvale Rd</b>", "maneuver": "turn-right", "polyline": {"points": "s}ltDx|}eQm@@"}, "start_location": {"lat": 29.7264993, "lng": -95.5132501}, "travel_mode": "WALKING"}, {"distance": {"text": "249 ft", "value": 76}, "duration": {"text": "1 min", "value": 56}, "end_location": {"lat": 29.7267216, "lng": -95.51400609999999}, "html_instructions": "Turn <b>left</b> toward <b>Dunvale Rd</b>", "maneuver": "turn-left", "polyline": {"points": "a_mtDz|}eQ?d@@nB"}, "start_location": {"lat": 29.72673249999999, "lng": -95.5132579}, "travel_mode": "WALKING"}, {"distance": {"text": "459 ft", "value": 140}, "duration": {"text": "2 mins", "value": 107}, "end_location": {"lat": 29.727982, "lng": -95.51402759999999}, "html_instructions": "Turn <b>right</b> onto <b>Dunvale Rd</b>", "maneuver": "turn-right", "polyline": {"points": "__mtDpa~eQ[?yA?G?wABO?U?"}, "start_location": {"lat": 29.7267216, "lng": -95.51400609999999}, "travel_mode": "WALKING"}, {"distance": {"text": "0.2 mi", "value": 291}, "duration": {"text": "4 mins", "value": 210}, "end_location": {"lat": 29.7291786, "lng": -95.5124237}, "html_instructions": "Turn <b>right</b>", "maneuver": "turn-right", "polyline": {"points": "{fmtDta~eQAiA?K?{BAo@?m@?GCACCICiC@I?}@AG?"}, "start_location": {"lat": 29.727982, "lng": -95.51402759999999}, "travel_mode": "WALKING"}, {"distance": {"text": "0.7 mi", "value": 1051}, "duration": {"text": "13 mins", "value": 780}, "end_location": {"lat": 29.7314753, "lng": -95.50203739999999}, "html_instructions": "Turn <b>right</b> onto <b>Richmond Ave</b>", "maneuver": "turn-right", "polyline": {"points": "knmtDrw}eQ?c@?{B?w@?{@Ay@?w@?O?sCCiAAk@AQE]AUG}@Kw@Ie@Im@EOQs@Uy@Og@So@EOG[EO{@yCEOq@_CACOg@k@oB]oAEOW{@I[Ia@Os@COIy@K{@"}, "start_location": {"lat": 29.7291786, "lng": -95.5124237}, "travel_mode": "WALKING"}, {"distance": {"text": "351 ft", "value": 107}, "duration": {"text": "1 min", "value": 80}, "end_location": {"lat": 29.7309924, "lng": -95.5014829}, "html_instructions": "Turn <b>right</b> toward <b>Beverly Hill St</b>", "maneuver": "turn-right", "polyline": {"points": "w|mtDvv{eQZ?\\?T?FC@A@C?C@sA?C?ABG"}, "start_location": {"lat": 29.7314753, "lng": -95.50203739999999}, "travel_mode": "WALKING"}, {"distance": {"text": "174 ft", "value": 53}, "duration": {"text": "1 min", "value": 38}, "end_location": {"lat": 29.7305063, "lng": -95.501465}, "html_instructions": "Turn <b>right</b> toward <b>Beverly Hill St</b>", "maneuver": "turn-right", "polyline": {"points": "uymtDfs{eQ~AC"}, "start_location": {"lat": 29.7309924, "lng": -95.5014829}, "travel_mode": "WALKING"}, {"distance": {"text": "108 ft", "value": 33}, "duration": {"text": "1 min", "value": 35}, "end_location": {"lat": 29.7304575, "lng": -95.50108569999999}, "html_instructions": "Turn <b>left</b> onto <b>Beverly Hill St</b>", "maneuver": "turn-left", "polyline": {"points": "uvmtDbs{eQ@C?I?OF??Q?I?O"}, "start_location": {"lat": 29.7305063, "lng": -95.501465}, "travel_mode": "WALKING"}, {"distance": {"text": "0.1 mi", "value": 238}, "duration": {"text": "3 mins", "value": 184}, "end_location": {"lat": 29.7283574, "lng": -95.50103969999999}, "html_instructions": "Turn <b>right</b> onto <b>Hillcroft Ave</b>", "maneuver": "turn-right", "polyline": {"points": "kvmtDxp{eQjBCbBAN?pAAL?n@?r@A"}, "start_location": {"lat": 29.7304575, "lng": -95.50108569999999}, "travel_mode": "WALKING"}], "travel_mode": "WALKING"}, {"distance": {"text": "6.3 mi", "value": 10139}, "duration": {"text": "26 mins", "value": 1588}, "end_location": {"lat": 29.783077, "lng": -95.455467}, "html_instructions": "Bus towards Northwest TC", "polyline": {"points": "gimtDhp{eQ?Ls@@w@?_B@kBB_A?q@@_@?eA@i@?]?m@@[?a@?s@@aA@aAAeABS?y@@i@Ag@AG?QAu@CKAKA_@GMCSEKCk@IKCUAIAKAKAI?a@EMAGCC?KAO?MAa@?S?{@@C?i@@cA?_@@m@?a@?eB?}@?I?WAgA@Y@aAA{ABcA?I?sC@]?kA@_@?E?C?K?yABo@?MAkCBw@@g@?a@?YA]?M?i@@]?O@q@?I?m@?gA@{BBiE?iBB{A@eE?}ADG?yABW?WA_@@a@?sA?kA?gBAk@@sA@]@y@@o@?k@?GIAAC?MEGAEAMEICSIKEGEQK[Oa@m@CC[e@IMS[?AEIEIKWWy@WsAe@aCUoAES_@qBGYKk@o@mDQ}@GUCOY{AScAI]y@qE]gBY{A]kBUgAG_@i@uCk@{CKg@ACGe@G[Gi@?CGo@AOASc@iFC_@WuCG}@CUC[AWW{CEc@Ku@I[GSISIQOYQW[c@iAmAwAiBc@i@{@{@QSm@o@gAsACE_@c@SYyAaBi@k@IKs@w@s@y@KM]a@WYq@_AKQGKAAO[O]Qs@CEEYCSC_@C_@Aa@?S?Q?y@Ay@?uA?ICcEAcD?]AaFC}DCY@Y@O?S@G?G@IB[Fc@F[Nk@JYLa@FQNc@Ja@He@Ho@B]B_@@S@Y?Y?g@?Y?aB@W@SFw@F_@?AH_@Tu@Tg@b@w@LW@?Pc@FQJUFUHWBMFYBS@E@G@Q?IBS?Q@M?OAq@?i@?]AoAAwB?AAY?KAEA]?CAICOE[Kc@Ma@CGGOGQEGIOEISYUYCCYYa@g@QS?AOQIMMYA?Wk@I[IYIc@?CEWCUCQCe@KyAI{@CQEQEOKYUs@Ue@}AiDUi@KW_@y@QLSBY@c@?u@@m@@eCB}DDsCAK?U?}B@_A@yA@wEBeBBU?e@AW?cDBI?K?k@?U@?o@?WAO?qAA_@?UY@oA?]?A?A?G?G?SAEAWAO?Y?c@?c@@gA@a@?kB@c@@aB@m@@}@?kB?c@??RiA?eBDcB?kA@sA@A??@gA?gFDkHBQ?i@Sw@CSKISGOB_B?yA?i@BeCX?V?\\A^?\\?@?b@?BXQ^?f@?j@?d@W?"}, "start_location": {"lat": 29.728358, "lng": -95.50101199999999}, "transit_details": {"arrival_stop": {"location": {"lat": 29.783077, "lng": -95.455467}, "name": "Northwest Transit Center - South Platform"}, "arrival_time": {"text": "5:09pm", "time_zone": "America/Chicago", "value": 1642028940}, "departure_stop": {"location": {"lat": 29.728358, "lng": -95.50101199999999}, "name": "Hillcroft Ave @ Skyline Dr"}, "departure_time": {"text": "4:42pm", "time_zone": "America/Chicago", "value": 1642027352}, "headsign": "Northwest TC", "line": {"agencies": [{"name": "Metropolitan Transit Authority of Harris County", "phone": "1 (713) 635-4000", "url": "http://www.ridemetro.org/"}], "color": "#004080", "name": "Hillcroft", "short_name": "47", "text_color": "#ffffff", "url": "https://www.ridemetro.org/MetroPDFs/Schedules/BusSchedules/n047-Hillcroft.pdf", "vehicle": {"icon": "//maps.gstatic.com/mapfiles/transit/iw2/6/bus2.png", "name": "Bus", "type": "BUS"}}, "num_stops": 28, "trip_short_name": "HILLCROFT"}, "travel_mode": "TRANSIT"}, {"distance": {"text": "0.2 mi", "value": 263}, "duration": {"text": "3 mins", "value": 192}, "end_location": {"lat": 29.7837801, "lng": -95.4554653}, "html_instructions": "Walk to Northwest Transit Center - North Platform", "polyline": {"points": "_}wtDtqreQDUBODIK@]MMMECOKICKAK@E?U?E?_@@m@?AxAAX?f@"}, "start_location": {"lat": 29.7827161, "lng": -95.4551537}, "steps": [{"distance": {"text": "121 ft", "value": 37}, "duration": {"text": "1 min", "value": 26}, "end_location": {"lat": 29.78264219999999, "lng": -95.4549134}, "html_instructions": "Head <b>east</b>", "polyline": {"points": "_}wtDtqreQDUBODI"}, "start_location": {"lat": 29.7827161, "lng": -95.4551537}, "travel_mode": "WALKING"}, {"distance": {"text": "482 ft", "value": 147}, "duration": {"text": "2 mins", "value": 109}, "end_location": {"lat": 29.7837613, "lng": -95.45468609999999}, "html_instructions": "Sharp <b>left</b> toward <b>Old Katy Rd</b>", "maneuver": "turn-sharp-left", "polyline": {"points": "o|wtDdpreQK@]MMMECOKICKAK@E?U?E?_@@m@?"}, "start_location": {"lat": 29.78264219999999, "lng": -95.4549134}, "travel_mode": "WALKING"}, {"distance": {"text": "259 ft", "value": 79}, "duration": {"text": "1 min", "value": 57}, "end_location": {"lat": 29.7837801, "lng": -95.4554653}, "html_instructions": "Turn <b>left</b> onto <b>Old Katy Rd</b>", "maneuver": "turn-left", "polyline": {"points": "ocxtDxnreQAxAAX?f@"}, "start_location": {"lat": 29.7837613, "lng": -95.45468609999999}, "travel_mode": "WALKING"}], "travel_mode": "WALKING"}, {"distance": {"text": "2.0 mi", "value": 3143}, "duration": {"text": "9 mins", "value": 523}, "end_location": {"lat": 29.803817, "lng": -95.458625}, "html_instructions": "Bus towards Dacoma Shuttle", "polyline": {"points": "w~wtDvwreQRwAF@D?DABA@CDIDSB[@g@BUBM@AN]FGJY@K?MCUCKCCA?OGQAGAE?E@GDQJOPMD[BY@W?aAAY@c@?AVAzAAb@?f@?L?ZAn@?`B?R?f@sBNO@Q@Y?W?K@wA@y@@K?u@?wA@U?O?}@@I?Y?_@?_@@oA@oD@eABM?A?a@?c@?qA@W?w@?cA@s@?c@@_@?uA@a@?OAY?q@@c@?_@?[@cA@a@?U?G?C?E?]@S?S@]@c@?}@@M?w@@]?mA@_B@W?E?e@Aa@EQEWG[OUM[QIG_@Ui@i@e@_@OQQQOMCCc@a@MR{A|BU\\W`@sBtCg@z@a@L{@vA]b@Sd@w@lAYh@OVk@r@Yj@EsB?]@aAAU?a@[@uEDaA@gAD_A@e@??I"}, "start_location": {"lat": 29.7830001, "lng": -95.4561157}, "transit_details": {"arrival_stop": {"location": {"lat": 29.803817, "lng": -95.458625}, "name": "Mangum Rd @ W 20th St"}, "arrival_time": {"text": "5:28pm", "time_zone": "America/Chicago", "value": 1642030123}, "departure_stop": {"location": {"lat": 29.7830001, "lng": -95.4561157}, "name": "Northwest Transit Center - North Platform"}, "departure_time": {"text": "5:20pm", "time_zone": "America/Chicago", "value": 1642029600}, "headsign": "Dacoma Shuttle", "line": {"agencies": [{"name": "Metropolitan Transit Authority of Harris County", "phone": "1 (713) 635-4000", "url": "http://www.ridemetro.org/"}], "color": "#004080", "name": "Dacoma", "short_name": "89", "text_color": "#ffffff", "url": "https://www.ridemetro.org/MetroPDFs/Schedules/BusSchedules/n089-Dacoma.pdf", "vehicle": {"icon": "//maps.gstatic.com/mapfiles/transit/iw2/6/bus2.png", "name": "Bus", "type": "BUS"}}, "num_stops": 9, "trip_short_name": "DACOMA"}, "travel_mode": "TRANSIT"}, {"distance": {"text": "0.4 mi", "value": 618}, "duration": {"text": "8 mins", "value": 461}, "end_location": {"lat": 29.8019199, "lng": -95.45428179999999}, "html_instructions": "Walk to 4400 W 18th St, Houston, TX 77092, USA", "polyline": {"points": "{`|tDlgseQd@A~@AdACbAA@[Ae@?g@ASDKP]d@}@Xq@B]QOIIOMEKKAQUGGEIAE?C?A@C@EBEV_@KMNWHMJSRa@Ts@R}@Jy@Hy@?G@Q@a@"}, "start_location": {"lat": 29.8038169, "lng": -95.458628}, "steps": [{"distance": {"text": "436 ft", "value": 133}, "duration": {"text": "2 mins", "value": 96}, "end_location": {"lat": 29.80261729999999, "lng": -95.45858140000001}, "html_instructions": "Head <b>south</b> on <b>Mangum Rd</b>", "polyline": {"points": "{`|tDlgseQd@A~@AdACbAA"}, "start_location": {"lat": 29.8038169, "lng": -95.458628}, "travel_mode": "WALKING"}, {"distance": {"text": "0.1 mi", "value": 168}, "duration": {"text": "2 mins", "value": 133}, "end_location": {"lat": 29.8021725, "lng": -95.45703209999999}, "html_instructions": "Turn <b>left</b>", "maneuver": "turn-left", "polyline": {"points": "ky{tDbgseQ@[Ae@?g@ASDKP]d@}@Xq@B]"}, "start_location": {"lat": 29.80261729999999, "lng": -95.45858140000001}, "travel_mode": "WALKING"}, {"distance": {"text": "348 ft", "value": 106}, "duration": {"text": "1 min", "value": 80}, "end_location": {"lat": 29.8024852, "lng": -95.4562641}, "html_instructions": "Turn <b>left</b><div style=\"font-size:0.9em\">Partial restricted usage road</div>", "maneuver": "turn-left", "polyline": {"points": "qv{tDl}reQQOIIOMEKKAQUGGEIAE?C?A@C@EBEV_@"}, "start_location": {"lat": 29.8021725, "lng": -95.45703209999999}, "travel_mode": "WALKING"}, {"distance": {"text": "33 ft", "value": 10}, "duration": {"text": "1 min", "value": 8}, "end_location": {"lat": 29.8025494, "lng": -95.456192}, "html_instructions": "Turn <b>left</b><div style=\"font-size:0.9em\">Restricted usage road</div>", "maneuver": "turn-left", "polyline": {"points": "qx{tDrxreQKM"}, "start_location": {"lat": 29.8024852, "lng": -95.4562641}, "travel_mode": "WALKING"}, {"distance": {"text": "0.1 mi", "value": 201}, "duration": {"text": "2 mins", "value": 144}, "end_location": {"lat": 29.8019199, "lng": -95.45428179999999}, "html_instructions": "Turn <b>right</b><div style=\"font-size:0.9em\">Restricted usage road</div><div style=\"font-size:0.9em\">Destination will be on the left</div>", "maneuver": "turn-right", "polyline": {"points": "}x{tDdxreQNWHMJSRa@Ts@R}@Jy@Hy@?G@Q@a@"}, "start_location": {"lat": 29.8025494, "lng": -95.456192}, "travel_mode": "WALKING"}], "travel_mode": "WALKING"}], "traffic_speed_entry": [], "via_waypoint": []}], "overview_polyline": {"points": "s}ltDp{}eQ?f@m@@@tCuEBe@?AuAAaFGEsCAgAAG??c@?sDAuBCeHKqBSuBSsAWcAe@aBg@kBuEePa@wAYuAMiAK{@Z?r@?HEB_BBI~AC@C?YF??Q?YnEE~CAr@A?E?Ls@@wC@kDBaEBiC@}FDmA@qAC{AGmASyASk@E{@KkACqHDeEAaBB}C@_G@uB@cD@mGDoB?iB@{LDeEDeE?}ADaBBo@AaF@sC?qBBiB@k@?GIEAUGq@UaAg@kAeB_@q@c@qA}@uEcAoFuAmHkEoUqCgOsAaPQgC]_EUqAQg@Yk@m@{@aDwD_BeB_AcA_CwCwHuIgA_B_@y@Uy@Im@G_AAu@?kAE}IGaRAs@@c@Fu@N_AZeAp@yBRuAF}@BoBBgDNwAHa@Tu@Tg@p@oAf@kA\\uAHs@D}@AiCEcFCs@WyAa@kAi@{@uA_Bk@u@OYa@gAYyAWgDMmAKa@a@mAsBoEa@aA_@y@QLm@DyA@sDD}DDsCAa@?}DBmLHkF@w@?U@?o@Ag@AqB?UY@mB?S?aAEiDBsGD{F@?RiA?iED_DBA@mRHi@Sw@CSKISGOB_B?cCBeCX?t@AbB?BXQ^?rA?d@W?fA_ADUHYK@]MSQYOs@?e@@m@?AxAA`AzC`CRwAL@HCFMHo@D}@DOVe@Le@Cc@GOQGYCK@YPOPMDu@DwC?E~DAzD?z@cCPoABsEB_HDsIFyC@cKDaHBkCDkKFk@As@Ks@Wq@_@i@]oAiAu@u@c@a@MRqBzCkCvDg@z@a@L{@vA]b@Sd@w@lAi@`Ak@r@Yj@EqC?wA?a@[@wGFgCFe@??Id@?dCEbAA@[AmAB_@v@{AXq@B][YUYKAQUMQAIFQV_@KMXe@^u@Ts@^wBHaABs@"}, "summary": "", "warnings": ["Walking directions are in beta. Use caution \u2013 This route may be missing sidewalks or pedestrian paths."], "waypoint_order": []}], "status": "OK"}