{"geocoded_waypoints": [{"geocoder_status": "OK", "place_id": "ChIJNaiNcGrCQIYRQ_DG6J0moKU", "types": ["establishment", "point_of_interest", "primary_school", "school"]}, {"geocoder_status": "OK", "place_id": "ChIJ9_tphxzHQIYRIMyPy_d3VZU", "types": ["establishment", "point_of_interest"]}], "routes": [{"bounds": {"northeast": {"lat": 29.803869, "lng": -95.40828479999999}, "southwest": {"lat": 29.692622, "lng": -95.5011912}}, "copyrights": "Map data \u00a92022", "legs": [{"arrival_time": {"text": "4:34pm", "time_zone": "America/Chicago", "value": 1642026897}, "departure_time": {"text": "3:03pm", "time_zone": "America/Chicago", "value": 1642021411}, "distance": {"text": "15.0 mi", "value": 24110}, "duration": {"text": "1 hour 31 mins", "value": 5486}, "end_address": "4400 W 18th St, Houston, TX 77092, USA", "end_location": {"lat": 29.8019199, "lng": -95.45428179999999}, "start_address": "7402 Albacore Dr, Houston, TX 77074, USA", "start_location": {"lat": 29.6979427, "lng": -95.5011912}, "steps": [{"distance": {"text": "0.7 mi", "value": 1119}, "duration": {"text": "14 mins", "value": 837}, "end_location": {"lat": 29.6926264, "lng": -95.4971491}, "html_instructions": "Walk to Bissonnet St @ Braewick Dr", "polyline": {"points": "ckgtDlq{eQt@?HCBA@A?ADKDc@@Qt@BN?EuGA]Sc@Y[_@Sb@aC\\uBLDT@RBV@B?@@@?@?B?BCDADCLIF?@E?E?A@A@?@ADAB?Z?`B?b@EHCh@OLGRMJITMf@WZQRd@RXJ_@Vu@R_@LOb@YJG\\UPKHCBAHAD?B@HBBBDDHRlAtC`@S@DNGLCLZ"}, "start_location": {"lat": 29.6979427, "lng": -95.5011912}, "steps": [{"distance": {"text": "230 ft", "value": 70}, "duration": {"text": "1 min", "value": 50}, "end_location": {"lat": 29.697522, "lng": -95.5008129}, "html_instructions": "Head <b>south</b> toward <b>Albacore Dr</b>", "polyline": {"points": "ckgtDlq{eQt@?HCBA@A?ADKDc@@Q"}, "start_location": {"lat": 29.6979427, "lng": -95.5011912}, "travel_mode": "WALKING"}, {"distance": {"text": "115 ft", "value": 35}, "duration": {"text": "1 min", "value": 27}, "end_location": {"lat": 29.6971744, "lng": -95.50082599999999}, "html_instructions": "Turn <b>right</b> onto <b>Albacore Dr</b>", "maneuver": "turn-right", "polyline": {"points": "ohgtD`o{eQt@BN?"}, "start_location": {"lat": 29.697522, "lng": -95.5008129}, "travel_mode": "WALKING"}, {"distance": {"text": "0.1 mi", "value": 213}, "duration": {"text": "3 mins", "value": 155}, "end_location": {"lat": 29.697605, "lng": -95.4988683}, "html_instructions": "Turn <b>left</b> onto <b>Sandstone St</b>", "maneuver": "turn-left", "polyline": {"points": "ifgtDdo{eQEuGA]Sc@Y[_@S"}, "start_location": {"lat": 29.6971744, "lng": -95.50082599999999}, "travel_mode": "WALKING"}, {"distance": {"text": "433 ft", "value": 132}, "duration": {"text": "2 mins", "value": 95}, "end_location": {"lat": 29.6972701, "lng": -95.4976331}, "html_instructions": "Turn <b>right</b> onto <b>Sharpview Dr</b>", "maneuver": "turn-right", "polyline": {"points": "_igtD|b{eQb@aC\\uB"}, "start_location": {"lat": 29.697605, "lng": -95.4988683}, "travel_mode": "WALKING"}, {"distance": {"text": "0.2 mi", "value": 306}, "duration": {"text": "4 mins", "value": 224}, "end_location": {"lat": 29.6947703, "lng": -95.496937}, "html_instructions": "Turn <b>right</b> onto <b>Braewick Dr</b>", "maneuver": "turn-right", "polyline": {"points": "}fgtDd{zeQLDT@RBV@B?@@@?@?B?BCDADCLIF?@E?E?A@A@?@ADAB?Z?`B?b@EHCh@OLGRMJITMf@WZQ"}, "start_location": {"lat": 29.6972701, "lng": -95.4976331}, "travel_mode": "WALKING"}, {"distance": {"text": "128 ft", "value": 39}, "duration": {"text": "1 min", "value": 30}, "end_location": {"lat": 29.6945677, "lng": -95.4972617}, "html_instructions": "Turn <b>right</b>", "maneuver": "turn-right", "polyline": {"points": "iwftDzvzeQRd@RX"}, "start_location": {"lat": 29.6947703, "lng": -95.496937}, "travel_mode": "WALKING"}, {"distance": {"text": "0.2 mi", "value": 267}, "duration": {"text": "3 mins", "value": 195}, "end_location": {"lat": 29.693033, "lng": -95.4971439}, "html_instructions": "Turn <b>left</b>", "maneuver": "turn-left", "polyline": {"points": "avftDzxzeQJ_@Vu@R_@LOb@YJG\\UPKHCBAHAD?B@HBBBDDHRlAtC"}, "start_location": {"lat": 29.6945677, "lng": -95.4972617}, "travel_mode": "WALKING"}, {"distance": {"text": "112 ft", "value": 34}, "duration": {"text": "1 min", "value": 35}, "end_location": {"lat": 29.6927016, "lng": -95.4970068}, "html_instructions": "Turn <b>left</b> onto <b>Braewick Dr</b>", "maneuver": "turn-left", "polyline": {"points": "mlftDbxzeQ`@S@DNGLC"}, "start_location": {"lat": 29.693033, "lng": -95.4971439}, "travel_mode": "WALKING"}, {"distance": {"text": "75 ft", "value": 23}, "duration": {"text": "1 min", "value": 26}, "end_location": {"lat": 29.6926264, "lng": -95.4971491}, "html_instructions": "Turn <b>right</b> onto <b>Bissonnet St</b>", "maneuver": "turn-right", "polyline": {"points": "kjftDhwzeQLZ"}, "start_location": {"lat": 29.6927016, "lng": -95.4970068}, "travel_mode": "WALKING"}], "travel_mode": "WALKING"}, {"distance": {"text": "5.9 mi", "value": 9566}, "duration": {"text": "26 mins", "value": 1531}, "end_location": {"lat": 29.7254958, "lng": -95.41073010000001}, "html_instructions": "Bus towards Wheeler TC", "polyline": {"points": "{iftDdxzeQGBSg@gAoCKUk@wA?AMWe@mAYq@KYiAmCIOMY[o@CGSk@IQOa@Mc@Wo@q@aBk@sAIQ}@qBc@iAEKs@iBQa@Si@aAwBMWe@gAYs@k@uAM[[u@_A}BCEWu@EIWo@m@yAk@sA]w@IUIS?AGQGMUk@KU}@yB}@{B]y@GMGQEGEM[u@MYQe@c@cA[y@ISo@}Aa@aAWm@q@aBm@{Am@wA_@}@O_@Wo@EIQa@k@{AKWgAkCUi@[s@IUWq@Se@]y@Yu@Ug@CG]y@GOYo@Sg@M]MYCECECEMOIOKYa@cAKYc@eAO_@Wo@c@gA?q@?m@?q@?kA?Q?iAC{B?k@@IM_@OYCMAu@EmA\\G\\U@w@@]S?eA@g@?q@?K?S?yA?q@@q@?_@?]w@Qc@MYa@aAMW]y@Sg@GOUi@Um@Sg@Ui@GOw@kBIUWo@m@wAKYc@gAqA}CWm@CIQ_@i@wA]u@O[Qi@EUCICKQa@Uu@Wi@?AEG?AAE_AwBa@eA[u@CEOQiAkC?AIS_@{@CIcBaEaAcCO]EKKWYq@o@{AIQoCyGQe@]y@e@iAM][w@GMWo@KYO_@Qc@MWk@sAKYg@kAeAkCUg@M[c@gAMYEMO]M[CGWk@aAcCEIi@sAQc@wBiFg@qA]y@M[g@mA_@}@wAmDUi@EKEKCQEW_A}BUe@AEc@aAGCCACGMUAEGQEMCEHAGSm@uAQc@a@cAUm@a@cAc@gAGQk@qAWk@]u@k@uAYs@IWKUKWIQEMM[ACc@gA_@}@Qc@Yq@{BqFmAuCWi@KYGQI[CSC[?SAY?gA?K@WC}B?_B?Q?s@?q@AK?iA?OAgCA{ACkC?_A?U?_@A{E?i@CkH?KC}FCuDAsA?UA}CAaC?KAuDA}A?m@?k@Ag@G]?cAAO?K?a@?W?a@?cAAk@?a@?_AAsAAyA?yAAOAyA?_@AiB?cAAuB?E?_@E{KN?"}, "start_location": {"lat": 29.692622, "lng": -95.497146}, "transit_details": {"arrival_stop": {"location": {"lat": 29.7254958, "lng": -95.41073010000001}, "name": "Bissonnet St @ S Shepherd Dr"}, "arrival_time": {"text": "3:43pm", "time_zone": "America/Chicago", "value": 1642023780}, "departure_stop": {"location": {"lat": 29.692622, "lng": -95.497146}, "name": "Bissonnet St @ Braewick Dr"}, "departure_time": {"text": "3:17pm", "time_zone": "America/Chicago", "value": 1642022249}, "headsign": "Wheeler TC", "line": {"agencies": [{"name": "Metropolitan Transit Authority of Harris County", "phone": "1 (713) 635-4000", "url": "http://www.ridemetro.org/"}], "color": "#004080", "name": "Bissonnet", "short_name": "65", "text_color": "#ffffff", "url": "https://www.ridemetro.org/MetroPDFs/Schedules/BusSchedules/n065-Bissonnet.pdf", "vehicle": {"icon": "//maps.gstatic.com/mapfiles/transit/iw2/6/bus2.png", "name": "Bus", "type": "BUS"}}, "num_stops": 36, "trip_short_name": "BISSONNET"}, "travel_mode": "TRANSIT"}, {"distance": {"text": "164 ft", "value": 50}, "duration": {"text": "1 min", "value": 45}, "end_location": {"lat": 29.7253171, "lng": -95.41048599999999}, "html_instructions": "Walk to S Shepherd Dr @ Bissonnet St", "polyline": {"points": "swltD`|ieQA_@?Ol@?"}, "start_location": {"lat": 29.72554409999999, "lng": -95.41073209999999}, "steps": [{"distance": {"text": "66 ft", "value": 20}, "duration": {"text": "1 min", "value": 14}, "end_location": {"lat": 29.7255475, "lng": -95.41048649999999}, "html_instructions": "Head <b>east</b> on <b>Bissonnet St</b> toward <b>S Shepherd Dr</b>", "polyline": {"points": "swltD`|ieQA_@?O"}, "start_location": {"lat": 29.72554409999999, "lng": -95.41073209999999}, "travel_mode": "WALKING"}, {"distance": {"text": "98 ft", "value": 30}, "duration": {"text": "1 min", "value": 31}, "end_location": {"lat": 29.7253171, "lng": -95.41048599999999}, "html_instructions": "Turn <b>right</b> onto <b>S Shepherd Dr</b>", "maneuver": "turn-right", "polyline": {"points": "uwltDpzieQl@?"}, "start_location": {"lat": 29.7255475, "lng": -95.41048649999999}, "travel_mode": "WALKING"}], "travel_mode": "WALKING"}, {"distance": {"text": "5.5 mi", "value": 8876}, "duration": {"text": "22 mins", "value": 1320}, "end_location": {"lat": 29.803613, "lng": -95.41008699999999}, "html_instructions": "Bus towards N Shepherd P&R", "polyline": {"points": "gvltDjzieQ?Ls@?iD@yB?S?c@@gB?oCBU@eB@e@?]?eA?S?O?U?aA?i@@A?[?A?Y@k@?]?m@?W?iD@c@@aA@eADcAAQ?aA?S@c@?U@y@Ao@AgB?cA@sA?cA@Q?iD@wA?u@@e@?c@?M?_A@]?y@?y@@Y?K?y@@O?s@?y@?eB@cA?y@@O?K?W?I?c@?E?}ABE?q@?gA?]Aa@G[GSCg@AS@M?Y?a@?m@?_A?c@@S?sC@gA@iA?kD?iB?_@?[?Y?q@@gB?{@?Y@qA?eA?I?uD@i@@_A?Q?O?{@?m@?M?g@@y@@g@@Q?[?{@?OGEAGCEEGCECECGEY[OYEKCECGEQ_AuCAEEIQe@IQCEACGIEGEGGIIIEEOKGEQKMEk@Oo@@M?{@?WIgB?KEC?SAYAU?IA]?SAeA?S?g@AcA@EBIFKFA@CBIHCDGHGXQ@aAJa@Da@DC?}AL]D]DK@KEA?A?I?G?M?MAAAA?C?AAE?CAA?OCC?AAM?WA[FE@E@c@HG@YD_@HeAPKBw@TgABW?C?W?k@@_A@K?[@SBe@Dc@@SBa@?eA@[?M?eA@c@?e@?]?_@@Y?k@?M?qCBg@?Q?M@U?e@?M?qCB]?w@@_@?E@W?e@?mB@gA?k@@]?qB@c@@a@CE@e@@m@?S@kA?cA@aCBM?oC@eA@oA@Y?[?O?a@Bm@?U?o@?e@@I?A?A?y@?M@YAS@O?_@@w@@y@?]?M?YAMAMCOEYIIAa@Kc@Ku@QGACAm@MAAOCIAK?OAM?M?A?I?O?S@M@IBc@Jq@P}@Vg@Jk@Ji@Hc@Be@DE?c@Bs@ByABA?oCBYA}B@I?A?q@@K?E?k@?C?O@u@?S?k@@w@@K?a@?O?[@U?U?U?k@@k@?Y@C?I?S?kC@y@@K?W@[?S?A?W?G?U@S?c@?e@@O?E?[?mCBeA@U?Y?S?U@A?S?aA@_@?e@@Q?S?U?s@?C?W?qB@sB@eBBg@?oBBaGBq@@w@?aB@i@@W@_B@yA@aB@Q?qD@U@gB?eB@eBA_A@?K"}, "start_location": {"lat": 29.7253163, "lng": -95.4104565}, "transit_details": {"arrival_stop": {"location": {"lat": 29.803613, "lng": -95.41008699999999}, "name": "N Shepherd Dr @ W 20th St"}, "arrival_time": {"text": "4:14pm", "time_zone": "America/Chicago", "value": 1642025640}, "departure_stop": {"location": {"lat": 29.7253163, "lng": -95.4104565}, "name": "S Shepherd Dr @ Bissonnet St"}, "departure_time": {"text": "3:52pm", "time_zone": "America/Chicago", "value": 1642024320}, "headsign": "N Shepherd P&R", "line": {"agencies": [{"name": "Metropolitan Transit Authority of Harris County", "phone": "1 (713) 635-4000", "url": "http://www.ridemetro.org/"}], "color": "#004080", "name": "Shepherd", "short_name": "27", "text_color": "#ffffff", "url": "https://www.ridemetro.org/MetroPDFs/Schedules/BusSchedules/n027-Shepherd.pdf", "vehicle": {"icon": "//maps.gstatic.com/mapfiles/transit/iw2/6/bus2.png", "name": "Bus", "type": "BUS"}}, "num_stops": 38, "trip_short_name": "SHEPHERD"}, "travel_mode": "TRANSIT"}, {"distance": {"text": "112 ft", "value": 34}, "duration": {"text": "1 min", "value": 34}, "end_location": {"lat": 29.803842, "lng": -95.41002979999999}, "html_instructions": "Walk to W 20th St @ N Shepherd Dr", "polyline": {"points": "q_|tDdxieQ_@@M??Q"}, "start_location": {"lat": 29.8036121, "lng": -95.410111}, "steps": [{"distance": {"text": "69 ft", "value": 21}, "duration": {"text": "1 min", "value": 15}, "end_location": {"lat": 29.8038391, "lng": -95.4101207}, "html_instructions": "Head <b>north</b> on <b>N Shepherd Dr</b> toward <b>W 20th St</b>", "polyline": {"points": "q_|tDdxieQ_@@M?"}, "start_location": {"lat": 29.8036121, "lng": -95.410111}, "travel_mode": "WALKING"}, {"distance": {"text": "43 ft", "value": 13}, "duration": {"text": "1 min", "value": 19}, "end_location": {"lat": 29.803842, "lng": -95.41002979999999}, "html_instructions": "Turn <b>right</b> onto <b>W 20th St</b>", "maneuver": "turn-right", "polyline": {"points": "_a|tDfxieQ?Q"}, "start_location": {"lat": 29.8038391, "lng": -95.4101207}, "travel_mode": "WALKING"}], "travel_mode": "WALKING"}, {"distance": {"text": "2.7 mi", "value": 4367}, "duration": {"text": "10 mins", "value": 582}, "end_location": {"lat": 29.80163, "lng": -95.454342}, "html_instructions": "Bus towards Memorial City", "polyline": {"points": "ea|tDvwieQJ?@V?fA@`ABfE?tABtJ?pB@rA?r@?H?|@?jB?@?j@@h@AL?\\?J@f@?|B?h@?|@?n@?N?|G?J@tE?d@@dC?p@AL@J?V@P@H?B?D@F@HBH@JDPDLDLDHDJDJHLFHFHLL?@TVTVn@v@NRh@h@NPVX^f@BJBFBFf@v@P`@DZDVBT@F?D@F?H?P@P?X?N?F?j@@pAIpB@f@?V?fA?j@?V@h@AjA?h@@~@?b@@^Af@@d@?X?bA?jA?b@@nC?J?d@Aj@?v@?P@dB?jA?bC?`A?\\@dH?`D?dC@fE?jD?T@`F@vB?jD?vC?X?`E@V@zCAb@?fAAX@fB@fA?T@|B?l@A~A?x@?XAzB?`A?dB?l@?P?F?H@^?Z?@?H?@?Z?h@?f@?j@?^?t@@j@BnAAV@|@@fB?bBG?"}, "start_location": {"lat": 29.803869, "lng": -95.410039}, "transit_details": {"arrival_stop": {"location": {"lat": 29.80163, "lng": -95.454342}, "name": "W 18th St @ Northwest Fwy"}, "arrival_time": {"text": "4:33pm", "time_zone": "America/Chicago", "value": 1642026820}, "departure_stop": {"location": {"lat": 29.803869, "lng": -95.410039}, "name": "W 20th St @ N Shepherd Dr"}, "departure_time": {"text": "4:23pm", "time_zone": "America/Chicago", "value": 1642026238}, "headsign": "Memorial City", "line": {"agencies": [{"name": "Metropolitan Transit Authority of Harris County", "phone": "1 (713) 635-4000", "url": "http://www.ridemetro.org/"}], "color": "#004080", "name": "Long Point / Cavalcade", "short_name": "26", "text_color": "#ffffff", "url": "https://www.ridemetro.org/MetroPDFs/Schedules/BusSchedules/n026-Long-Point-Cavalcade.pdf", "vehicle": {"icon": "//maps.gstatic.com/mapfiles/transit/iw2/6/bus2.png", "name": "Bus", "type": "BUS"}}, "num_stops": 14, "trip_short_name": "LONGPOINT"}, "travel_mode": "TRANSIT"}, {"distance": {"text": "322 ft", "value": 98}, "duration": {"text": "1 min", "value": 77}, "end_location": {"lat": 29.8019199, "lng": -95.45428179999999}, "html_instructions": "Walk to 4400 W 18th St, Houston, TX 77092, USA", "polyline": {"points": "es{tDrlreQ?z@YEc@E?G@Q@a@"}, "start_location": {"lat": 29.8016264, "lng": -95.454342}, "steps": [{"distance": {"text": "95 ft", "value": 29}, "duration": {"text": "1 min", "value": 22}, "end_location": {"lat": 29.8016252, "lng": -95.45463819999999}, "html_instructions": "Head <b>west</b> on <b>W 18th St</b>/<wbr/><b>NW Mall</b>", "polyline": {"points": "es{tDrlreQ?z@"}, "start_location": {"lat": 29.8016264, "lng": -95.454342}, "travel_mode": "WALKING"}, {"distance": {"text": "131 ft", "value": 40}, "duration": {"text": "1 min", "value": 33}, "end_location": {"lat": 29.8019405, "lng": -95.4545788}, "html_instructions": "Turn <b>right</b><div style=\"font-size:0.9em\">Restricted usage road</div>", "maneuver": "turn-right", "polyline": {"points": "es{tDnnreQYEc@E"}, "start_location": {"lat": 29.8016252, "lng": -95.45463819999999}, "travel_mode": "WALKING"}, {"distance": {"text": "95 ft", "value": 29}, "duration": {"text": "1 min", "value": 22}, "end_location": {"lat": 29.8019199, "lng": -95.45428179999999}, "html_instructions": "Turn <b>right</b><div style=\"font-size:0.9em\">Restricted usage road</div><div style=\"font-size:0.9em\">Destination will be on the left</div>", "maneuver": "turn-right", "polyline": {"points": "cu{tDbnreQ?G@Q@a@"}, "start_location": {"lat": 29.8019405, "lng": -95.4545788}, "travel_mode": "WALKING"}], "travel_mode": "WALKING"}], "traffic_speed_entry": [], "via_waypoint": []}], "overview_polyline": {"points": "ckgtDlq{eQ~@CDCDMFu@dABGsHSc@Y[_@Sb@aC\\uBLDh@D\\BJCJELIF?@K?AJE^?`B?b@Er@S`@UdBaAf@~@b@uA`@o@n@a@|@g@NALDHHvAhD`@S@D\\KNZGBSg@sAeDk@yAyAqD}BgFq@gBe@sA}AuDqByEeAkCuAaDyBiFqE_LcCcGyKcXsF{MqCaHq@}Aa@gAaB}DcAaCs@eBGKW_@}A}Dg@oAc@gA?q@?_B?}AA{F]y@EcAEmA\\G\\U@w@@]S?mB@kD?cB@_@?]w@_@}@o@yAoA{CgAoCgCiGo@aBiBkE}AwDa@eAI_@Um@m@_BGQaCyFOQiAkCIUiEkK{@sBiIgSmJkUuPwa@I]EW{BkFKEQ]Sk@HAGS_AyB}B}FiBeE{AwDaCaGuCcHeB_ESk@Mo@Co@AaBAaGEaMI_YO__@C_FG]?cAA[?_DCaFIaR?e@E{KN?G?A_@?Ol@??E?L}E@yG@qHFgC?{DBoC?mEBgCFkD?cDAmSFkVHkEByB?_AIo@K{@?wB?kGBoPB_QD}C?}CBqC@c@S[QY[OYIQkAuDe@gAU]g@e@YQy@U}@@{@?WIgB?KEWAwACuCCcA@EBUNSTOb@sALeDX{@JK@KEC?Q?[AIC_@EOAWA[FKBk@JkCd@w@TgAB[?oCByBLu@BaB@}C@}ID_JFuLFeAAk@BqEB{NHiED}ED_CAk@KyEgAg@Gm@A{@Bm@NoBh@sAVmALcCLeGD{DB{C@_PJcNJiMFah@\\uKDeD??K?Bm@@?QE@J?@V@hCFdW@nE@bH@dX?jFD~@BZPt@Vn@f@n@dDxDv@`AFRj@~@V|@Jz@Bt@?|A@pAIpB@~@@tDAtB@bB@fC@bI?|MBv`@BxI?bIBnKAlFBhGCnH?fF@vBBfJBdD?bBG??z@}@KB{@"}, "summary": "", "warnings": ["Walking directions are in beta. Use caution \u2013 This route may be missing sidewalks or pedestrian paths."], "waypoint_order": []}, {"bounds": {"northeast": {"lat": 29.8026478, "lng": -95.45427269999999}, "southwest": {"lat": 29.6972463, "lng": -95.5011912}}, "copyrights": "Map data \u00a92022", "legs": [{"arrival_time": {"text": "4:35pm", "time_zone": "America/Chicago", "value": 1642026935}, "departure_time": {"text": "3:11pm", "time_zone": "America/Chicago", "value": 1642021863}, "distance": {"text": "11.4 mi", "value": 18426}, "duration": {"text": "1 hour 25 mins", "value": 5072}, "end_address": "4400 W 18th St, Houston, TX 77092, USA", "end_location": {"lat": 29.8019199, "lng": -95.45428179999999}, "start_address": "7402 Albacore Dr, Houston, TX 77074, USA", "start_location": {"lat": 29.6979427, "lng": -95.5011912}, "steps": [{"distance": {"text": "0.7 mi", "value": 1193}, "duration": {"text": "15 mins", "value": 892}, "end_location": {"lat": 29.7001589, "lng": -95.4928288}, "html_instructions": "Walk to Hillcroft Ave @ Neff St", "polyline": {"points": "ckgtDlq{eQt@?HCBA@A?ADKDc@@Qt@BCsGAYO_@WW]QMGBGd@eC\\uBoCi@MCs@MaB[MCsCi@MCoCm@BORqANgBBq@DqA@Q@}C?}D?O?g@?OH?"}, "start_location": {"lat": 29.6979427, "lng": -95.5011912}, "steps": [{"distance": {"text": "230 ft", "value": 70}, "duration": {"text": "1 min", "value": 50}, "end_location": {"lat": 29.697522, "lng": -95.5008129}, "html_instructions": "Head <b>south</b> toward <b>Albacore Dr</b>", "polyline": {"points": "ckgtDlq{eQt@?HCBA@A?ADKDc@@Q"}, "start_location": {"lat": 29.6979427, "lng": -95.5011912}, "travel_mode": "WALKING"}, {"distance": {"text": "115 ft", "value": 35}, "duration": {"text": "1 min", "value": 27}, "end_location": {"lat": 29.6972463, "lng": -95.5008261}, "html_instructions": "Turn <b>right</b> onto <b>Albacore Dr</b>", "maneuver": "turn-right", "polyline": {"points": "ohgtD`o{eQt@B"}, "start_location": {"lat": 29.697522, "lng": -95.5008129}, "travel_mode": "WALKING"}, {"distance": {"text": "0.1 mi", "value": 213}, "duration": {"text": "3 mins", "value": 153}, "end_location": {"lat": 29.6976823, "lng": -95.49887369999999}, "html_instructions": "Turn <b>left</b> onto <b>Sandstone St</b>", "maneuver": "turn-left", "polyline": {"points": "yfgtDdo{eQCsGAYO_@WW]QMGBG"}, "start_location": {"lat": 29.6972463, "lng": -95.5008261}, "travel_mode": "WALKING"}, {"distance": {"text": "433 ft", "value": 132}, "duration": {"text": "2 mins", "value": 97}, "end_location": {"lat": 29.69733969999999, "lng": -95.4976121}, "html_instructions": "Turn <b>right</b> onto <b>Sharpview Dr</b>", "maneuver": "turn-right", "polyline": {"points": "oigtD|b{eQd@eC\\uB"}, "start_location": {"lat": 29.6976823, "lng": -95.49887369999999}, "travel_mode": "WALKING"}, {"distance": {"text": "0.2 mi", "value": 368}, "duration": {"text": "5 mins", "value": 271}, "end_location": {"lat": 29.70045679999999, "lng": -95.49660829999999}, "html_instructions": "Turn <b>left</b> onto <b>Braewick Dr</b>", "maneuver": "turn-left", "polyline": {"points": "kggtD`{zeQoCi@MCs@MaB[MCsCi@MCoCm@BO"}, "start_location": {"lat": 29.69733969999999, "lng": -95.4976121}, "travel_mode": "WALKING"}, {"distance": {"text": "0.2 mi", "value": 366}, "duration": {"text": "5 mins", "value": 277}, "end_location": {"lat": 29.7002084, "lng": -95.49282910000001}, "html_instructions": "Turn <b>right</b> onto <b>Neff St</b>", "maneuver": "turn-right", "polyline": {"points": "{zgtDxtzeQRqANgBBq@DqA@Q@}C?}D?O?g@?O"}, "start_location": {"lat": 29.70045679999999, "lng": -95.49660829999999}, "travel_mode": "WALKING"}, {"distance": {"text": "30 ft", "value": 9}, "duration": {"text": "1 min", "value": 17}, "end_location": {"lat": 29.7001589, "lng": -95.4928288}, "html_instructions": "Turn <b>right</b> onto <b>Hillcroft Ave</b><div style=\"font-size:0.9em\">Destination will be on the left</div>", "maneuver": "turn-right", "polyline": {"points": "iygtDd}yeQH?"}, "start_location": {"lat": 29.7002084, "lng": -95.49282910000001}, "travel_mode": "WALKING"}], "travel_mode": "WALKING"}, {"distance": {"text": "8.4 mi", "value": 13554}, "duration": {"text": "43 mins", "value": 2585}, "end_location": {"lat": 29.783077, "lng": -95.455467}, "html_instructions": "Bus towards Northwest TC", "polyline": {"points": "_ygtD`}yeQ?JO?oC@Q?cC@K?K?I?qA@kB?oCBO?iA@]?O?q@@qA@[@m@@U?_@@{AAsA@oBBU@O?UAm@A_A@eA?e@@M?M?c@@u@@C?G?MAi@AM@yA@q@@C?]BoALYFSDu@PeA^EBs@\\_@ROJSLIFQLIFa@\\UTmAxAs@x@]\\KLQR?@ONCD_@h@WZe@l@KNSTUXQPMNMPWXOTIJ_@b@iArAKNQRKLg@l@_@\\YVWVc@j@IJIJQRMPKJABQRABA?A@GHEFCBWZ[\\SV[^q@x@MN_@X[PMHULSJYJUFkAVMDUDQDs@FY@S@uAD_C?mABaA?mA?mBB_A?S?A?g@?cDBaB?M?Y@{A?c@?gA@a@@c@?qA?u@?i@?o@@m@?wA@mA@o@?A?s@@w@?_B@kBB_A?q@@_@?eA@i@?]?m@@[?a@?s@@aA@aAAeABS?y@@i@Ag@AG?QAu@CKAKA_@GMCSEKCk@IKCUAIAKAKAI?a@EMAGCC?KAO?MAa@?S?{@@C?i@@cA?_@@m@?a@?eB?}@?I?WAgA@Y@aAA{ABcA?I?sC@]?kA@_@?E?C?K?yABo@?MAkCBw@@g@?a@?YA]?M?i@@]?O@q@?I?m@?gA@{BBiE?iBB{A@eE?}ADG?yABW?WA_@@a@?sA?kA?gBAk@@sA@]@y@@o@?k@?GIAAC?MEGAEAMEICSIKEGEQK[Oa@m@CC[e@IMS[?AEIEIKWWy@WsAe@aCUoAES_@qBGYKk@o@mDQ}@GUCOY{AScAI]y@qE]gBY{A]kBUgAG_@i@uCk@{CKg@ACGe@G[Gi@?CGo@AOASc@iFC_@WuCG}@CUC[AWW{CEc@Ku@I[GSISIQOYQW[c@iAmAwAiBc@i@{@{@QSm@o@gAsACE_@c@SYyAaBi@k@IKs@w@s@y@KM]a@WYq@_AKQGKAAO[O]Qs@CEEYCSC_@C_@Aa@?S?Q?y@Ay@?uA?ICcEAcD?]AaFC}DCY@Y@O?S@G?G@IB[Fc@F[Nk@JYLa@FQNc@Ja@He@Ho@B]B_@@S@Y?Y?g@?Y?aB@W@SFw@F_@?AH_@Tu@Tg@b@w@LW@?Pc@FQJUFUHWBMFYBS@E@G@Q?IBS?Q@M?OAq@?i@?]AoAAwB?AAY?KAEA]?CAICOE[Kc@Ma@CGGOGQEGIOEISYUYCCYYa@g@QS?AOQIMMYA?Wk@I[IYIc@?CEWCUCQCe@KyAI{@CQEQEOKYUs@Ue@}AiDUi@KW_@y@QLSBY@c@?u@@m@@eCB}DDsCAK?U?}B@_A@yA@wEBeBBU?e@AW?cDBI?K?k@?U@?o@?WAO?qAA_@?UY@oA?]?A?A?G?G?SAEAWAO?Y?c@?c@@gA@a@?kB@c@@aB@m@@}@?kB?c@??RiA?eBDcB?kA@sA@A??@gA?gFDkHBQ?i@Sw@CSKISGOB_B?yA?i@BeCX?V?\\A^?\\?@?b@?BXQ^?f@?j@?d@W?"}, "start_location": {"lat": 29.700159, "lng": -95.49280900000001}, "transit_details": {"arrival_stop": {"location": {"lat": 29.783077, "lng": -95.455467}, "name": "Northwest Transit Center - South Platform"}, "arrival_time": {"text": "4:09pm", "time_zone": "America/Chicago", "value": 1642025340}, "departure_stop": {"location": {"lat": 29.700159, "lng": -95.49280900000001}, "name": "Hillcroft Ave @ Neff St"}, "departure_time": {"text": "3:25pm", "time_zone": "America/Chicago", "value": 1642022755}, "headsign": "Northwest TC", "line": {"agencies": [{"name": "Metropolitan Transit Authority of Harris County", "phone": "1 (713) 635-4000", "url": "http://www.ridemetro.org/"}], "color": "#004080", "name": "Hillcroft", "short_name": "47", "text_color": "#ffffff", "url": "https://www.ridemetro.org/MetroPDFs/Schedules/BusSchedules/n047-Hillcroft.pdf", "vehicle": {"icon": "//maps.gstatic.com/mapfiles/transit/iw2/6/bus2.png", "name": "Bus", "type": "BUS"}}, "num_stops": 41, "trip_short_name": "HILLCROFT"}, "travel_mode": "TRANSIT"}, {"distance": {"text": "0.2 mi", "value": 263}, "duration": {"text": "3 mins", "value": 192}, "end_location": {"lat": 29.7837801, "lng": -95.4554653}, "html_instructions": "Walk to Northwest Transit Center - North Platform", "polyline": {"points": "_}wtDtqreQDUBODIK@]MMMECOKICKAK@E?U?E?_@@m@?AxAAX?f@"}, "start_location": {"lat": 29.7827161, "lng": -95.4551537}, "steps": [{"distance": {"text": "121 ft", "value": 37}, "duration": {"text": "1 min", "value": 26}, "end_location": {"lat": 29.78264219999999, "lng": -95.4549134}, "html_instructions": "Head <b>east</b>", "polyline": {"points": "_}wtDtqreQDUBODI"}, "start_location": {"lat": 29.7827161, "lng": -95.4551537}, "travel_mode": "WALKING"}, {"distance": {"text": "482 ft", "value": 147}, "duration": {"text": "2 mins", "value": 109}, "end_location": {"lat": 29.7837613, "lng": -95.45468609999999}, "html_instructions": "Sharp <b>left</b> toward <b>Old Katy Rd</b>", "maneuver": "turn-sharp-left", "polyline": {"points": "o|wtDdpreQK@]MMMECOKICKAK@E?U?E?_@@m@?"}, "start_location": {"lat": 29.78264219999999, "lng": -95.4549134}, "travel_mode": "WALKING"}, {"distance": {"text": "259 ft", "value": 79}, "duration": {"text": "1 min", "value": 57}, "end_location": {"lat": 29.7837801, "lng": -95.4554653}, "html_instructions": "Turn <b>left</b> onto <b>Old Katy Rd</b>", "maneuver": "turn-left", "polyline": {"points": "ocxtDxnreQAxAAX?f@"}, "start_location": {"lat": 29.7837613, "lng": -95.45468609999999}, "travel_mode": "WALKING"}], "travel_mode": "WALKING"}, {"distance": {"text": "1.7 mi", "value": 2678}, "duration": {"text": "7 mins", "value": 408}, "end_location": {"lat": 29.801027, "lng": -95.45922999999999}, "html_instructions": "Bus towards SH 249", "polyline": {"points": "w~wtDvwreQRwAF@D?DABA@CDIDSB[@g@BUBM@AN]FGJY@K?MCUCKCCA?OGQAGAE?E@GDQJOPMD[BY@W?aAAY@c@?AVAzAAb@?f@?L?ZAn@?`B?R?f@sBNO@Q@Y?W?K@wA@y@@K?u@?wA@U?O?}@@I?Y?_@?_@@oA@oD@eABM?A?a@?c@?qA@W?w@?cA@s@?c@@_@?uA@a@?OAY?q@@c@?_@?[@cA@a@?U?G?C?E?]@S?S@]@c@?}@@M?w@@]?mA@_B@W?E?e@Aa@EQEWG[OUM[QIG_@Ui@i@e@_@OQQQOMCCc@a@MR{A|BU\\W`@sBtCg@z@a@L{@vA]b@Sd@w@lAYh@OQ"}, "start_location": {"lat": 29.7830001, "lng": -95.4561157}, "transit_details": {"arrival_stop": {"location": {"lat": 29.801027, "lng": -95.45922999999999}, "name": "Hempstead Rd @ W 18th St"}, "arrival_time": {"text": "4:25pm", "time_zone": "America/Chicago", "value": 1642026348}, "departure_stop": {"location": {"lat": 29.7830001, "lng": -95.4561157}, "name": "Northwest Transit Center - North Platform"}, "departure_time": {"text": "4:19pm", "time_zone": "America/Chicago", "value": 1642025940}, "headsign": "SH 249", "line": {"agencies": [{"name": "Metropolitan Transit Authority of Harris County", "phone": "1 (713) 635-4000", "url": "http://www.ridemetro.org/"}], "color": "#004080", "name": "Antoine / Washington", "short_name": "85", "text_color": "#ffffff", "url": "https://www.ridemetro.org/MetroPDFs/Schedules/BusSchedules/n085-Antoine-Washington.pdf", "vehicle": {"icon": "//maps.gstatic.com/mapfiles/transit/iw2/6/bus2.png", "name": "Bus", "type": "BUS"}}, "num_stops": 8, "trip_short_name": "ANTOINWAS"}, "travel_mode": "TRANSIT"}, {"distance": {"text": "0.5 mi", "value": 738}, "duration": {"text": "10 mins", "value": 587}, "end_location": {"lat": 29.8019199, "lng": -95.45428179999999}, "html_instructions": "Walk to 4400 W 18th St, Houston, TX 77092, USA", "polyline": {"points": "mo{tDdkseQKPKKKAK?I@IB?Q?aA?M?QAO?OM?M@M?mED@[Ae@?g@ASDKP]d@}@Xq@B]QOIIOMEKKAQUGGEIAE?C?A@C@EBEV_@KMNWHMJSRa@Ts@R}@Jy@Hy@?G@Q@a@"}, "start_location": {"lat": 29.8010254, "lng": -95.4592253}, "steps": [{"distance": {"text": "49 ft", "value": 15}, "duration": {"text": "1 min", "value": 11}, "end_location": {"lat": 29.8011512, "lng": -95.4592626}, "html_instructions": "Head <b>northwest</b>", "polyline": {"points": "mo{tDdkseQKPKK"}, "start_location": {"lat": 29.8010254, "lng": -95.4592253}, "travel_mode": "WALKING"}, {"distance": {"text": "102 ft", "value": 31}, "duration": {"text": "1 min", "value": 23}, "end_location": {"lat": 29.8013705, "lng": -95.4592806}, "html_instructions": "Turn <b>right</b> toward <b>W 18th St</b>", "maneuver": "turn-right", "polyline": {"points": "ep{tDjkseQKAK?I@IB"}, "start_location": {"lat": 29.8011512, "lng": -95.4592626}, "travel_mode": "WALKING"}, {"distance": {"text": "240 ft", "value": 73}, "duration": {"text": "1 min", "value": 61}, "end_location": {"lat": 29.8014508, "lng": -95.4585436}, "html_instructions": "Turn <b>right</b> onto <b>W 18th St</b>", "maneuver": "turn-right", "polyline": {"points": "qq{tDnkseQ?Q?aA?M?QAO?OM?"}, "start_location": {"lat": 29.8013705, "lng": -95.4592806}, "travel_mode": "WALKING"}, {"distance": {"text": "440 ft", "value": 134}, "duration": {"text": "2 mins", "value": 127}, "end_location": {"lat": 29.80261729999999, "lng": -95.45858140000001}, "html_instructions": "Turn <b>left</b> onto <b>Mangum Rd</b>", "maneuver": "turn-left", "polyline": {"points": "ar{tDzfseQM@M?mED"}, "start_location": {"lat": 29.8014508, "lng": -95.4585436}, "travel_mode": "WALKING"}, {"distance": {"text": "0.1 mi", "value": 168}, "duration": {"text": "2 mins", "value": 133}, "end_location": {"lat": 29.8021725, "lng": -95.45703209999999}, "html_instructions": "Turn <b>right</b>", "maneuver": "turn-right", "polyline": {"points": "ky{tDbgseQ@[Ae@?g@ASDKP]d@}@Xq@B]"}, "start_location": {"lat": 29.80261729999999, "lng": -95.45858140000001}, "travel_mode": "WALKING"}, {"distance": {"text": "348 ft", "value": 106}, "duration": {"text": "1 min", "value": 80}, "end_location": {"lat": 29.8024852, "lng": -95.4562641}, "html_instructions": "Turn <b>left</b><div style=\"font-size:0.9em\">Partial restricted usage road</div>", "maneuver": "turn-left", "polyline": {"points": "qv{tDl}reQQOIIOMEKKAQUGGEIAE?C?A@C@EBEV_@"}, "start_location": {"lat": 29.8021725, "lng": -95.45703209999999}, "travel_mode": "WALKING"}, {"distance": {"text": "33 ft", "value": 10}, "duration": {"text": "1 min", "value": 8}, "end_location": {"lat": 29.8025494, "lng": -95.456192}, "html_instructions": "Turn <b>left</b><div style=\"font-size:0.9em\">Restricted usage road</div>", "maneuver": "turn-left", "polyline": {"points": "qx{tDrxreQKM"}, "start_location": {"lat": 29.8024852, "lng": -95.4562641}, "travel_mode": "WALKING"}, {"distance": {"text": "0.1 mi", "value": 201}, "duration": {"text": "2 mins", "value": 144}, "end_location": {"lat": 29.8019199, "lng": -95.45428179999999}, "html_instructions": "Turn <b>right</b><div style=\"font-size:0.9em\">Restricted usage road</div><div style=\"font-size:0.9em\">Destination will be on the left</div>", "maneuver": "turn-right", "polyline": {"points": "}x{tDdxreQNWHMJSRa@Ts@R}@Jy@Hy@?G@Q@a@"}, "start_location": {"lat": 29.8025494, "lng": -95.456192}, "travel_mode": "WALKING"}], "travel_mode": "WALKING"}], "traffic_speed_entry": [], "via_waypoint": []}], "overview_polyline": {"points": "ckgtDlq{eQ~@CDCDMFu@t@BCsGAYO_@WW]QMGBGbA{F}Cm@wHwA}Cq@VaBNgBBq@FcB@sK?OH??C?J_D@uC@sB@uIDqDB_CDoD?eCDe@AmB?gC@eBBw@CgBBu@@mBPm@Lu@PeA^y@`@o@^y@j@a@\\cBnBoBxBs@`A}AnBuClDsBdCyBzBwBlCkAtAoB`C{@j@c@Vm@VaB^c@JeALm@BuEDkIFkLDiFBuE?aLFiZPsCA_BImAUwAQiBQsAAmDB}J@{A?_DBgGByID_B@{@AsB@yB@cEDsHBaH@eBDqBBw@?iHAwEF{A?IK_@Iw@YYQ[Oa@m@_@i@]i@Wm@o@mC{@qEy@kE_EaTuEqVYoBKwAiBcUQyAQo@Se@a@q@eBqB{BsCmAoAuBcCqCeD{CiDi@o@iAyAe@{@a@qAI_@MuBGaRA_GGwEDeALqAVgAX{@Vu@TgARaC@uB@yBHkAFa@^uAhAwBl@aBXsADi@DcACiEC_DEq@Ik@YeAYq@OYi@s@qAyAg@{@Yk@Su@SuA]mEIc@Qi@k@yAsBsEk@qAQLSB}@@cBBcIH_DAmHD}HF{@AqEBaA@?gACwCiC@mBEqMJiD?c@??RoDDoD@}CBsOHQ?i@Sw@CSKQc@FiJnBA^?b@?BXQ^?f@?pAW?fA_AHe@DIK@]MMMUOUEm@@mA@CrB?f@zC`CRwAF@JADEJ]DcAFc@P_@Ra@@YGa@ECOGQAMAMFa@\\MD[Bq@@{A?c@?AVC~B?t@A`E?f@sBNa@BuCBaIDoLHcKDwH@gEDkGFkEBgAGi@MwAw@_@Ui@i@u@q@iAeAwCpEsBtCg@z@a@L{@vA]b@Sd@qAvBOQKPKKWASD?sBA_@[@{ED?aAA{@Vi@~@oBB]QOYWEKKAY]GOBOZe@KMNWTa@Ra@Ts@R}@TsBB{@"}, "summary": "", "warnings": ["Walking directions are in beta. Use caution \u2013 This route may be missing sidewalks or pedestrian paths."], "waypoint_order": []}, {"bounds": {"northeast": {"lat": 29.8026478, "lng": -95.45427269999999}, "southwest": {"lat": 29.6979427, "lng": -95.5045382}}, "copyrights": "Map data \u00a92022", "legs": [{"arrival_time": {"text": "4:35pm", "time_zone": "America/Chicago", "value": 1642026935}, "departure_time": {"text": "3:03pm", "time_zone": "America/Chicago", "value": 1642021398}, "distance": {"text": "12.6 mi", "value": 20253}, "duration": {"text": "1 hour 32 mins", "value": 5537}, "end_address": "4400 W 18th St, Houston, TX 77092, USA", "end_location": {"lat": 29.8019199, "lng": -95.45428179999999}, "start_address": "7402 Albacore Dr, Houston, TX 77074, USA", "start_location": {"lat": 29.6979427, "lng": -95.5011912}, "steps": [{"distance": {"text": "0.7 mi", "value": 1067}, "duration": {"text": "13 mins", "value": 779}, "end_location": {"lat": 29.7048324, "lng": -95.5045322}, "html_instructions": "Walk to Bellaire Blvd @ Bintliff Dr", "polyline": {"points": "ckgtDlq{eQg@?E?C?CAA?CAA?ECOG?nBAT?DADC@EBE?Q?M@?HBN@JBLFVDRDRBRBN@LBP?H@R@P?N?L?J?LALARAPAHCNYCq@Gq@E]Cq@Ea@AkAC_@Ay@?i@?]?aAB_@@[@]BM@i@Do@F_AHu@Ho@J{@Li@Jc@JUDQDYHG@MDwCv@BN"}, "start_location": {"lat": 29.6979427, "lng": -95.5011912}, "steps": [{"distance": {"text": "157 ft", "value": 48}, "duration": {"text": "1 min", "value": 35}, "end_location": {"lat": 29.6983644, "lng": -95.5011091}, "html_instructions": "Head <b>north</b> toward <b>Sharpview Dr</b>", "polyline": {"points": "ckgtDlq{eQg@?E?C?CAA?CAA?ECOG"}, "start_location": {"lat": 29.6979427, "lng": -95.5011912}, "travel_mode": "WALKING"}, {"distance": {"text": "308 ft", "value": 94}, "duration": {"text": "1 min", "value": 69}, "end_location": {"lat": 29.6986221, "lng": -95.501877}, "html_instructions": "Turn <b>left</b> toward <b>Sharpview Dr</b>", "maneuver": "turn-left", "polyline": {"points": "wmgtD|p{eQ?nBAT?DADC@EBE?Q?M@"}, "start_location": {"lat": 29.6983644, "lng": -95.5011091}, "travel_mode": "WALKING"}, {"distance": {"text": "0.1 mi", "value": 178}, "duration": {"text": "2 mins", "value": 130}, "end_location": {"lat": 29.6984372, "lng": -95.5037119}, "html_instructions": "Turn <b>left</b> onto <b>Sharpview Dr</b>", "maneuver": "turn-left", "polyline": {"points": "kogtDvu{eQ?HBN@JBLFVDRDRBRBN@LBP?H@R@P?N?L?J?LALARAPAHCN"}, "start_location": {"lat": 29.6986221, "lng": -95.501877}, "travel_mode": "WALKING"}, {"distance": {"text": "0.5 mi", "value": 735}, "duration": {"text": "9 mins", "value": 536}, "end_location": {"lat": 29.7048528, "lng": -95.5044535}, "html_instructions": "Turn <b>right</b> onto <b>Bintliff Dr</b>", "maneuver": "turn-right", "polyline": {"points": "gngtDda|eQYCq@Gq@E]Cq@Ea@AkAC_@Ay@?i@?]?aAB_@@[@]BM@i@Do@F_AHu@Ho@J{@Li@Jc@JUDQDYHG@MDwCv@"}, "start_location": {"lat": 29.6984372, "lng": -95.5037119}, "travel_mode": "WALKING"}, {"distance": {"text": "39 ft", "value": 12}, "duration": {"text": "1 min", "value": 9}, "end_location": {"lat": 29.7048324, "lng": -95.5045322}, "html_instructions": "Turn <b>left</b> onto <b>Bellaire Blvd</b>", "maneuver": "turn-left", "polyline": {"points": "ivhtDxe|eQBN"}, "start_location": {"lat": 29.7048528, "lng": -95.5044535}, "travel_mode": "WALKING"}], "travel_mode": "WALKING"}, {"distance": {"text": "1.7 mi", "value": 2720}, "duration": {"text": "9 mins", "value": 545}, "end_location": {"lat": 29.705479, "lng": -95.47657799999999}, "html_instructions": "Bus towards TMC TC", "polyline": {"points": "avhtDff|eQKBEUE[E[G[Ge@Ea@E]KsAIeACg@Cw@A]?[?a@AM?_@?kA?qACeD?g@?gA?cBAw@AoDAQ?_@?m@AwEAcBA_B@aB?kAA_CCMAYAu@Bm@AqAA}C?s@Ao@AiA@U?O?}BAk@?y@A}@?SAaABYAeC?s@?s@?g@?YAY?{@AmA?c@AgAAqA?k@?]?}@?YAyE?k@Aq@?K?c@?Y?U?o@?m@?a@AgA?}@A}@@}ACkE?c@AsA?S?eA?sB?qACmB?e@?QJ?"}, "start_location": {"lat": 29.70480999999999, "lng": -95.504525}, "transit_details": {"arrival_stop": {"location": {"lat": 29.705479, "lng": -95.47657799999999}, "name": "Bellaire Blvd @ Chimney Rock Rd"}, "arrival_time": {"text": "3:26pm", "time_zone": "America/Chicago", "value": 1642022766}, "departure_stop": {"location": {"lat": 29.70480999999999, "lng": -95.504525}, "name": "Bellaire Blvd @ Bintliff Dr"}, "departure_time": {"text": "3:17pm", "time_zone": "America/Chicago", "value": 1642022221}, "headsign": "TMC TC", "line": {"agencies": [{"name": "Metropolitan Transit Authority of Harris County", "phone": "1 (713) 635-4000", "url": "http://www.ridemetro.org/"}], "color": "#004080", "name": "Bellaire", "short_name": "2", "text_color": "#ffffff", "url": "https://www.ridemetro.org/MetroPDFs/Schedules/BusSchedules/n002-Bellaire.pdf", "vehicle": {"icon": "//maps.gstatic.com/mapfiles/transit/iw2/6/bus2.png", "name": "Bus", "type": "BUS"}}, "num_stops": 10, "trip_short_name": "BELLAIRE"}, "travel_mode": "TRANSIT"}, {"distance": {"text": "236 ft", "value": 72}, "duration": {"text": "2 mins", "value": 91}, "end_location": {"lat": 29.7057718, "lng": -95.4761036}, "html_instructions": "Walk to Bellaire Blvd @ Chimney Rock Rd", "polyline": {"points": "kzhtDrwveQ?g@M?Q@M??OAG?O?QE?"}, "start_location": {"lat": 29.7055002, "lng": -95.4765779}, "steps": [{"distance": {"text": "75 ft", "value": 23}, "duration": {"text": "1 min", "value": 16}, "end_location": {"lat": 29.705572, "lng": -95.4763839}, "html_instructions": "Head <b>east</b> on <b>Bellaire Blvd</b> toward <b>Chimney Rock Rd</b>", "polyline": {"points": "kzhtDrwveQ?g@M?"}, "start_location": {"lat": 29.7055002, "lng": -95.4765779}, "travel_mode": "WALKING"}, {"distance": {"text": "59 ft", "value": 18}, "duration": {"text": "1 min", "value": 23}, "end_location": {"lat": 29.705733, "lng": -95.476309}, "html_instructions": "Turn <b>left</b> onto <b>Chimney Rock Rd</b>", "maneuver": "turn-left", "polyline": {"points": "yzhtDjvveQQ@M??O"}, "start_location": {"lat": 29.705572, "lng": -95.4763839}, "travel_mode": "WALKING"}, {"distance": {"text": "79 ft", "value": 24}, "duration": {"text": "1 min", "value": 47}, "end_location": {"lat": 29.705741, "lng": -95.4761047}, "html_instructions": "Turn <b>right</b> onto <b>Bellaire Blvd</b>", "maneuver": "turn-right", "polyline": {"points": "y{htD|uveQAG?O?Q"}, "start_location": {"lat": 29.705733, "lng": -95.476309}, "travel_mode": "WALKING"}, {"distance": {"text": "23 ft", "value": 7}, "duration": {"text": "1 min", "value": 5}, "end_location": {"lat": 29.7057718, "lng": -95.4761036}, "html_instructions": "Turn <b>left</b>", "maneuver": "turn-left", "polyline": {"points": "{{htDrtveQE?"}, "start_location": {"lat": 29.705741, "lng": -95.4761047}, "travel_mode": "WALKING"}], "travel_mode": "WALKING"}, {"distance": {"text": "7.9 mi", "value": 12715}, "duration": {"text": "35 mins", "value": 2125}, "end_location": {"lat": 29.783077, "lng": -95.455467}, "html_instructions": "Bus towards Northwest TC", "polyline": {"points": "a|htDttveQL??ViA?U?mA@I?sA?M@g@?Y?mA@_@?_@?O?G?YAk@@[?Y?s@@Q?u@?[?g@?w@@kC?[@yD@mB@{@?W@qD?Q?cB?cA@kB@q@@wA@O?u@?e@@Q?uD@mA?aA?c@?m@?A?Q?{B?qA@sA@a@?kC@aA?iCDaB@}A?uB?Q?eA@m@?c@?YAO?GAG?C?KAC?A?A?QAs@Cq@Aq@CE?A?YAe@AEAS?A?SA{@@cB?_A@[@cA?mB@oA?iC@w@@M?kA@_@?q@@c@?W@yA?Y@[?Y?k@?uEBoC@O@gA?G@M?yA@o@?m@@I?U@U?{@?sA@e@?Y?oA@S?aA@oA@_@??R@t@?fA?R?Z@N?N@F?L@V?H?HArA@L?J?^?hCiA?I?[?M?}B@c@@Y?I?w@@u@?uA?qA?cA@I?uB@iA?c@?uC@e@?]?K@g@?K?{B@_A?w@?aB@_A?K?g@?K@y@?Y?_A@C?S?A?o@?O@{@?mA@{A@I?uA@c@?e@?c@@[?c@?YAeB@a@?e@@{A?Y?iA@_B@s@@o@?w@@a@?O?U?sB?w@@m@?q@?aC@E?OAm@@Q?eA@eA@c@?iAAm@@mA@S?c@@]?_A?U?kA@G?m@?Y?c@@iA?]?Y@_@?i@?kA@Q?E?M?i@?M?Q?C?Q?]@_B@iA?K?Y@I?ODq@_AKQGKAAO[O]Qs@CEEYCSC_@C_@Aa@?SO?Q?YBWDA?SB[Dk@H_@FSBc@B_@HW@mB?oA@sAB]?y@B]?oABg@@Y?m@@}@AMAG?EA]Ca@EA?EAMAQAa@?gA?eA@o@?U?U?g@@M@I?WBg@F]JSFOFUJYNWROJGBm@b@uBzAmAx@UNABMHq@b@WNSNWRSLMJe@^y@v@ED_@`@WZQRY\\m@z@QXS\\Wd@[h@m@dAKNSX_@f@[^CAA?A?C?A@A?GFIHYVMLOLMJEBUTYX[TOPQPQNMFMFOFODSD[F{@FoAFqAFgBFgADw@BSAoE?kB@}@?OAC?q@CWAI?eAAB_B@]?C?]@A@i@@k@@q@@q@DeALcBDo@FkBBeAFyD?G@_@?i@?S@mC?C?qA?Q?o@?w@?[AqA?W?]AeC?{@?S?w@Aa@AoAEaBAUQ{FIqCEgA_@wKCcACe@Ak@AQGaBAS?MAcB?YAk@?E?[AQ?Y?cB?m@?cAAkA?gA@iB?mA?mA?i@?C?G?]@wB?G?C@{A@i@?[Bg@@Y@Y@UB_@Do@De@A?De@RwB\\aCd@gCRu@Z{@j@cAr@cAtB{BPWH[Fe@kHBQ?i@Sw@CSKISGOB_B?yA?i@BeCX?V?\\A^?\\?@?b@?BXQ^?f@?j@?d@W?"}, "start_location": {"lat": 29.705772, "lng": -95.476112}, "transit_details": {"arrival_stop": {"location": {"lat": 29.783077, "lng": -95.455467}, "name": "Northwest Transit Center - South Platform"}, "arrival_time": {"text": "4:08pm", "time_zone": "America/Chicago", "value": 1642025280}, "departure_stop": {"location": {"lat": 29.705772, "lng": -95.476112}, "name": "Bellaire Blvd @ Chimney Rock Rd"}, "departure_time": {"text": "3:32pm", "time_zone": "America/Chicago", "value": 1642023155}, "headsign": "Northwest TC", "line": {"agencies": [{"name": "Metropolitan Transit Authority of Harris County", "phone": "1 (713) 635-4000", "url": "http://www.ridemetro.org/"}], "color": "#004080", "name": "Chimney Rock / S Post Oak", "short_name": "49", "text_color": "#ffffff", "url": "https://www.ridemetro.org/MetroPDFs/Schedules/BusSchedules/n049-Chimney-Rock-S-Post-Oak.pdf", "vehicle": {"icon": "//maps.gstatic.com/mapfiles/transit/iw2/6/bus2.png", "name": "Bus", "type": "BUS"}}, "num_stops": 29, "trip_short_name": "CHIMROCPOS"}, "travel_mode": "TRANSIT"}, {"distance": {"text": "0.2 mi", "value": 263}, "duration": {"text": "3 mins", "value": 192}, "end_location": {"lat": 29.7837801, "lng": -95.4554653}, "html_instructions": "Walk to Northwest Transit Center - North Platform", "polyline": {"points": "_}wtDtqreQDUBODIK@]MMMECOKICKAK@E?U?E?_@@m@?AxAAX?f@"}, "start_location": {"lat": 29.7827161, "lng": -95.4551537}, "steps": [{"distance": {"text": "121 ft", "value": 37}, "duration": {"text": "1 min", "value": 26}, "end_location": {"lat": 29.78264219999999, "lng": -95.4549134}, "html_instructions": "Head <b>east</b>", "polyline": {"points": "_}wtDtqreQDUBODI"}, "start_location": {"lat": 29.7827161, "lng": -95.4551537}, "travel_mode": "WALKING"}, {"distance": {"text": "482 ft", "value": 147}, "duration": {"text": "2 mins", "value": 109}, "end_location": {"lat": 29.7837613, "lng": -95.45468609999999}, "html_instructions": "Sharp <b>left</b> toward <b>Old Katy Rd</b>", "maneuver": "turn-sharp-left", "polyline": {"points": "o|wtDdpreQK@]MMMECOKICKAK@E?U?E?_@@m@?"}, "start_location": {"lat": 29.78264219999999, "lng": -95.4549134}, "travel_mode": "WALKING"}, {"distance": {"text": "259 ft", "value": 79}, "duration": {"text": "1 min", "value": 57}, "end_location": {"lat": 29.7837801, "lng": -95.4554653}, "html_instructions": "Turn <b>left</b> onto <b>Old Katy Rd</b>", "maneuver": "turn-left", "polyline": {"points": "ocxtDxnreQAxAAX?f@"}, "start_location": {"lat": 29.7837613, "lng": -95.45468609999999}, "travel_mode": "WALKING"}], "travel_mode": "WALKING"}, {"distance": {"text": "1.7 mi", "value": 2678}, "duration": {"text": "7 mins", "value": 408}, "end_location": {"lat": 29.801027, "lng": -95.45922999999999}, "html_instructions": "Bus towards SH 249", "polyline": {"points": "w~wtDvwreQRwAF@D?DABA@CDIDSB[@g@BUBM@AN]FGJY@K?MCUCKCCA?OGQAGAE?E@GDQJOPMD[BY@W?aAAY@c@?AVAzAAb@?f@?L?ZAn@?`B?R?f@sBNO@Q@Y?W?K@wA@y@@K?u@?wA@U?O?}@@I?Y?_@?_@@oA@oD@eABM?A?a@?c@?qA@W?w@?cA@s@?c@@_@?uA@a@?OAY?q@@c@?_@?[@cA@a@?U?G?C?E?]@S?S@]@c@?}@@M?w@@]?mA@_B@W?E?e@Aa@EQEWG[OUM[QIG_@Ui@i@e@_@OQQQOMCCc@a@MR{A|BU\\W`@sBtCg@z@a@L{@vA]b@Sd@w@lAYh@OQ"}, "start_location": {"lat": 29.7830001, "lng": -95.4561157}, "transit_details": {"arrival_stop": {"location": {"lat": 29.801027, "lng": -95.45922999999999}, "name": "Hempstead Rd @ W 18th St"}, "arrival_time": {"text": "4:25pm", "time_zone": "America/Chicago", "value": 1642026348}, "departure_stop": {"location": {"lat": 29.7830001, "lng": -95.4561157}, "name": "Northwest Transit Center - North Platform"}, "departure_time": {"text": "4:19pm", "time_zone": "America/Chicago", "value": 1642025940}, "headsign": "SH 249", "line": {"agencies": [{"name": "Metropolitan Transit Authority of Harris County", "phone": "1 (713) 635-4000", "url": "http://www.ridemetro.org/"}], "color": "#004080", "name": "Antoine / Washington", "short_name": "85", "text_color": "#ffffff", "url": "https://www.ridemetro.org/MetroPDFs/Schedules/BusSchedules/n085-Antoine-Washington.pdf", "vehicle": {"icon": "//maps.gstatic.com/mapfiles/transit/iw2/6/bus2.png", "name": "Bus", "type": "BUS"}}, "num_stops": 8, "trip_short_name": "ANTOINWAS"}, "travel_mode": "TRANSIT"}, {"distance": {"text": "0.5 mi", "value": 738}, "duration": {"text": "10 mins", "value": 587}, "end_location": {"lat": 29.8019199, "lng": -95.45428179999999}, "html_instructions": "Walk to 4400 W 18th St, Houston, TX 77092, USA", "polyline": {"points": "mo{tDdkseQKPKKKAK?I@IB?Q?aA?M?QAO?OM?M@M?mED@[Ae@?g@ASDKP]d@}@Xq@B]QOIIOMEKKAQUGGEIAE?C?A@C@EBEV_@KMNWHMJSRa@Ts@R}@Jy@Hy@?G@Q@a@"}, "start_location": {"lat": 29.8010254, "lng": -95.4592253}, "steps": [{"distance": {"text": "49 ft", "value": 15}, "duration": {"text": "1 min", "value": 11}, "end_location": {"lat": 29.8011512, "lng": -95.4592626}, "html_instructions": "Head <b>northwest</b>", "polyline": {"points": "mo{tDdkseQKPKK"}, "start_location": {"lat": 29.8010254, "lng": -95.4592253}, "travel_mode": "WALKING"}, {"distance": {"text": "102 ft", "value": 31}, "duration": {"text": "1 min", "value": 23}, "end_location": {"lat": 29.8013705, "lng": -95.4592806}, "html_instructions": "Turn <b>right</b> toward <b>W 18th St</b>", "maneuver": "turn-right", "polyline": {"points": "ep{tDjkseQKAK?I@IB"}, "start_location": {"lat": 29.8011512, "lng": -95.4592626}, "travel_mode": "WALKING"}, {"distance": {"text": "240 ft", "value": 73}, "duration": {"text": "1 min", "value": 61}, "end_location": {"lat": 29.8014508, "lng": -95.4585436}, "html_instructions": "Turn <b>right</b> onto <b>W 18th St</b>", "maneuver": "turn-right", "polyline": {"points": "qq{tDnkseQ?Q?aA?M?QAO?OM?"}, "start_location": {"lat": 29.8013705, "lng": -95.4592806}, "travel_mode": "WALKING"}, {"distance": {"text": "440 ft", "value": 134}, "duration": {"text": "2 mins", "value": 127}, "end_location": {"lat": 29.80261729999999, "lng": -95.45858140000001}, "html_instructions": "Turn <b>left</b> onto <b>Mangum Rd</b>", "maneuver": "turn-left", "polyline": {"points": "ar{tDzfseQM@M?mED"}, "start_location": {"lat": 29.8014508, "lng": -95.4585436}, "travel_mode": "WALKING"}, {"distance": {"text": "0.1 mi", "value": 168}, "duration": {"text": "2 mins", "value": 133}, "end_location": {"lat": 29.8021725, "lng": -95.45703209999999}, "html_instructions": "Turn <b>right</b>", "maneuver": "turn-right", "polyline": {"points": "ky{tDbgseQ@[Ae@?g@ASDKP]d@}@Xq@B]"}, "start_location": {"lat": 29.80261729999999, "lng": -95.45858140000001}, "travel_mode": "WALKING"}, {"distance": {"text": "348 ft", "value": 106}, "duration": {"text": "1 min", "value": 80}, "end_location": {"lat": 29.8024852, "lng": -95.4562641}, "html_instructions": "Turn <b>left</b><div style=\"font-size:0.9em\">Partial restricted usage road</div>", "maneuver": "turn-left", "polyline": {"points": "qv{tDl}reQQOIIOMEKKAQUGGEIAE?C?A@C@EBEV_@"}, "start_location": {"lat": 29.8021725, "lng": -95.45703209999999}, "travel_mode": "WALKING"}, {"distance": {"text": "33 ft", "value": 10}, "duration": {"text": "1 min", "value": 8}, "end_location": {"lat": 29.8025494, "lng": -95.456192}, "html_instructions": "Turn <b>left</b><div style=\"font-size:0.9em\">Restricted usage road</div>", "maneuver": "turn-left", "polyline": {"points": "qx{tDrxreQKM"}, "start_location": {"lat": 29.8024852, "lng": -95.4562641}, "travel_mode": "WALKING"}, {"distance": {"text": "0.1 mi", "value": 201}, "duration": {"text": "2 mins", "value": 144}, "end_location": {"lat": 29.8019199, "lng": -95.45428179999999}, "html_instructions": "Turn <b>right</b><div style=\"font-size:0.9em\">Restricted usage road</div><div style=\"font-size:0.9em\">Destination will be on the left</div>", "maneuver": "turn-right", "polyline": {"points": "}x{tDdxreQNWHMJSRa@Ts@R}@Jy@Hy@?G@Q@a@"}, "start_location": {"lat": 29.8025494, "lng": -95.456192}, "travel_mode": "WALKING"}], "travel_mode": "WALKING"}], "traffic_speed_entry": [], "via_waypoint": []}], "overview_polyline": {"points": "ckgtDlq{eQu@AMEOG?nBAZEFKB_@@BXRdANdAF`A?v@G|@CNYCcBMoAImBEaDA{CJgDXeBTeBXeB`@UFwCv@BNBAKBYiB_@yDMmBEuAAkBCkJGkUAqJA_CCMCoABm@AqAAqECyB@e@CaHAuA@_D?iDCgEEaQIk[CyJ?w@J?C??g@M?_@@Ay@E@L??V_B?wA@cD@}C@iB?uC@gG@_KD_I@yHFgNBqODkED_E@{F@qBEuDKeAEeB?cSH{IFwHBoFDwHDiLFDhF@fE?hCiA?e@?iEBcND}YHaTJ}J@mKFqMBaEByE@sHBmIDqC@oEBYD}@qAi@gAUy@Im@IuBa@?q@H}ARs@JcALiHFeEFaA@kB?y@Gw@IaE?cC@wALwAf@iAr@gGhEyA`AmA|@_BvAe@f@i@n@gAxAyAfCy@tAs@`A[^CAC?G@y@v@y@r@u@n@a@b@_@V]Nc@JwANqI\\w@BSA{H@cCEa@AeAAB_B@a@@_@FyDRiDL{CLgH@cJCqLIkGc@kNu@cUE{I?uPDsHFwBPkCBe@RwB\\aCd@gCRu@Z{@j@cAr@cAtB{BPWH[Fe@kHBQ?i@Sw@CSKQc@FiJnBA^?b@?BXQ^?f@?pAW?fA_AHe@DIK@]MMMUOUEm@@mA@CrB?f@zC`CRwAF@JADEJ]DcAFc@P_@Ra@@YGa@ECOGQAMAMFa@\\MD[Bq@@{A?c@?AVC~B?t@A`E?f@sBNa@BuCBaIDoLHcKDwH@gEDkGFkEBgAGi@MwAw@_@Ui@i@u@q@iAeAwCpEsBtCg@z@a@L{@vA]b@Sd@qAvBOQKPKKWASD?sBA_@[@{ED?aAA{@Vi@~@oBB]QOYWEKKAY]GOBOZe@KMNWTa@Ra@Ts@R}@TsBB{@"}, "summary": "", "warnings": ["Walking directions are in beta. Use caution \u2013 This route may be missing sidewalks or pedestrian paths."], "waypoint_order": []}, {"bounds": {"northeast": {"lat": 29.8026478, "lng": -95.45427269999999}, "southwest": {"lat": 29.6972463, "lng": -95.5011912}}, "copyrights": "Map data \u00a92022", "legs": [{"arrival_time": {"text": "4:49pm", "time_zone": "America/Chicago", "value": 1642027775}, "departure_time": {"text": "3:26pm", "time_zone": "America/Chicago", "value": 1642022763}, "distance": {"text": "11.4 mi", "value": 18426}, "duration": {"text": "1 hour 24 mins", "value": 5012}, "end_address": "4400 W 18th St, Houston, TX 77092, USA", "end_location": {"lat": 29.8019199, "lng": -95.45428179999999}, "start_address": "7402 Albacore Dr, Houston, TX 77074, USA", "start_location": {"lat": 29.6979427, "lng": -95.5011912}, "steps": [{"distance": {"text": "0.7 mi", "value": 1193}, "duration": {"text": "15 mins", "value": 892}, "end_location": {"lat": 29.7001589, "lng": -95.4928288}, "html_instructions": "Walk to Hillcroft Ave @ Neff St", "polyline": {"points": "ckgtDlq{eQt@?HCBA@A?ADKDc@@Qt@BCsGAYO_@WW]QMGBGd@eC\\uBoCi@MCs@MaB[MCsCi@MCoCm@BORqANgBBq@DqA@Q@}C?}D?O?g@?OH?"}, "start_location": {"lat": 29.6979427, "lng": -95.5011912}, "steps": [{"distance": {"text": "230 ft", "value": 70}, "duration": {"text": "1 min", "value": 50}, "end_location": {"lat": 29.697522, "lng": -95.5008129}, "html_instructions": "Head <b>south</b> toward <b>Albacore Dr</b>", "polyline": {"points": "ckgtDlq{eQt@?HCBA@A?ADKDc@@Q"}, "start_location": {"lat": 29.6979427, "lng": -95.5011912}, "travel_mode": "WALKING"}, {"distance": {"text": "115 ft", "value": 35}, "duration": {"text": "1 min", "value": 27}, "end_location": {"lat": 29.6972463, "lng": -95.5008261}, "html_instructions": "Turn <b>right</b> onto <b>Albacore Dr</b>", "maneuver": "turn-right", "polyline": {"points": "ohgtD`o{eQt@B"}, "start_location": {"lat": 29.697522, "lng": -95.5008129}, "travel_mode": "WALKING"}, {"distance": {"text": "0.1 mi", "value": 213}, "duration": {"text": "3 mins", "value": 153}, "end_location": {"lat": 29.6976823, "lng": -95.49887369999999}, "html_instructions": "Turn <b>left</b> onto <b>Sandstone St</b>", "maneuver": "turn-left", "polyline": {"points": "yfgtDdo{eQCsGAYO_@WW]QMGBG"}, "start_location": {"lat": 29.6972463, "lng": -95.5008261}, "travel_mode": "WALKING"}, {"distance": {"text": "433 ft", "value": 132}, "duration": {"text": "2 mins", "value": 97}, "end_location": {"lat": 29.69733969999999, "lng": -95.4976121}, "html_instructions": "Turn <b>right</b> onto <b>Sharpview Dr</b>", "maneuver": "turn-right", "polyline": {"points": "oigtD|b{eQd@eC\\uB"}, "start_location": {"lat": 29.6976823, "lng": -95.49887369999999}, "travel_mode": "WALKING"}, {"distance": {"text": "0.2 mi", "value": 368}, "duration": {"text": "5 mins", "value": 271}, "end_location": {"lat": 29.70045679999999, "lng": -95.49660829999999}, "html_instructions": "Turn <b>left</b> onto <b>Braewick Dr</b>", "maneuver": "turn-left", "polyline": {"points": "kggtD`{zeQoCi@MCs@MaB[MCsCi@MCoCm@BO"}, "start_location": {"lat": 29.69733969999999, "lng": -95.4976121}, "travel_mode": "WALKING"}, {"distance": {"text": "0.2 mi", "value": 366}, "duration": {"text": "5 mins", "value": 277}, "end_location": {"lat": 29.7002084, "lng": -95.49282910000001}, "html_instructions": "Turn <b>right</b> onto <b>Neff St</b>", "maneuver": "turn-right", "polyline": {"points": "{zgtDxtzeQRqANgBBq@DqA@Q@}C?}D?O?g@?O"}, "start_location": {"lat": 29.70045679999999, "lng": -95.49660829999999}, "travel_mode": "WALKING"}, {"distance": {"text": "30 ft", "value": 9}, "duration": {"text": "1 min", "value": 17}, "end_location": {"lat": 29.7001589, "lng": -95.4928288}, "html_instructions": "Turn <b>right</b> onto <b>Hillcroft Ave</b><div style=\"font-size:0.9em\">Destination will be on the left</div>", "maneuver": "turn-right", "polyline": {"points": "iygtDd}yeQH?"}, "start_location": {"lat": 29.7002084, "lng": -95.49282910000001}, "travel_mode": "WALKING"}], "travel_mode": "WALKING"}, {"distance": {"text": "8.4 mi", "value": 13554}, "duration": {"text": "43 mins", "value": 2585}, "end_location": {"lat": 29.783077, "lng": -95.455467}, "html_instructions": "Bus towards Northwest TC", "polyline": {"points": "_ygtD`}yeQ?JO?oC@Q?cC@K?K?I?qA@kB?oCBO?iA@]?O?q@@qA@[@m@@U?_@@{AAsA@oBBU@O?UAm@A_A@eA?e@@M?M?c@@u@@C?G?MAi@AM@yA@q@@C?]BoALYFSDu@PeA^EBs@\\_@ROJSLIFQLIFa@\\UTmAxAs@x@]\\KLQR?@ONCD_@h@WZe@l@KNSTUXQPMNMPWXOTIJ_@b@iArAKNQRKLg@l@_@\\YVWVc@j@IJIJQRMPKJABQRABA?A@GHEFCBWZ[\\SV[^q@x@MN_@X[PMHULSJYJUFkAVMDUDQDs@FY@S@uAD_C?mABaA?mA?mBB_A?S?A?g@?cDBaB?M?Y@{A?c@?gA@a@@c@?qA?u@?i@?o@@m@?wA@mA@o@?A?s@@w@?_B@kBB_A?q@@_@?eA@i@?]?m@@[?a@?s@@aA@aAAeABS?y@@i@Ag@AG?QAu@CKAKA_@GMCSEKCk@IKCUAIAKAKAI?a@EMAGCC?KAO?MAa@?S?{@@C?i@@cA?_@@m@?a@?eB?}@?I?WAgA@Y@aAA{ABcA?I?sC@]?kA@_@?E?C?K?yABo@?MAkCBw@@g@?a@?YA]?M?i@@]?O@q@?I?m@?gA@{BBiE?iBB{A@eE?}ADG?yABW?WA_@@a@?sA?kA?gBAk@@sA@]@y@@o@?k@?GIAAC?MEGAEAMEICSIKEGEQK[Oa@m@CC[e@IMS[?AEIEIKWWy@WsAe@aCUoAES_@qBGYKk@o@mDQ}@GUCOY{AScAI]y@qE]gBY{A]kBUgAG_@i@uCk@{CKg@ACGe@G[Gi@?CGo@AOASc@iFC_@WuCG}@CUC[AWW{CEc@Ku@I[GSISIQOYQW[c@iAmAwAiBc@i@{@{@QSm@o@gAsACE_@c@SYyAaBi@k@IKs@w@s@y@KM]a@WYq@_AKQGKAAO[O]Qs@CEEYCSC_@C_@Aa@?S?Q?y@Ay@?uA?ICcEAcD?]AaFC}DCY@Y@O?S@G?G@IB[Fc@F[Nk@JYLa@FQNc@Ja@He@Ho@B]B_@@S@Y?Y?g@?Y?aB@W@SFw@F_@?AH_@Tu@Tg@b@w@LW@?Pc@FQJUFUHWBMFYBS@E@G@Q?IBS?Q@M?OAq@?i@?]AoAAwB?AAY?KAEA]?CAICOE[Kc@Ma@CGGOGQEGIOEISYUYCCYYa@g@QS?AOQIMMYA?Wk@I[IYIc@?CEWCUCQCe@KyAI{@CQEQEOKYUs@Ue@}AiDUi@KW_@y@QLSBY@c@?u@@m@@eCB}DDsCAK?U?}B@_A@yA@wEBeBBU?e@AW?cDBI?K?k@?U@?o@?WAO?qAA_@?UY@oA?]?A?A?G?G?SAEAWAO?Y?c@?c@@gA@a@?kB@c@@aB@m@@}@?kB?c@??RiA?eBDcB?kA@sA@A??@gA?gFDkHBQ?i@Sw@CSKISGOB_B?yA?i@BeCX?V?\\A^?\\?@?b@?BXQ^?f@?j@?d@W?"}, "start_location": {"lat": 29.700159, "lng": -95.49280900000001}, "transit_details": {"arrival_stop": {"location": {"lat": 29.783077, "lng": -95.455467}, "name": "Northwest Transit Center - South Platform"}, "arrival_time": {"text": "4:24pm", "time_zone": "America/Chicago", "value": 1642026240}, "departure_stop": {"location": {"lat": 29.700159, "lng": -95.49280900000001}, "name": "Hillcroft Ave @ Neff St"}, "departure_time": {"text": "3:40pm", "time_zone": "America/Chicago", "value": 1642023655}, "headsign": "Northwest TC", "line": {"agencies": [{"name": "Metropolitan Transit Authority of Harris County", "phone": "1 (713) 635-4000", "url": "http://www.ridemetro.org/"}], "color": "#004080", "name": "Hillcroft", "short_name": "47", "text_color": "#ffffff", "url": "https://www.ridemetro.org/MetroPDFs/Schedules/BusSchedules/n047-Hillcroft.pdf", "vehicle": {"icon": "//maps.gstatic.com/mapfiles/transit/iw2/6/bus2.png", "name": "Bus", "type": "BUS"}}, "num_stops": 41, "trip_short_name": "HILLCROFT"}, "travel_mode": "TRANSIT"}, {"distance": {"text": "0.2 mi", "value": 263}, "duration": {"text": "3 mins", "value": 192}, "end_location": {"lat": 29.7837801, "lng": -95.4554653}, "html_instructions": "Walk to Northwest Transit Center - North Platform", "polyline": {"points": "_}wtDtqreQDUBODIK@]MMMECOKICKAK@E?U?E?_@@m@?AxAAX?f@"}, "start_location": {"lat": 29.7827161, "lng": -95.4551537}, "steps": [{"distance": {"text": "121 ft", "value": 37}, "duration": {"text": "1 min", "value": 26}, "end_location": {"lat": 29.78264219999999, "lng": -95.4549134}, "html_instructions": "Head <b>east</b>", "polyline": {"points": "_}wtDtqreQDUBODI"}, "start_location": {"lat": 29.7827161, "lng": -95.4551537}, "travel_mode": "WALKING"}, {"distance": {"text": "482 ft", "value": 147}, "duration": {"text": "2 mins", "value": 109}, "end_location": {"lat": 29.7837613, "lng": -95.45468609999999}, "html_instructions": "Sharp <b>left</b> toward <b>Old Katy Rd</b>", "maneuver": "turn-sharp-left", "polyline": {"points": "o|wtDdpreQK@]MMMECOKICKAK@E?U?E?_@@m@?"}, "start_location": {"lat": 29.78264219999999, "lng": -95.4549134}, "travel_mode": "WALKING"}, {"distance": {"text": "259 ft", "value": 79}, "duration": {"text": "1 min", "value": 57}, "end_location": {"lat": 29.7837801, "lng": -95.4554653}, "html_instructions": "Turn <b>left</b> onto <b>Old Katy Rd</b>", "maneuver": "turn-left", "polyline": {"points": "ocxtDxnreQAxAAX?f@"}, "start_location": {"lat": 29.7837613, "lng": -95.45468609999999}, "travel_mode": "WALKING"}], "travel_mode": "WALKING"}, {"distance": {"text": "1.7 mi", "value": 2678}, "duration": {"text": "7 mins", "value": 408}, "end_location": {"lat": 29.801027, "lng": -95.45922999999999}, "html_instructions": "Bus towards Greenspoint TC", "polyline": {"points": "w~wtDvwreQRwAF@D?DABA@CDIDSB[@g@BUBM@AN]FGJY@K?MCUCKCCA?OGQAGAE?E@GDQJOPMD[BY@W?aAAY@c@?AVAzAAb@?f@?L?ZAn@?`B?R?f@sBNO@Q@Y?W?K@wA@y@@K?u@?wA@U?O?}@@I?Y?_@?_@@oA@oD@eABM?A?a@?c@?qA@W?w@?cA@s@?c@@_@?uA@a@?OAY?q@@c@?_@?[@cA@a@?U?G?C?E?]@S?S@]@c@?}@@M?w@@]?mA@_B@W?E?e@Aa@EQEWG[OUM[QIG_@Ui@i@e@_@OQQQOMCCc@a@MR{A|BU\\W`@sBtCg@z@a@L{@vA]b@Sd@w@lAYh@OQ"}, "start_location": {"lat": 29.7830001, "lng": -95.4561157}, "transit_details": {"arrival_stop": {"location": {"lat": 29.801027, "lng": -95.45922999999999}, "name": "Hempstead Rd @ W 18th St"}, "arrival_time": {"text": "4:39pm", "time_zone": "America/Chicago", "value": 1642027188}, "departure_stop": {"location": {"lat": 29.7830001, "lng": -95.4561157}, "name": "Northwest Transit Center - North Platform"}, "departure_time": {"text": "4:33pm", "time_zone": "America/Chicago", "value": 1642026780}, "headsign": "Greenspoint TC", "line": {"agencies": [{"name": "Metropolitan Transit Authority of Harris County", "phone": "1 (713) 635-4000", "url": "http://www.ridemetro.org/"}], "color": "#004080", "name": "Antoine / Washington", "short_name": "85", "text_color": "#ffffff", "url": "https://www.ridemetro.org/MetroPDFs/Schedules/BusSchedules/n085-Antoine-Washington.pdf", "vehicle": {"icon": "//maps.gstatic.com/mapfiles/transit/iw2/6/bus2.png", "name": "Bus", "type": "BUS"}}, "num_stops": 8, "trip_short_name": "ANTOINWAS"}, "travel_mode": "TRANSIT"}, {"distance": {"text": "0.5 mi", "value": 738}, "duration": {"text": "10 mins", "value": 587}, "end_location": {"lat": 29.8019199, "lng": -95.45428179999999}, "html_instructions": "Walk to 4400 W 18th St, Houston, TX 77092, USA", "polyline": {"points": "mo{tDdkseQKPKKKAK?I@IB?Q?aA?M?QAO?OM?M@M?mED@[Ae@?g@ASDKP]d@}@Xq@B]QOIIOMEKKAQUGGEIAE?C?A@C@EBEV_@KMNWHMJSRa@Ts@R}@Jy@Hy@?G@Q@a@"}, "start_location": {"lat": 29.8010254, "lng": -95.4592253}, "steps": [{"distance": {"text": "49 ft", "value": 15}, "duration": {"text": "1 min", "value": 11}, "end_location": {"lat": 29.8011512, "lng": -95.4592626}, "html_instructions": "Head <b>northwest</b>", "polyline": {"points": "mo{tDdkseQKPKK"}, "start_location": {"lat": 29.8010254, "lng": -95.4592253}, "travel_mode": "WALKING"}, {"distance": {"text": "102 ft", "value": 31}, "duration": {"text": "1 min", "value": 23}, "end_location": {"lat": 29.8013705, "lng": -95.4592806}, "html_instructions": "Turn <b>right</b> toward <b>W 18th St</b>", "maneuver": "turn-right", "polyline": {"points": "ep{tDjkseQKAK?I@IB"}, "start_location": {"lat": 29.8011512, "lng": -95.4592626}, "travel_mode": "WALKING"}, {"distance": {"text": "240 ft", "value": 73}, "duration": {"text": "1 min", "value": 61}, "end_location": {"lat": 29.8014508, "lng": -95.4585436}, "html_instructions": "Turn <b>right</b> onto <b>W 18th St</b>", "maneuver": "turn-right", "polyline": {"points": "qq{tDnkseQ?Q?aA?M?QAO?OM?"}, "start_location": {"lat": 29.8013705, "lng": -95.4592806}, "travel_mode": "WALKING"}, {"distance": {"text": "440 ft", "value": 134}, "duration": {"text": "2 mins", "value": 127}, "end_location": {"lat": 29.80261729999999, "lng": -95.45858140000001}, "html_instructions": "Turn <b>left</b> onto <b>Mangum Rd</b>", "maneuver": "turn-left", "polyline": {"points": "ar{tDzfseQM@M?mED"}, "start_location": {"lat": 29.8014508, "lng": -95.4585436}, "travel_mode": "WALKING"}, {"distance": {"text": "0.1 mi", "value": 168}, "duration": {"text": "2 mins", "value": 133}, "end_location": {"lat": 29.8021725, "lng": -95.45703209999999}, "html_instructions": "Turn <b>right</b>", "maneuver": "turn-right", "polyline": {"points": "ky{tDbgseQ@[Ae@?g@ASDKP]d@}@Xq@B]"}, "start_location": {"lat": 29.80261729999999, "lng": -95.45858140000001}, "travel_mode": "WALKING"}, {"distance": {"text": "348 ft", "value": 106}, "duration": {"text": "1 min", "value": 80}, "end_location": {"lat": 29.8024852, "lng": -95.4562641}, "html_instructions": "Turn <b>left</b><div style=\"font-size:0.9em\">Partial restricted usage road</div>", "maneuver": "turn-left", "polyline": {"points": "qv{tDl}reQQOIIOMEKKAQUGGEIAE?C?A@C@EBEV_@"}, "start_location": {"lat": 29.8021725, "lng": -95.45703209999999}, "travel_mode": "WALKING"}, {"distance": {"text": "33 ft", "value": 10}, "duration": {"text": "1 min", "value": 8}, "end_location": {"lat": 29.8025494, "lng": -95.456192}, "html_instructions": "Turn <b>left</b><div style=\"font-size:0.9em\">Restricted usage road</div>", "maneuver": "turn-left", "polyline": {"points": "qx{tDrxreQKM"}, "start_location": {"lat": 29.8024852, "lng": -95.4562641}, "travel_mode": "WALKING"}, {"distance": {"text": "0.1 mi", "value": 201}, "duration": {"text": "2 mins", "value": 144}, "end_location": {"lat": 29.8019199, "lng": -95.45428179999999}, "html_instructions": "Turn <b>right</b><div style=\"font-size:0.9em\">Restricted usage road</div><div style=\"font-size:0.9em\">Destination will be on the left</div>", "maneuver": "turn-right", "polyline": {"points": "}x{tDdxreQNWHMJSRa@Ts@R}@Jy@Hy@?G@Q@a@"}, "start_location": {"lat": 29.8025494, "lng": -95.456192}, "travel_mode": "WALKING"}], "travel_mode": "WALKING"}], "traffic_speed_entry": [], "via_waypoint": []}], "overview_polyline": {"points": "ckgtDlq{eQ~@CDCDMFu@t@BCsGAYO_@WW]QMGBGbA{F}Cm@wHwA}Cq@VaBNgBBq@FcB@sK?OH??C?J_D@uC@sB@uIDqDB_CDoD?eCDe@AmB?gC@eBBw@CgBBu@@mBPm@Lu@PeA^y@`@o@^y@j@a@\\cBnBoBxBs@`A}AnBuClDsBdCyBzBwBlCkAtAoB`C{@j@c@Vm@VaB^c@JeALm@BuEDkIFkLDiFBuE?aLFiZPsCA_BImAUwAQiBQsAAmDB}J@{A?_DBgGByID_B@{@AsB@yB@cEDsHBaH@eBDqBBw@?iHAwEF{A?IK_@Iw@YYQ[Oa@m@_@i@]i@Wm@o@mC{@qEy@kE_EaTuEqVYoBKwAiBcUQyAQo@Se@a@q@eBqB{BsCmAoAuBcCqCeD{CiDi@o@iAyAe@{@a@qAI_@MuBGaRA_GGwEDeALqAVgAX{@Vu@TgARaC@uB@yBHkAFa@^uAhAwBl@aBXsADi@DcACiEC_DEq@Ik@YeAYq@OYi@s@qAyAg@{@Yk@Su@SuA]mEIc@Qi@k@yAsBsEk@qAQLSB}@@cBBcIH_DAmHD}HF{@AqEBaA@?gACwCiC@mBEqMJiD?c@??RoDDoD@}CBsOHQ?i@Sw@CSKQc@FiJnBA^?b@?BXQ^?f@?pAW?fA_AHe@DIK@]MMMUOUEm@@mA@CrB?f@zC`CRwAF@JADEJ]DcAFc@P_@Ra@@YGa@ECOGQAMAMFa@\\MD[Bq@@{A?c@?AVC~B?t@A`E?f@sBNa@BuCBaIDoLHcKDwH@gEDkGFkEBgAGi@MwAw@_@Ui@i@u@q@iAeAwCpEsBtCg@z@a@L{@vA]b@Sd@qAvBOQKPKKWASD?sBA_@[@{ED?aAA{@Vi@~@oBB]QOYWEKKAY]GOBOZe@KMNWTa@Ra@Ts@R}@TsBB{@"}, "summary": "", "warnings": ["Walking directions are in beta. Use caution \u2013 This route may be missing sidewalks or pedestrian paths."], "waypoint_order": []}], "status": "OK"}