{"geocoded_waypoints": [{"geocoder_status": "OK", "place_id": "ChIJrX0GTnXpQIYR4wRV2pDAu40", "types": ["establishment", "point_of_interest", "primary_school", "school"]}, {"geocoder_status": "OK", "place_id": "ChIJ9_tphxzHQIYRIMyPy_d3VZU", "types": ["establishment", "point_of_interest"]}], "routes": [{"bounds": {"northeast": {"lat": 29.803869, "lng": -95.4082861}, "southwest": {"lat": 29.6246355, "lng": -95.50888909999999}}, "copyrights": "Map data \u00a92022 Google", "legs": [{"arrival_time": {"text": "5:04pm", "time_zone": "America/Chicago", "value": 1642028697}, "departure_time": {"text": "3:01pm", "time_zone": "America/Chicago", "value": 1642021293}, "distance": {"text": "20.2 mi", "value": 32447}, "duration": {"text": "2 hours 3 mins", "value": 7404}, "end_address": "4400 W 18th St, Houston, TX 77092, USA", "end_location": {"lat": 29.8019199, "lng": -95.45428179999999}, "start_address": "12405 Carlsbad St, Houston, TX 77085, USA", "start_location": {"lat": 29.6288077, "lng": -95.4987027}, "steps": [{"distance": {"text": "0.7 mi", "value": 1142}, "duration": {"text": "14 mins", "value": 855}, "end_location": {"lat": 29.6246355, "lng": -95.5072656}, "html_instructions": "Walk to Fondren Dr @ W Orem Dr", "polyline": {"points": "a{ysDza{eQ?xAlAAD?P?n@A|CCr@?dA?@HLAL?LAFvAHjB@RLrADb@PtAZxARt@r@rBPd@d@lAh@hBd@|BFXZnCBf@B\\@r@Br@?hA?`B?r@AVPB"}, "start_location": {"lat": 29.6288077, "lng": -95.4987027}, "steps": [{"distance": {"text": "141 ft", "value": 43}, "duration": {"text": "1 min", "value": 31}, "end_location": {"lat": 29.6288077, "lng": -95.4991452}, "html_instructions": "Head <b>west</b> toward <b>Carlsbad St</b>", "polyline": {"points": "a{ysDza{eQ?xA"}, "start_location": {"lat": 29.6288077, "lng": -95.4987027}, "travel_mode": "WALKING"}, {"distance": {"text": "0.2 mi", "value": 259}, "duration": {"text": "3 mins", "value": 205}, "end_location": {"lat": 29.6264383, "lng": -95.4991404}, "html_instructions": "Turn <b>left</b> onto <b>Carlsbad St</b>", "maneuver": "turn-left", "polyline": {"points": "a{ysDtd{eQlAAD?P?n@A|CCr@?dA?@HLAL?LA"}, "start_location": {"lat": 29.6288077, "lng": -95.4991452}, "travel_mode": "WALKING"}, {"distance": {"text": "0.5 mi", "value": 826}, "duration": {"text": "10 mins", "value": 609}, "end_location": {"lat": 29.62472979999999, "lng": -95.50725399999999}, "html_instructions": "Turn <b>right</b> onto <b>W Orem Dr</b>", "maneuver": "turn-right", "polyline": {"points": "glysDrd{eQFvAHjB@RLrADb@PtAZxARt@r@rBPd@d@lAh@hBd@|BFXZnCBf@B\\@r@Br@?hA?`B?r@AV"}, "start_location": {"lat": 29.6264383, "lng": -95.4991404}, "travel_mode": "WALKING"}, {"distance": {"text": "46 ft", "value": 14}, "duration": {"text": "1 min", "value": 10}, "end_location": {"lat": 29.6246355, "lng": -95.5072656}, "html_instructions": "Turn <b>left</b> onto <b>Fondren Rd</b>", "maneuver": "turn-left", "polyline": {"points": "qaysDhw|eQPB"}, "start_location": {"lat": 29.62472979999999, "lng": -95.50725399999999}, "travel_mode": "WALKING"}], "travel_mode": "WALKING"}, {"distance": {"text": "4.3 mi", "value": 6915}, "duration": {"text": "18 mins", "value": 1088}, "end_location": {"lat": 29.686624, "lng": -95.508606}, "html_instructions": "Bus towards Westheimer Rd", "polyline": {"points": "_aysDjw|eQ?HYCWAw@C{BASAwA@A?W?aA@C?sA?E?]@I?{A?E?sA?E?Q@gA@y@@e@BU@O?s@D_@@c@BUBW@[D]DWBYDE?OBaBb@WFk@LODq@Ni@F{@Lm@Bk@DiDDaA?Y?Q?{C@e@?Q?sD@M?eB?sA@cB?eA@c@?eFBqC?mA@I@oAAkA?e@?mA@kB@G?gA?q@?aABK?Y?K?k@?Y?oA?c@?[?}@@i@?s@?}@?uB@e@?I?a@?c@@QA}DBw@?wC?wA@kBBS?cCA[?c@?_@?cB?sD?w@@sB@[?uABi@?E?o@@k@?_@?wAAk@?U?kB@cB?wA@]?g@?S?_@Am@@I@aA?g@@M?_@?g@?w@?cA?g@?c@@O?[@g@?k@?gA?S?g@?e@AC?_@@Y?O?c@?_@?I?Y@yA@y@DW?mACcAAm@?aB@K?}A?aABwBBkB?S?wBAyBAw@BoB@]?cA?y@?cB@[@g@AeEBo@?g@@}D@]As@@aB@mA?_@@g@@q@@qA?[?o@A]?Q?W?aB@kC?_D@sA@kE@sB?m@@O?G?_D@_@?aD@Y?g@?_C@Y@iC?[?W@mB@}B?I@eB@Q?Y?c@??Q"}, "start_location": {"lat": 29.624635, "lng": -95.50726}, "transit_details": {"arrival_stop": {"location": {"lat": 29.686624, "lng": -95.508606}, "name": "Fondren Rd @ Bissonnet St"}, "arrival_time": {"text": "3:34pm", "time_zone": "America/Chicago", "value": 1642023240}, "departure_stop": {"location": {"lat": 29.624635, "lng": -95.50726}, "name": "Fondren Dr @ W Orem Dr"}, "departure_time": {"text": "3:15pm", "time_zone": "America/Chicago", "value": 1642022152}, "headsign": "Westheimer Rd", "line": {"agencies": [{"name": "Metropolitan Transit Authority of Harris County", "phone": "1 (713) 635-4000", "url": "http://www.ridemetro.org/"}], "color": "#004080", "name": "Fondren", "short_name": "63", "text_color": "#ffffff", "url": "https://www.ridemetro.org/MetroPDFs/Schedules/BusSchedules/n063-Fondren.pdf", "vehicle": {"icon": "//maps.gstatic.com/mapfiles/transit/iw2/6/bus2.png", "name": "Bus", "type": "BUS"}}, "num_stops": 25, "trip_short_name": "FONDREN"}, "travel_mode": "TRANSIT"}, {"distance": {"text": "285 ft", "value": 87}, "duration": {"text": "1 min", "value": 84}, "end_location": {"lat": 29.6866274, "lng": -95.50888909999999}, "html_instructions": "Walk to Bissonnet St @ Fondren Rd", "polyline": {"points": "gdetDb_}eQRFDDBD?Jy@?FPDJFN"}, "start_location": {"lat": 29.6865967, "lng": -95.50850469999999}, "steps": [{"distance": {"text": "95 ft", "value": 29}, "duration": {"text": "1 min", "value": 21}, "end_location": {"lat": 29.6864469, "lng": -95.5086608}, "html_instructions": "Head <b>south</b> toward <b>Fondren Rd</b>", "polyline": {"points": "gdetDb_}eQRFDDBD?J"}, "start_location": {"lat": 29.6865967, "lng": -95.50850469999999}, "travel_mode": "WALKING"}, {"distance": {"text": "115 ft", "value": 35}, "duration": {"text": "1 min", "value": 26}, "end_location": {"lat": 29.6866951, "lng": -95.5087466}, "html_instructions": "Turn <b>right</b> onto <b>Fondren Rd</b>", "maneuver": "turn-right", "polyline": {"points": "icetDb`}eQy@?FP"}, "start_location": {"lat": 29.6864469, "lng": -95.5086608}, "travel_mode": "WALKING"}, {"distance": {"text": "75 ft", "value": 23}, "duration": {"text": "1 min", "value": 37}, "end_location": {"lat": 29.6866274, "lng": -95.50888909999999}, "html_instructions": "Cross the road", "polyline": {"points": "{detDt`}eQDJFN"}, "start_location": {"lat": 29.6866951, "lng": -95.5087466}, "travel_mode": "WALKING"}], "travel_mode": "WALKING"}, {"distance": {"text": "6.8 mi", "value": 10878}, "duration": {"text": "30 mins", "value": 1800}, "end_location": {"lat": 29.7254958, "lng": -95.41073010000001}, "html_instructions": "Bus towards Wheeler TC", "polyline": {"points": "mdetDfa}eQIDACEOGMmAyCM]Ui@ISO_@qA{CgAoCm@wAw@kBi@oAWo@Qc@Qa@M_@MWOc@KWEI[u@OYAEc@aAACq@eBk@uAQa@e@mAYq@O_@GM[w@M[IQOa@Qa@Sg@Ug@O]Sg@O[o@gBQ]Uk@q@aBQ_@Sg@gAoCKUk@wA?AMWe@mAYq@KYiAmCIOMY[o@CGSk@IQOa@Mc@Wo@q@aBk@sAIQ}@qBc@iAEKs@iBQa@Si@aAwBMWe@gAYs@k@uAM[[u@_A}BCEWu@EIWo@m@yAk@sA]w@IUIS?AGQGMUk@KU}@yB}@{B]y@GMGQEGEM[u@MYQe@c@cA[y@ISo@}Aa@aAWm@q@aBm@{Am@wA_@}@O_@Wo@EIQa@k@{AKWgAkCUi@[s@IUWq@Se@]y@Yu@Ug@CG]y@GOYo@Sg@M]MYCECECEMOIOKYa@cAKYc@eAO_@Wo@c@gA?q@?m@?q@?kA?Q?iAC{B?k@@IM_@OYCMAu@EmA\\G\\U@w@@]S?eA@g@?q@?K?S?yA?q@@q@?_@?]w@Qc@MYa@aAMW]y@Sg@GOUi@Um@Sg@Ui@GOw@kBIUWo@m@wAKYc@gAqA}CWm@CIQ_@i@wA]u@O[Qi@EUCICKQa@Uu@Wi@?AEG?AAE_AwBa@eA[u@CEOQiAkC?AIS_@{@CIcBaEaAcCO]EKKWYq@o@{AIQoCyGQe@]y@e@iAM][w@GMWo@KYO_@Qc@MWk@sAKYg@kAeAkCUg@M[c@gAMYEMO]M[CGWk@aAcCEIi@sAQc@wBiFg@qA]y@M[g@mA_@}@wAmDUi@EKEKCQEW_A}BUe@AEc@aAGCCACGMUAEGQEMCEHAGSm@uAQc@a@cAUm@a@cAc@gAGQk@qAWk@]u@k@uAYs@IWKUKWIQEMM[ACc@gA_@}@Qc@Yq@{BqFmAuCWi@KYGQI[CSC[?SAY?gA?K@WC}B?_B?Q?s@?q@AK?iA?OAgCA{ACkC?_A?U?_@A{E?i@CkH?KC}FCuDAsA?UA}CAaC?KAuDA}A?m@?k@Ag@G]?cAAO?K?a@?W?a@?cAAk@?a@?_AAsAAyA?yAAOAyA?_@AiB?cAAuB?E?_@E{KN?"}, "start_location": {"lat": 29.686633, "lng": -95.50883900000001}, "transit_details": {"arrival_stop": {"location": {"lat": 29.7254958, "lng": -95.41073010000001}, "name": "Bissonnet St @ S Shepherd Dr"}, "arrival_time": {"text": "4:11pm", "time_zone": "America/Chicago", "value": 1642025460}, "departure_stop": {"location": {"lat": 29.686633, "lng": -95.50883900000001}, "name": "Bissonnet St @ Fondren Rd"}, "departure_time": {"text": "3:41pm", "time_zone": "America/Chicago", "value": 1642023660}, "headsign": "Wheeler TC", "line": {"agencies": [{"name": "Metropolitan Transit Authority of Harris County", "phone": "1 (713) 635-4000", "url": "http://www.ridemetro.org/"}], "color": "#004080", "name": "Bissonnet", "short_name": "65", "text_color": "#ffffff", "url": "https://www.ridemetro.org/MetroPDFs/Schedules/BusSchedules/n065-Bissonnet.pdf", "vehicle": {"icon": "//maps.gstatic.com/mapfiles/transit/iw2/6/bus2.png", "name": "Bus", "type": "BUS"}}, "num_stops": 41, "trip_short_name": "BISSONNET"}, "travel_mode": "TRANSIT"}, {"distance": {"text": "164 ft", "value": 50}, "duration": {"text": "1 min", "value": 45}, "end_location": {"lat": 29.7253171, "lng": -95.41048599999999}, "html_instructions": "Walk to S Shepherd Dr @ Bissonnet St", "polyline": {"points": "swltD`|ieQA_@?Ol@?"}, "start_location": {"lat": 29.72554409999999, "lng": -95.41073209999999}, "steps": [{"distance": {"text": "66 ft", "value": 20}, "duration": {"text": "1 min", "value": 14}, "end_location": {"lat": 29.7255475, "lng": -95.41048649999999}, "html_instructions": "Head <b>east</b> on <b>Bissonnet St</b> toward <b>S Shepherd Dr</b>", "polyline": {"points": "swltD`|ieQA_@?O"}, "start_location": {"lat": 29.72554409999999, "lng": -95.41073209999999}, "travel_mode": "WALKING"}, {"distance": {"text": "98 ft", "value": 30}, "duration": {"text": "1 min", "value": 31}, "end_location": {"lat": 29.7253171, "lng": -95.41048599999999}, "html_instructions": "Turn <b>right</b> onto <b>S Shepherd Dr</b>", "maneuver": "turn-right", "polyline": {"points": "uwltDpzieQl@?"}, "start_location": {"lat": 29.7255475, "lng": -95.41048649999999}, "travel_mode": "WALKING"}], "travel_mode": "WALKING"}, {"distance": {"text": "5.5 mi", "value": 8876}, "duration": {"text": "22 mins", "value": 1320}, "end_location": {"lat": 29.803613, "lng": -95.41008699999999}, "html_instructions": "Bus towards N Shepherd P&R", "polyline": {"points": "gvltDjzieQ?Ls@?iD@yB?S?c@@gB?oCBU@eB@e@?]?eA?S?O?U?aA?i@@A?[?A?Y@k@?]?m@?W?iD@c@@aA@eADcAAQ?aA?S@c@?U@y@Ao@AgB?cA@sA?cA@Q?iD@wA?u@@e@?c@?M?_A@]?y@?y@@Y?K?y@@O?s@?y@?eB@cA?y@@O?K?W?I?c@?E?}ABE?q@?gA?]Aa@G[GSCg@AS@M?Y?a@?m@?_A?c@@S?sC@gA@iA?kD?iB?_@?[?Y?q@@gB?{@?Y@qA?eA?I?uD@i@@_A?Q?O?{@?m@?M?g@@y@@g@@Q?[?{@?OGEAGCEEGCECECGEY[OYEKCECGEQ_AuCAEEIQe@IQCEACGIEGEGGIIIEEOKGEQKMEk@Oo@@M?{@?WIgB?KEC?SAYAU?IA]?SAeA?S?g@AcA@EBIFKFA@CBIHCDGHGXQ@aAJa@Da@DC?}AL]D]DK@KEA?A?I?G?M?MAAAA?C?AAE?CAA?OCC?AAM?WA[FE@E@c@HG@YD_@HeAPKBw@TgABW?C?W?k@@_A@K?[@SBe@Dc@@SBa@?eA@[?M?eA@c@?e@?]?_@@Y?k@?M?qCBg@?Q?M@U?e@?M?qCB]?w@@_@?E@W?e@?mB@gA?k@@]?qB@c@@a@CE@e@@m@?S@kA?cA@aCBM?oC@eA@oA@Y?[?O?a@Bm@?U?o@?e@@I?A?A?y@?M@YAS@O?_@@w@@y@?]?M?YAMAMCOEYIIAa@Kc@Ku@QGACAm@MAAOCIAK?OAM?M?A?I?O?S@M@IBc@Jq@P}@Vg@Jk@Ji@Hc@Be@DE?c@Bs@ByABA?oCBYA}B@I?A?q@@K?E?k@?C?O@u@?S?k@@w@@K?a@?O?[@U?U?U?k@@k@?Y@C?I?S?kC@y@@K?W@[?S?A?W?G?U@S?c@?e@@O?E?[?mCBeA@U?Y?S?U@A?S?aA@_@?e@@Q?S?U?s@?C?W?qB@sB@eBBg@?oBBaGBq@@w@?aB@i@@W@_B@yA@aB@Q?qD@U@gB?eB@eBA_A@?K"}, "start_location": {"lat": 29.7253163, "lng": -95.4104565}, "transit_details": {"arrival_stop": {"location": {"lat": 29.803613, "lng": -95.41008699999999}, "name": "N Shepherd Dr @ W 20th St"}, "arrival_time": {"text": "4:44pm", "time_zone": "America/Chicago", "value": 1642027440}, "departure_stop": {"location": {"lat": 29.7253163, "lng": -95.4104565}, "name": "S Shepherd Dr @ Bissonnet St"}, "departure_time": {"text": "4:22pm", "time_zone": "America/Chicago", "value": 1642026120}, "headsign": "N Shepherd P&R", "line": {"agencies": [{"name": "Metropolitan Transit Authority of Harris County", "phone": "1 (713) 635-4000", "url": "http://www.ridemetro.org/"}], "color": "#004080", "name": "Shepherd", "short_name": "27", "text_color": "#ffffff", "url": "https://www.ridemetro.org/MetroPDFs/Schedules/BusSchedules/n027-Shepherd.pdf", "vehicle": {"icon": "//maps.gstatic.com/mapfiles/transit/iw2/6/bus2.png", "name": "Bus", "type": "BUS"}}, "num_stops": 38, "trip_short_name": "SHEPHERD"}, "travel_mode": "TRANSIT"}, {"distance": {"text": "112 ft", "value": 34}, "duration": {"text": "1 min", "value": 34}, "end_location": {"lat": 29.803842, "lng": -95.41002979999999}, "html_instructions": "Walk to W 20th St @ N Shepherd Dr", "polyline": {"points": "q_|tDdxieQ_@@M??Q"}, "start_location": {"lat": 29.8036121, "lng": -95.410111}, "steps": [{"distance": {"text": "69 ft", "value": 21}, "duration": {"text": "1 min", "value": 15}, "end_location": {"lat": 29.8038391, "lng": -95.4101207}, "html_instructions": "Head <b>north</b> on <b>N Shepherd Dr</b> toward <b>W 20th St</b>", "polyline": {"points": "q_|tDdxieQ_@@M?"}, "start_location": {"lat": 29.8036121, "lng": -95.410111}, "travel_mode": "WALKING"}, {"distance": {"text": "43 ft", "value": 13}, "duration": {"text": "1 min", "value": 19}, "end_location": {"lat": 29.803842, "lng": -95.41002979999999}, "html_instructions": "Turn <b>right</b> onto <b>W 20th St</b>", "maneuver": "turn-right", "polyline": {"points": "_a|tDfxieQ?Q"}, "start_location": {"lat": 29.8038391, "lng": -95.4101207}, "travel_mode": "WALKING"}], "travel_mode": "WALKING"}, {"distance": {"text": "2.7 mi", "value": 4367}, "duration": {"text": "10 mins", "value": 582}, "end_location": {"lat": 29.80163, "lng": -95.454342}, "html_instructions": "Bus towards Memorial City", "polyline": {"points": "ea|tDvwieQJ?@V?fA@`ABfE?tABtJ?pB@rA?r@?H?|@?jB?@?j@@h@AL?\\?J@f@?|B?h@?|@?n@?N?|G?J@tE?d@@dC?p@AL@J?V@P@H?B?D@F@HBH@JDPDLDLDHDJDJHLFHFHLL?@TVTVn@v@NRh@h@NPVX^f@BJBFBFf@v@P`@DZDVBT@F?D@F?H?P@P?X?N?F?j@@pAIpB@f@?V?fA?j@?V@h@AjA?h@@~@?b@@^Af@@d@?X?bA?jA?b@@nC?J?d@Aj@?v@?P@dB?jA?bC?`A?\\@dH?`D?dC@fE?jD?T@`F@vB?jD?vC?X?`E@V@zCAb@?fAAX@fB@fA?T@|B?l@A~A?x@?XAzB?`A?dB?l@?P?F?H@^?Z?@?H?@?Z?h@?f@?j@?^?t@@j@BnAAV@|@@fB?bBG?"}, "start_location": {"lat": 29.803869, "lng": -95.410039}, "transit_details": {"arrival_stop": {"location": {"lat": 29.80163, "lng": -95.454342}, "name": "W 18th St @ Northwest Fwy"}, "arrival_time": {"text": "5:03pm", "time_zone": "America/Chicago", "value": 1642028620}, "departure_stop": {"location": {"lat": 29.803869, "lng": -95.410039}, "name": "W 20th St @ N Shepherd Dr"}, "departure_time": {"text": "4:53pm", "time_zone": "America/Chicago", "value": 1642028038}, "headsign": "Memorial City", "line": {"agencies": [{"name": "Metropolitan Transit Authority of Harris County", "phone": "1 (713) 635-4000", "url": "http://www.ridemetro.org/"}], "color": "#004080", "name": "Long Point / Cavalcade", "short_name": "26", "text_color": "#ffffff", "url": "https://www.ridemetro.org/MetroPDFs/Schedules/BusSchedules/n026-Long-Point-Cavalcade.pdf", "vehicle": {"icon": "//maps.gstatic.com/mapfiles/transit/iw2/6/bus2.png", "name": "Bus", "type": "BUS"}}, "num_stops": 14, "trip_short_name": "LONGPOINT"}, "travel_mode": "TRANSIT"}, {"distance": {"text": "322 ft", "value": 98}, "duration": {"text": "1 min", "value": 77}, "end_location": {"lat": 29.8019199, "lng": -95.45428179999999}, "html_instructions": "Walk to 4400 W 18th St, Houston, TX 77092, USA", "polyline": {"points": "es{tDrlreQ?z@YEc@E?G@Q@a@"}, "start_location": {"lat": 29.8016264, "lng": -95.454342}, "steps": [{"distance": {"text": "95 ft", "value": 29}, "duration": {"text": "1 min", "value": 22}, "end_location": {"lat": 29.8016252, "lng": -95.45463819999999}, "html_instructions": "Head <b>west</b> on <b>W 18th St</b>/<wbr/><b>NW Mall</b>", "polyline": {"points": "es{tDrlreQ?z@"}, "start_location": {"lat": 29.8016264, "lng": -95.454342}, "travel_mode": "WALKING"}, {"distance": {"text": "131 ft", "value": 40}, "duration": {"text": "1 min", "value": 33}, "end_location": {"lat": 29.8019405, "lng": -95.4545788}, "html_instructions": "Turn <b>right</b><div style=\"font-size:0.9em\">Restricted usage road</div>", "maneuver": "turn-right", "polyline": {"points": "es{tDnnreQYEc@E"}, "start_location": {"lat": 29.8016252, "lng": -95.45463819999999}, "travel_mode": "WALKING"}, {"distance": {"text": "95 ft", "value": 29}, "duration": {"text": "1 min", "value": 22}, "end_location": {"lat": 29.8019199, "lng": -95.45428179999999}, "html_instructions": "Turn <b>right</b><div style=\"font-size:0.9em\">Restricted usage road</div><div style=\"font-size:0.9em\">Destination will be on the left</div>", "maneuver": "turn-right", "polyline": {"points": "cu{tDbnreQ?G@Q@a@"}, "start_location": {"lat": 29.8019405, "lng": -95.4545788}, "travel_mode": "WALKING"}], "travel_mode": "WALKING"}], "traffic_speed_entry": [], "via_waypoint": []}], "overview_polyline": {"points": "a{ysDza{eQ?xAlAAV?fIE@HLAZAPbENfBVxBn@nCdAxCd@lAh@hBl@vC^vDDpAB|B?tCAVPB?Fq@EsDEkB?_B@}H@yDHyBHmBNuANuD|@aATeBTyAHkFDmF@yH@aHBoMFoG?aJDqJ@{H@eND_H@{I?}GFeI?oMBeIBwBBoD?_F?c@@yA@y@DeBCqBAmGDcFBkCA_IB}FBmF@wA@qJBgED{DAkYFiNDmQHuD@Bg@XLBPy@?FPLZ?IIDGSuAgD}@{BeJuTkBsEmJkUcBiEkBkEaF_MkDgI]eAiAqCwCaH_BaEoCkGoE{K{CqHqEyKkMg[oA_DcC_GcDaIiAoCYa@sDeJ?}ECcG@IM_@Sg@GcC\\G\\UBuAyA@yB?}E@_BwD}CsHqGyOwAoDm@qAQi@EUGUg@wA]u@_CyFSWiAmCqC{GcBeEgIaScD_IsKyWaKuVKWCQEW_A}BWk@c@aAGCGI]{@CEHAu@iBkByE}EoL{BsFuF}Mc@cAQm@Go@Am@AiFCeMKo[MuYCmJAg@G]AsA?gBAqEI_QGwPN?G?Ao@l@??E?Ls@?cH@w@@sJF}C?kEBwB?gHDiCBsA?gC@oH?wIB_JDgSH}CA}@O{@E}A@eD@qSBgQDkHBoCB{@?OGMEYQa@a@Ue@mAuDc@gAS[]a@WQ_@Qk@Oo@@iA?WIgB?OEmAEkCAkB?OJ[VKNGXQ@cBPe@DeDZYEc@AGA]Gk@CkATgCb@cAX_BBgCBaBJw@DgB@sC@qJDuTL}D@sDBoPJwEDgDB}C@u@G{D_AiAUw@Ao@@WDuA\\eBb@uATsBLmCFqCBcD?mEBsEDsNHqNJy^RiPLaIBkE?_A@?K?B_@@M??QE@J?@~AHtU@bG?xH@lG?hJBrL@bABZLp@Vp@^l@bDtDf@j@^f@BJFNf@v@P`@Jr@D\\@h@@bA@|BIpB@f@?~A?bA?tB@hB@pC?lE@hNBdd@Df\\A`HDbIA`FApI@lB?xCDpE@`HG??z@YEc@E?GBs@"}, "summary": "", "warnings": ["Walking directions are in beta. Use caution \u2013 This route may be missing sidewalks or pedestrian paths."], "waypoint_order": []}, {"bounds": {"northeast": {"lat": 29.8026478, "lng": -95.45427269999999}, "southwest": {"lat": 29.626656, "lng": -95.5011802}}, "copyrights": "Map data \u00a92022 Google", "legs": [{"arrival_time": {"text": "5:05pm", "time_zone": "America/Chicago", "value": 1642028735}, "departure_time": {"text": "3:11pm", "time_zone": "America/Chicago", "value": 1642021881}, "distance": {"text": "16.5 mi", "value": 26614}, "duration": {"text": "1 hour 54 mins", "value": 6854}, "end_address": "4400 W 18th St, Houston, TX 77092, USA", "end_location": {"lat": 29.8019199, "lng": -95.45428179999999}, "start_address": "12405 Carlsbad St, Houston, TX 77085, USA", "start_location": {"lat": 29.6288077, "lng": -95.4987027}, "steps": [{"distance": {"text": "1.2 mi", "value": 1914}, "duration": {"text": "24 mins", "value": 1418}, "end_location": {"lat": 29.6375669, "lng": -95.49367439999999}, "html_instructions": "Walk to Green Craig Dr @ Hillcroft Ave", "polyline": {"points": "a{ysDza{eQ?xAlAAD?P?n@A|CCr@?dA?IsBGuAQwAGc@Kw@K}@IeAAaAAw@?MGCEC?EAC?GAI@G?E@I@GBIEECECAKCOGAAU?I?CAC?CACCCCAEAK?EUCOCSGo@OuAe@c@OGCWM}@g@o@[aBy@]O_@Qc@Q]KQGm@Qu@QOAg@IsAOk@Ck@A}@?aB@_B@uA@{B@cA@G?OAK?SA_AE[CO?U?AA[?A?C?Y?O?k@@c@?a@?mCDB~@?H"}, "start_location": {"lat": 29.6288077, "lng": -95.4987027}, "steps": [{"distance": {"text": "141 ft", "value": 43}, "duration": {"text": "1 min", "value": 31}, "end_location": {"lat": 29.6288077, "lng": -95.4991452}, "html_instructions": "Head <b>west</b> toward <b>Carlsbad St</b>", "polyline": {"points": "a{ysDza{eQ?xA"}, "start_location": {"lat": 29.6288077, "lng": -95.4987027}, "travel_mode": "WALKING"}, {"distance": {"text": "0.2 mi", "value": 243}, "duration": {"text": "3 mins", "value": 182}, "end_location": {"lat": 29.626656, "lng": -95.49911089999999}, "html_instructions": "Turn <b>left</b> onto <b>Carlsbad St</b>", "maneuver": "turn-left", "polyline": {"points": "a{ysDtd{eQlAAD?P?n@A|CCr@?dA?"}, "start_location": {"lat": 29.6288077, "lng": -95.4991452}, "travel_mode": "WALKING"}, {"distance": {"text": "0.2 mi", "value": 317}, "duration": {"text": "4 mins", "value": 227}, "end_location": {"lat": 29.6270689, "lng": -95.4958609}, "html_instructions": "Turn <b>left</b> onto <b>W Orem Dr</b>", "maneuver": "turn-left", "polyline": {"points": "smysDld{eQIsBGuAQwAGc@Kw@K}@IeAAaAAw@?M"}, "start_location": {"lat": 29.626656, "lng": -95.49911089999999}, "travel_mode": "WALKING"}, {"distance": {"text": "36 ft", "value": 11}, "duration": {"text": "1 min", "value": 8}, "end_location": {"lat": 29.6271124, "lng": -95.4958436}, "html_instructions": "Turn <b>left</b> toward <b>Hillcroft Ave</b>", "maneuver": "turn-left", "polyline": {"points": "epysDbpzeQGC"}, "start_location": {"lat": 29.6270689, "lng": -95.4958609}, "travel_mode": "WALKING"}, {"distance": {"text": "118 ft", "value": 36}, "duration": {"text": "1 min", "value": 27}, "end_location": {"lat": 29.6271092, "lng": -95.4954716}, "html_instructions": "Turn <b>right</b> toward <b>Hillcroft Ave</b>", "maneuver": "turn-right", "polyline": {"points": "mpysD~ozeQEC?EAC?GAI@G?E@I@GBI"}, "start_location": {"lat": 29.6271124, "lng": -95.4958436}, "travel_mode": "WALKING"}, {"distance": {"text": "249 ft", "value": 76}, "duration": {"text": "1 min", "value": 57}, "end_location": {"lat": 29.6276062, "lng": -95.4951528}, "html_instructions": "Turn <b>left</b> toward <b>Hillcroft Ave</b>", "maneuver": "turn-left", "polyline": {"points": "mpysDtmzeQEECECAKCOGAAU?I?CAC?CACCCCAEAK?E"}, "start_location": {"lat": 29.6271092, "lng": -95.4954716}, "travel_mode": "WALKING"}, {"distance": {"text": "0.7 mi", "value": 1147}, "duration": {"text": "14 mins", "value": 857}, "end_location": {"lat": 29.6375889, "lng": -95.4932963}, "html_instructions": "Turn <b>left</b> onto <b>Hillcroft Ave</b>", "maneuver": "turn-left", "polyline": {"points": "qsysDtkzeQUCOCSGo@OuAe@c@OGCWM}@g@o@[aBy@]O_@Qc@Q]KQGm@Qu@QOAg@IsAOk@Ck@A}@?aB@_B@uA@{B@cA@G?OAK?SA_AE[CO?U?AA[?A?C?Y?O?k@@c@?a@?mCD"}, "start_location": {"lat": 29.6276062, "lng": -95.4951528}, "travel_mode": "WALKING"}, {"distance": {"text": "135 ft", "value": 41}, "duration": {"text": "1 min", "value": 29}, "end_location": {"lat": 29.6375669, "lng": -95.49367439999999}, "html_instructions": "Turn <b>left</b> onto <b>Greencraig Dr</b><div style=\"font-size:0.9em\">Destination will be on the right</div>", "maneuver": "turn-left", "polyline": {"points": "}q{sDb`zeQB~@?H"}, "start_location": {"lat": 29.6375889, "lng": -95.4932963}, "travel_mode": "WALKING"}], "travel_mode": "WALKING"}, {"distance": {"text": "13.1 mi", "value": 21021}, "duration": {"text": "1 hour 4 mins", "value": 3840}, "end_location": {"lat": 29.783077, "lng": -95.455467}, "html_instructions": "Bus towards Northwest TC", "polyline": {"points": "gr{sDpbzeQLC@LBRFZjAjE@D@F@J?LIHCDEBMHG@K@K@I@M?O?]?iB?k@?]@kA?_A?S@a@?}A?w@@y@?GAECGGCMAIAu@A}B?cCAeA?cAwDBO@qC@Q?eGDA?S@O?G?S?Q?[?s@?{BBoHDQ?mCBqA?s@Cq@Gc@Eo@Ki@Ke@KaAYWGuB_AUKWICA_@KQE]IYGy@Qm@IgAKy@EI?O?u@AQ?{ID_C@O?c@?q@BiADW@]B[@A?c@?M?E?c@?a@AY?W?]?eB?{AAc@?G?E?c@@G?a@?Y?uBAm@@]?UAKAK?O@K@I@Y?q@?eA@u@?q@?qB@aA@A?G?M?o@@{@?Y@e@?mJBS?O?}@@S?yA?e@@Q?w@BsBLc@?C?Y?a@@[@cD@qC@S?m@@sCDgAHcAHUDWDu@N{@TuAj@IBy@^E@}@`@e@Na@L_@L_APc@HKBUDa@DqBJY?G?Q?e@Ag@AS?OAa@E]EC?KAKAQCe@I[GWGOGMEMIy@Wa@KiA[QGYI]GWCQCYEA?QAq@AaBAiC?a@?yA?k@?U@iD?}CDkC?S?kB@s@EcAK[Gc@GC?WC_@Ki@I]ESAg@Ec@Aa@AqA?gA@Y?S@e@?Y?w@?s@Bs@F}@HeAT_AR]Dm@JUBO@o@BW@gABQ@A?O?gB?mB@Q@yB@}@?w@@mA@g@?g@AK?U@u@AY?Q?_AAi@CUAo@CK?UAM?y@CWAa@?e@A}@@aB?U?mA@Q@I?_A?m@?Y@uC?O?oC@Q?cC@K?K?I?qA@kB?oCBO?iA@]?O?q@@qA@[@m@@U?_@@{AAsA@oBBU@O?UAm@A_A@eA?e@@M?M?c@@u@@C?G?MAi@AM@yA@q@@C?]BoALYFSDu@PeA^EBs@\\_@ROJSLIFQLIFa@\\UTmAxAs@x@]\\KLQR?@ONCD_@h@WZe@l@KNSTUXQPMNMPWXOTIJ_@b@iArAKNQRKLg@l@_@\\YVWVc@j@IJIJQRMPKJABQRABA?A@GHEFCBWZ[\\SV[^q@x@MN_@X[PMHULSJYJUFkAVMDUDQDs@FY@S@uAD_C?mABaA?mA?mBB_A?S?A?g@?cDBaB?M?Y@{A?c@?gA@a@@c@?qA?u@?i@?o@@m@?wA@mA@o@?A?s@@w@?_B@kBB_A?q@@_@?eA@i@?]?m@@[?a@?s@@aA@aAAeABS?y@@i@Ag@AG?QAu@CKAKA_@GMCSEKCk@IKCUAIAKAKAI?a@EMAGCC?KAO?MAa@?S?{@@C?i@@cA?_@@m@?a@?eB?}@?I?WAgA@Y@aAA{ABcA?I?sC@]?kA@_@?E?C?K?yABo@?MAkCBw@@g@?a@?YA]?M?i@@]?O@q@?I?m@?gA@{BBiE?iBB{A@eE?}ADG?yABW?WA_@@a@?sA?kA?gBAk@@sA@]@y@@o@?k@?GIAAC?MEGAEAMEICSIKEGEQK[Oa@m@CC[e@IMS[?AEIEIKWWy@WsAe@aCUoAES_@qBGYKk@o@mDQ}@GUCOY{AScAI]y@qE]gBY{A]kBUgAG_@i@uCk@{CKg@ACGe@G[Gi@?CGo@AOASc@iFC_@WuCG}@CUC[AWW{CEc@Ku@I[GSISIQOYQW[c@iAmAwAiBc@i@{@{@QSm@o@gAsACE_@c@SYyAaBi@k@IKs@w@s@y@KM]a@WYq@_AKQGKAAO[O]Qs@CEEYCSC_@C_@Aa@?S?Q?y@Ay@?uA?ICcEAcD?]AaFC}DCY@Y@O?S@G?G@IB[Fc@F[Nk@JYLa@FQNc@Ja@He@Ho@B]B_@@S@Y?Y?g@?Y?aB@W@SFw@F_@?AH_@Tu@Tg@b@w@LW@?Pc@FQJUFUHWBMFYBS@E@G@Q?IBS?Q@M?OAq@?i@?]AoAAwB?AAY?KAEA]?CAICOE[Kc@Ma@CGGOGQEGIOEISYUYCCYYa@g@QS?AOQIMMYA?Wk@I[IYIc@?CEWCUCQCe@KyAI{@CQEQEOKYUs@Ue@}AiDUi@KW_@y@QLSBY@c@?u@@m@@eCB}DDsCAK?U?}B@_A@yA@wEBeBBU?e@AW?cDBI?K?k@?U@?o@?WAO?qAA_@?UY@oA?]?A?A?G?G?SAEAWAO?Y?c@?c@@gA@a@?kB@c@@aB@m@@}@?kB?c@??RiA?eBDcB?kA@sA@A??@gA?gFDkHBQ?i@Sw@CSKISGOB_B?yA?i@BeCX?V?\\A^?\\?@?b@?BXQ^?f@?j@?d@W?"}, "start_location": {"lat": 29.637639, "lng": -95.493687}, "transit_details": {"arrival_stop": {"location": {"lat": 29.783077, "lng": -95.455467}, "name": "Northwest Transit Center - South Platform"}, "arrival_time": {"text": "4:39pm", "time_zone": "America/Chicago", "value": 1642027140}, "departure_stop": {"location": {"lat": 29.637639, "lng": -95.493687}, "name": "Green Craig Dr @ Hillcroft Ave"}, "departure_time": {"text": "3:35pm", "time_zone": "America/Chicago", "value": 1642023300}, "headsign": "Northwest TC", "line": {"agencies": [{"name": "Metropolitan Transit Authority of Harris County", "phone": "1 (713) 635-4000", "url": "http://www.ridemetro.org/"}], "color": "#004080", "name": "Hillcroft", "short_name": "47", "text_color": "#ffffff", "url": "https://www.ridemetro.org/MetroPDFs/Schedules/BusSchedules/n047-Hillcroft.pdf", "vehicle": {"icon": "//maps.gstatic.com/mapfiles/transit/iw2/6/bus2.png", "name": "Bus", "type": "BUS"}}, "num_stops": 69, "trip_short_name": "HILLCROFT"}, "travel_mode": "TRANSIT"}, {"distance": {"text": "0.2 mi", "value": 263}, "duration": {"text": "3 mins", "value": 192}, "end_location": {"lat": 29.7837801, "lng": -95.4554653}, "html_instructions": "Walk to Northwest Transit Center - North Platform", "polyline": {"points": "_}wtDtqreQDUBODIK@]MMMECOKICKAK@E?U?E?_@@m@?AxAAX?f@"}, "start_location": {"lat": 29.7827161, "lng": -95.4551537}, "steps": [{"distance": {"text": "121 ft", "value": 37}, "duration": {"text": "1 min", "value": 26}, "end_location": {"lat": 29.78264219999999, "lng": -95.4549134}, "html_instructions": "Head <b>east</b>", "polyline": {"points": "_}wtDtqreQDUBODI"}, "start_location": {"lat": 29.7827161, "lng": -95.4551537}, "travel_mode": "WALKING"}, {"distance": {"text": "482 ft", "value": 147}, "duration": {"text": "2 mins", "value": 109}, "end_location": {"lat": 29.7837613, "lng": -95.45468609999999}, "html_instructions": "Sharp <b>left</b> toward <b>Old Katy Rd</b>", "maneuver": "turn-sharp-left", "polyline": {"points": "o|wtDdpreQK@]MMMECOKICKAK@E?U?E?_@@m@?"}, "start_location": {"lat": 29.78264219999999, "lng": -95.4549134}, "travel_mode": "WALKING"}, {"distance": {"text": "259 ft", "value": 79}, "duration": {"text": "1 min", "value": 57}, "end_location": {"lat": 29.7837801, "lng": -95.4554653}, "html_instructions": "Turn <b>left</b> onto <b>Old Katy Rd</b>", "maneuver": "turn-left", "polyline": {"points": "ocxtDxnreQAxAAX?f@"}, "start_location": {"lat": 29.7837613, "lng": -95.45468609999999}, "travel_mode": "WALKING"}], "travel_mode": "WALKING"}, {"distance": {"text": "1.7 mi", "value": 2678}, "duration": {"text": "7 mins", "value": 408}, "end_location": {"lat": 29.801027, "lng": -95.45922999999999}, "html_instructions": "Bus towards SH 249", "polyline": {"points": "w~wtDvwreQRwAF@D?DABA@CDIDSB[@g@BUBM@AN]FGJY@K?MCUCKCCA?OGQAGAE?E@GDQJOPMD[BY@W?aAAY@c@?AVAzAAb@?f@?L?ZAn@?`B?R?f@sBNO@Q@Y?W?K@wA@y@@K?u@?wA@U?O?}@@I?Y?_@?_@@oA@oD@eABM?A?a@?c@?qA@W?w@?cA@s@?c@@_@?uA@a@?OAY?q@@c@?_@?[@cA@a@?U?G?C?E?]@S?S@]@c@?}@@M?w@@]?mA@_B@W?E?e@Aa@EQEWG[OUM[QIG_@Ui@i@e@_@OQQQOMCCc@a@MR{A|BU\\W`@sBtCg@z@a@L{@vA]b@Sd@w@lAYh@OQ"}, "start_location": {"lat": 29.7830001, "lng": -95.4561157}, "transit_details": {"arrival_stop": {"location": {"lat": 29.801027, "lng": -95.45922999999999}, "name": "Hempstead Rd @ W 18th St"}, "arrival_time": {"text": "4:55pm", "time_zone": "America/Chicago", "value": 1642028148}, "departure_stop": {"location": {"lat": 29.7830001, "lng": -95.4561157}, "name": "Northwest Transit Center - North Platform"}, "departure_time": {"text": "4:49pm", "time_zone": "America/Chicago", "value": 1642027740}, "headsign": "SH 249", "line": {"agencies": [{"name": "Metropolitan Transit Authority of Harris County", "phone": "1 (713) 635-4000", "url": "http://www.ridemetro.org/"}], "color": "#004080", "name": "Antoine / Washington", "short_name": "85", "text_color": "#ffffff", "url": "https://www.ridemetro.org/MetroPDFs/Schedules/BusSchedules/n085-Antoine-Washington.pdf", "vehicle": {"icon": "//maps.gstatic.com/mapfiles/transit/iw2/6/bus2.png", "name": "Bus", "type": "BUS"}}, "num_stops": 8, "trip_short_name": "ANTOINWAS"}, "travel_mode": "TRANSIT"}, {"distance": {"text": "0.5 mi", "value": 738}, "duration": {"text": "10 mins", "value": 587}, "end_location": {"lat": 29.8019199, "lng": -95.45428179999999}, "html_instructions": "Walk to 4400 W 18th St, Houston, TX 77092, USA", "polyline": {"points": "mo{tDdkseQKPKKKAK?I@IB?Q?aA?M?QAO?OM?M@M?mED@[Ae@?g@ASDKP]d@}@Xq@B]QOIIOMEKKAQUGGEIAE?C?A@C@EBEV_@KMNWHMJSRa@Ts@R}@Jy@Hy@?G@Q@a@"}, "start_location": {"lat": 29.8010254, "lng": -95.4592253}, "steps": [{"distance": {"text": "49 ft", "value": 15}, "duration": {"text": "1 min", "value": 11}, "end_location": {"lat": 29.8011512, "lng": -95.4592626}, "html_instructions": "Head <b>northwest</b>", "polyline": {"points": "mo{tDdkseQKPKK"}, "start_location": {"lat": 29.8010254, "lng": -95.4592253}, "travel_mode": "WALKING"}, {"distance": {"text": "102 ft", "value": 31}, "duration": {"text": "1 min", "value": 23}, "end_location": {"lat": 29.8013705, "lng": -95.4592806}, "html_instructions": "Turn <b>right</b> toward <b>W 18th St</b>", "maneuver": "turn-right", "polyline": {"points": "ep{tDjkseQKAK?I@IB"}, "start_location": {"lat": 29.8011512, "lng": -95.4592626}, "travel_mode": "WALKING"}, {"distance": {"text": "240 ft", "value": 73}, "duration": {"text": "1 min", "value": 61}, "end_location": {"lat": 29.8014508, "lng": -95.4585436}, "html_instructions": "Turn <b>right</b> onto <b>W 18th St</b>", "maneuver": "turn-right", "polyline": {"points": "qq{tDnkseQ?Q?aA?M?QAO?OM?"}, "start_location": {"lat": 29.8013705, "lng": -95.4592806}, "travel_mode": "WALKING"}, {"distance": {"text": "440 ft", "value": 134}, "duration": {"text": "2 mins", "value": 127}, "end_location": {"lat": 29.80261729999999, "lng": -95.45858140000001}, "html_instructions": "Turn <b>left</b> onto <b>Mangum Rd</b>", "maneuver": "turn-left", "polyline": {"points": "ar{tDzfseQM@M?mED"}, "start_location": {"lat": 29.8014508, "lng": -95.4585436}, "travel_mode": "WALKING"}, {"distance": {"text": "0.1 mi", "value": 168}, "duration": {"text": "2 mins", "value": 133}, "end_location": {"lat": 29.8021725, "lng": -95.45703209999999}, "html_instructions": "Turn <b>right</b>", "maneuver": "turn-right", "polyline": {"points": "ky{tDbgseQ@[Ae@?g@ASDKP]d@}@Xq@B]"}, "start_location": {"lat": 29.80261729999999, "lng": -95.45858140000001}, "travel_mode": "WALKING"}, {"distance": {"text": "348 ft", "value": 106}, "duration": {"text": "1 min", "value": 80}, "end_location": {"lat": 29.8024852, "lng": -95.4562641}, "html_instructions": "Turn <b>left</b><div style=\"font-size:0.9em\">Partial restricted usage road</div>", "maneuver": "turn-left", "polyline": {"points": "qv{tDl}reQQOIIOMEKKAQUGGEIAE?C?A@C@EBEV_@"}, "start_location": {"lat": 29.8021725, "lng": -95.45703209999999}, "travel_mode": "WALKING"}, {"distance": {"text": "33 ft", "value": 10}, "duration": {"text": "1 min", "value": 8}, "end_location": {"lat": 29.8025494, "lng": -95.456192}, "html_instructions": "Turn <b>left</b><div style=\"font-size:0.9em\">Restricted usage road</div>", "maneuver": "turn-left", "polyline": {"points": "qx{tDrxreQKM"}, "start_location": {"lat": 29.8024852, "lng": -95.4562641}, "travel_mode": "WALKING"}, {"distance": {"text": "0.1 mi", "value": 201}, "duration": {"text": "2 mins", "value": 144}, "end_location": {"lat": 29.8019199, "lng": -95.45428179999999}, "html_instructions": "Turn <b>right</b><div style=\"font-size:0.9em\">Restricted usage road</div><div style=\"font-size:0.9em\">Destination will be on the left</div>", "maneuver": "turn-right", "polyline": {"points": "}x{tDdxreQNWHMJSRa@Ts@R}@Jy@Hy@?G@Q@a@"}, "start_location": {"lat": 29.8025494, "lng": -95.456192}, "travel_mode": "WALKING"}], "travel_mode": "WALKING"}], "traffic_speed_entry": [], "via_waypoint": []}], "overview_polyline": {"points": "a{ysDza{eQ?xAlAAV?fIEQiEY{BWuBKgCAeAMGC[D_@BIEEGG[KAAU?MAGAGGCQ?EUCc@KeCu@k@SgFkC}@a@aA]_AYeAS{BYwAEuIDwE@{BKsBA_GFBhAMBLCD`@rAfFBL@XMNSLi@F{J@kEBaAAMKEWCsDAiE?cAwDBaDBwGDm@@aULeCCuAMyAWgBe@mCgAm@UsA]sAYuBUiCG}NFwDJ_BDyAAcIAgB@wEAWA[B{CBcJD_RFiEDwCL]?}@BuHBaA@sCDgAHyANmAT{@TuAj@cAb@cAb@gA\\_B^o@Lw@JkCJgBCc@A_AKm@GaAQg@O[O{Ac@{Ac@w@QeAMcACkFA}D@gNDkB@s@E_BSg@Gw@OgAO{@GeACyC@mB@kBBqBPeCh@kAPmBJkBDmQH_CAuCEiFMy[HiMFqHHoD?eCDe@AmB?gC@eBBw@CgBBu@@mBPm@Lu@PeA^y@`@o@^y@j@a@\\cBnBoBxBs@`AaD|DeEdFyBzBiAvA{@dAmDfE{@j@c@Vm@VaB^c@JeALm@BuEDkIF}B?wOHyMDiXN}EBsCA_BImAUwAQcAIe@GsAAmDBuE@gD?{A?_DBgGBu@?cHD_B@{@AsB@yB@cEDsHBaH@eBDqBBw@?iHAwEF{A?IK_@Iw@YYQ[Oa@m@_@i@]i@Wm@o@mC{@qEy@kEmAqG}EgWiByJYoBsAuPa@eFQyAQo@Se@a@q@eBqB{BsCmAoAuBcCqCeD{CiDi@o@iAyAe@{@a@qAI_@MuBAyCEgMA_GGwEDeALqAVgAX{@Vu@TgARaC@uB@yBHkAFa@^uAhAwBl@aBXsADi@DcACiEC_DEq@Ik@YeAYq@OYi@s@qAyAg@{@Yk@Su@SuA]mEIc@Qi@k@yAsBsEk@qAQLSB}@@cBBcIH_DAmHD}HF{@AqEBaA@?gACwCiC@e@AgACqDB_HFiD?c@??RoDDoD@}CBsOHQ?i@Sw@CSKQc@FiJnBA^?b@?BXQ^?f@?pAW?fA_AHe@DIK@]MMMUOUEm@@mA@CrB?f@zC`CRwAF@JADEJ]DcAFc@P_@Ra@@YGa@ECOGQAMAMFa@\\MD[Bq@@{A?c@?AVC~B?t@A`E?f@sBNa@BuCBsEBwGDeGDoD@{JBgHDyCDmJFgAGi@MwAw@_@Ui@i@u@q@iAeAwCpEsBtCg@z@a@L{@vA]b@Sd@qAvBOQKPKKWASD?sBA_@[@{ED?aAA{@Vi@~@oBB]QOYWEKKAY]GOBOZe@KMNWTa@Ra@Ts@R}@TsBB{@"}, "summary": "", "warnings": ["Walking directions are in beta. Use caution \u2013 This route may be missing sidewalks or pedestrian paths."], "waypoint_order": []}, {"bounds": {"northeast": {"lat": 29.8041315, "lng": -95.3869994}, "southwest": {"lat": 29.6218423, "lng": -95.5078355}}, "copyrights": "Map data \u00a92022 Google", "legs": [{"arrival_time": {"text": "5:19pm", "time_zone": "America/Chicago", "value": 1642029597}, "departure_time": {"text": "3:42pm", "time_zone": "America/Chicago", "value": 1642023739}, "distance": {"text": "22.0 mi", "value": 35365}, "duration": {"text": "1 hour 38 mins", "value": 5858}, "end_address": "4400 W 18th St, Houston, TX 77092, USA", "end_location": {"lat": 29.8019199, "lng": -95.45428179999999}, "start_address": "12405 Carlsbad St, Houston, TX 77085, USA", "start_location": {"lat": 29.6288077, "lng": -95.4987027}, "steps": [{"distance": {"text": "0.9 mi", "value": 1507}, "duration": {"text": "19 mins", "value": 1121}, "end_location": {"lat": 29.6218553, "lng": -95.5072374}, "html_instructions": "Walk to Missouri City P&R", "polyline": {"points": "a{ysDza{eQ?xAlAAD?P?n@A|CCr@?dA?@HLAL?LAFvAHjB@RLrADb@PtAZxARt@r@rBPd@d@lAh@hBd@|BFXZnCBf@B\\@r@Br@?hA?`B?r@AVrAJhCPlBVh@DrB^?W?e@A_@|@CVB"}, "start_location": {"lat": 29.6288077, "lng": -95.4987027}, "steps": [{"distance": {"text": "141 ft", "value": 43}, "duration": {"text": "1 min", "value": 31}, "end_location": {"lat": 29.6288077, "lng": -95.4991452}, "html_instructions": "Head <b>west</b> toward <b>Carlsbad St</b>", "polyline": {"points": "a{ysDza{eQ?xA"}, "start_location": {"lat": 29.6288077, "lng": -95.4987027}, "travel_mode": "WALKING"}, {"distance": {"text": "0.2 mi", "value": 259}, "duration": {"text": "3 mins", "value": 205}, "end_location": {"lat": 29.6264383, "lng": -95.4991404}, "html_instructions": "Turn <b>left</b> onto <b>Carlsbad St</b>", "maneuver": "turn-left", "polyline": {"points": "a{ysDtd{eQlAAD?P?n@A|CCr@?dA?@HLAL?LA"}, "start_location": {"lat": 29.6288077, "lng": -95.4991452}, "travel_mode": "WALKING"}, {"distance": {"text": "0.5 mi", "value": 826}, "duration": {"text": "10 mins", "value": 609}, "end_location": {"lat": 29.62472979999999, "lng": -95.50725399999999}, "html_instructions": "Turn <b>right</b> onto <b>W Orem Dr</b>", "maneuver": "turn-right", "polyline": {"points": "glysDrd{eQFvAHjB@RLrADb@PtAZxARt@r@rBPd@d@lAh@hBd@|BFXZnCBf@B\\@r@Br@?hA?`B?r@AV"}, "start_location": {"lat": 29.6264383, "lng": -95.4991404}, "travel_mode": "WALKING"}, {"distance": {"text": "0.2 mi", "value": 281}, "duration": {"text": "3 mins", "value": 203}, "end_location": {"lat": 29.62227799999999, "lng": -95.50771259999999}, "html_instructions": "Turn <b>left</b> onto <b>Fondren Rd</b>", "maneuver": "turn-left", "polyline": {"points": "qaysDhw|eQrAJhCPlBVh@DrB^"}, "start_location": {"lat": 29.62472979999999, "lng": -95.50725399999999}, "travel_mode": "WALKING"}, {"distance": {"text": "164 ft", "value": 50}, "duration": {"text": "1 min", "value": 37}, "end_location": {"lat": 29.622286, "lng": -95.50723889999999}, "html_instructions": "Turn <b>left</b> onto <b>Missour City Pr 1 Dr</b><div style=\"font-size:0.9em\">Restricted usage road</div>", "maneuver": "turn-left", "polyline": {"points": "grxsDdz|eQ?W?e@A_@"}, "start_location": {"lat": 29.62227799999999, "lng": -95.50771259999999}, "travel_mode": "WALKING"}, {"distance": {"text": "157 ft", "value": 48}, "duration": {"text": "1 min", "value": 36}, "end_location": {"lat": 29.6218553, "lng": -95.5072374}, "html_instructions": "Turn <b>right</b><div style=\"font-size:0.9em\">Restricted usage road</div><div style=\"font-size:0.9em\">Destination will be on the left</div>", "maneuver": "turn-right", "polyline": {"points": "irxsDfw|eQ|@CVB"}, "start_location": {"lat": 29.622286, "lng": -95.50723889999999}, "travel_mode": "WALKING"}], "travel_mode": "WALKING"}, {"distance": {"text": "9.2 mi", "value": 14851}, "duration": {"text": "16 mins", "value": 960}, "end_location": {"lat": 29.704328, "lng": -95.40361999999999}, "html_instructions": "Bus towards TMC TC", "polyline": {"points": "ooxsDtv|eQ?DyAD?|AE^wB_@wDe@gEY}AAqBAuB?kE@gEDeA@}A@gAHgCL_@yAKa@qAkE{@aDoBuFa@w@w@mCiAuDkEqOqByHc@cBsBuHaCsIw@oCMe@M_@i@uBgC}I_BwF_DaLiBwGcAeDcCaJ_AiDYeA_@oAkEkO{@wC{@wCcAoD[kAqEwNmB_HaE{NeAsDOe@gDsL}C}KsC}JyCmKq@aCsBkHQm@aBwFs@}BiAyDgCaJmFoRW{@_@aBOs@_@oB[qBk@{E{@wHq@iGO_AW{@c@_AaA}AeAiAiAq@s@[u@OgAUw@EcDKO?mISaAOiAWiAk@uA{@cE}CsB}AgBoAcHcFaBmA_@Yi@_@YS}DuCiCkBmCqBoBsAcBqAcEyCwEgDs@i@cGiEeIcGiDeCoEeDqAeA}BmB{AcAaDaCoAaAuB_ByCyB_GkEuF}DaAs@uGyEyFaEeAw@cBoA_D_CqDkCwEmDkE}C{BcBwCeBoAaAiHgFiAg@mDkCkGoEwFcEwCuB{BcBqEeDgE}CcDcCgHiFmCoB}CyB`ByDVq@Nq@L{@Bq@?a@?kAI_AUwAAK?AWR?@WBa@H{@L?J"}, "start_location": {"lat": 29.621844, "lng": -95.50714699999999}, "transit_details": {"arrival_stop": {"location": {"lat": 29.704328, "lng": -95.40361999999999}, "name": "Texas Medical Center Transit Center"}, "arrival_time": {"text": "4:17pm", "time_zone": "America/Chicago", "value": 1642025820}, "departure_stop": {"location": {"lat": 29.621844, "lng": -95.50714699999999}, "name": "Missouri City P&R"}, "departure_time": {"text": "4:01pm", "time_zone": "America/Chicago", "value": 1642024860}, "headsign": "TMC TC", "line": {"agencies": [{"name": "Metropolitan Transit Authority of Harris County", "phone": "1 (713) 635-4000", "url": "http://www.ridemetro.org/"}], "color": "#004080", "name": "Missouri City Express", "short_name": "170", "text_color": "#ffffff", "url": "https://www.ridemetro.org/MetroPDFs/Schedules/BusSchedules/tmccorridor.pdf", "vehicle": {"icon": "//maps.gstatic.com/mapfiles/transit/iw2/6/bus2.png", "name": "Bus", "type": "BUS"}}, "num_stops": 1, "trip_short_name": "M.C."}, "travel_mode": "TRANSIT"}, {"distance": {"text": "7.7 mi", "value": 12332}, "duration": {"text": "33 mins", "value": 1971}, "end_location": {"lat": 29.803849, "lng": -95.387502}, "html_instructions": "Bus towards Greenspoint TC", "polyline": {"points": "ashtDroheQKcA@?`@Ib@GXEBAB@B@@@FF@B@D@D?R?DC^ANKd@Y`AGT?D?H?@?F@H@FBFBFDDDBFBH@B?`AF?PAVQfAW`ASd@Sf@GNGNGNKVGLCFIPa@UQMMOMKKIIIqAgAyBaBa@[EAAAs@g@[Y]Uo@e@kA{@gBiACAEAMAkBqAk@_@c@[GEa@[o@g@_@[iA{@iAy@[YSSmBsAg@_@c@[ECi@a@_@WwAcAaBmAYSECMI_Am@o@c@{AiAkBsAcBoAWQYSkA{@MKm@c@_@YQOUQaAs@CAgBqAi@_@UQ_@W[Ws@i@w@k@eAw@oEcDiBsAECGEECg@]IG]YOMWUcFqDk@a@}AiAWQy@m@]Yo@e@MICCCCEEGG[[?IAIAEAECIEGCGCGQOECCAKEICICKAE?EAK@CBEDEFCFCH?@?@?@?@OPGDE@I?YF]?iA?aB?g@?e@?W?}@@Y?s@?C?c@?c@@M?c@?S@K?kA?sA?qC@M?m@@oB@Y?}@@A?Q?u@?m@?GECCS?]?e@?Q@G?M?C?G?[?M?I@GAO?]@KJG?E?q@?e@@[?Q?O?I?S?cB?G?g@?i@?S?_@?e@?o@@E?]@aA?w@@o@?Q@eC@Q?qB?w@?wB@k@@Q?}@?kB@oC@Y@i@?_B?a@?_A?_@?k@?e@?[?i@?eCBGESCWAaABc@?O?o@?U?M?[?c@Ba@BK@M@C@G@SDIBe@Nu@Rc@L[JKDMFKDaAPi@DG@Q@U@s@BiA@q@@W@iB?aA@M?e@?]@_A@K?wA@o@@cA@_A?qBBU@uCBu@@g@?c@?c@?_@?c@@cC@e@@yA?a@?_@@_@?yA@]@cA?C@e@@c@@o@BW@K?S@Y?i@DA?Y@Q@I@G@QBG@e@DU@g@@m@@a@?C?mABaB?Y@[?]?W?gAAS?c@?W?_@AWCC?M?C?WAc@@c@?c@GQC[?I?Q?Q?a@BQ@?@Q?A?A?Q@EAA?E?U?A?KAW?e@AqBG_@Ca@AO?o@Cm@?[?u@AoEBQ?]?O?cACYCYA]C_@GUEg@Gg@MA?]KOEu@UQCiBk@s@WSG_@OKEA?aBm@a@OEC[KEAAAYGOEQEA?SEKCGAOCKA_@EkBEk@Ai@?a@?sB@W?QASCQAQCAAi@IQEMCICOG_@OAAMGMG[QMGOKEEIIUOc@_@CCUQACOOu@q@ECq@q@AASSw@u@?AYYUS_@_@WUu@s@IIA??AIGEEKKCAGEGCIGQIQK]OAAYKEAOGWIYGc@IQCQCQAQAE?]CG?M?iAD}@H_@Hq@PgAZSFa@NEBG@GDIBMDC@E@K@Y@Q@Q?K?A?A?A@CBCDU?aB?}CB[?uDBkB@[?K?Q?Q?aA@y@?{@?qA@{A?K?e@@kA@i@@[?gA?g@@E?Y?E?a@?yA@S?m@?Y?uB@S@q@?_@BE?Q?M@w@?MAi@?k@?c@?O?_A@I?M@o@@mB?Y@S?wB@o@@w@?O?Q?}A?k@@i@@}@?c@@y@?wA@mC@Q?oA@Y?U@sB?W@qB?c@@I?yA@m@?cA?W@gB?_@?w@?sA@wA@Q?}@@sAIc@HFa@D]B]@QH?"}, "start_location": {"lat": 29.704328, "lng": -95.40361999999999}, "transit_details": {"arrival_stop": {"location": {"lat": 29.803849, "lng": -95.387502}, "name": "W Cavalcade St @ N Main St"}, "arrival_time": {"text": "4:52pm", "time_zone": "America/Chicago", "value": 1642027971}, "departure_stop": {"location": {"lat": 29.704328, "lng": -95.40361999999999}, "name": "Texas Medical Center Transit Center"}, "departure_time": {"text": "4:20pm", "time_zone": "America/Chicago", "value": 1642026000}, "headsign": "Greenspoint TC", "line": {"agencies": [{"name": "Metropolitan Transit Authority of Harris County", "phone": "1 (713) 635-4000", "url": "http://www.ridemetro.org/"}], "color": "#004080", "name": "Airline / Montrose", "short_name": "56", "text_color": "#ffffff", "url": "https://www.ridemetro.org/MetroPDFs/Schedules/BusSchedules/n056-Airline-Montrose.pdf", "vehicle": {"icon": "//maps.gstatic.com/mapfiles/transit/iw2/6/bus2.png", "name": "Bus", "type": "BUS"}}, "num_stops": 45, "trip_short_name": "AIRLMONT"}, "travel_mode": "TRANSIT"}, {"distance": {"text": "256 ft", "value": 78}, "duration": {"text": "1 min", "value": 77}, "end_location": {"lat": 29.8040987, "lng": -95.3879358}, "html_instructions": "Walk to W Cavalcade St @ N Main St", "polyline": {"points": "ca|tDzjeeQARC\\E\\EROBC?O@DO?A"}, "start_location": {"lat": 29.8038626, "lng": -95.38750189999999}, "steps": [{"distance": {"text": "180 ft", "value": 55}, "duration": {"text": "1 min", "value": 40}, "end_location": {"lat": 29.8040284, "lng": -95.388019}, "html_instructions": "Head <b>west</b> on <b>W Cavalcade St</b> toward <b>N Main St</b>", "polyline": {"points": "ca|tDzjeeQARC\\E\\EROB"}, "start_location": {"lat": 29.8038626, "lng": -95.38750189999999}, "travel_mode": "WALKING"}, {"distance": {"text": "36 ft", "value": 11}, "duration": {"text": "1 min", "value": 18}, "end_location": {"lat": 29.8041286, "lng": -95.38803279999999}, "html_instructions": "Turn <b>right</b> onto <b>N Main St</b>", "maneuver": "turn-right", "polyline": {"points": "eb|tDbneeQC?O@"}, "start_location": {"lat": 29.8040284, "lng": -95.388019}, "travel_mode": "WALKING"}, {"distance": {"text": "39 ft", "value": 12}, "duration": {"text": "1 min", "value": 19}, "end_location": {"lat": 29.8040987, "lng": -95.3879358}, "html_instructions": "Turn <b>right</b> onto <b>W Cavalcade St</b>", "maneuver": "turn-right", "polyline": {"points": "yb|tDdneeQDO?A"}, "start_location": {"lat": 29.8041286, "lng": -95.38803279999999}, "travel_mode": "WALKING"}], "travel_mode": "WALKING"}, {"distance": {"text": "4.0 mi", "value": 6499}, "duration": {"text": "14 mins", "value": 864}, "end_location": {"lat": 29.80163, "lng": -95.454342}, "html_instructions": "Bus towards Memorial City", "polyline": {"points": "wb|tDpmeeQJBA@ETC\\Af@?P?P?LA`@@\\BpA?^@j@?H@tA?n@?b@@b@?X?P?V@`A?v@@dA?V?vA@T?lB@jB@tA?XB|E?~A@zB@nB?V?V@t@?L?R?L@R?N?f@?h@@|@?\\?d@?b@@n@?pA@|B?d@?`@@t@?T?pA@v@@rA?v@@bD@~@?nA@H?tB@^@dC?P?j@@x@?x@?t@@P?dA@|A?\\?^@dC@zB?xA?N@V?fA@`ABfE?tABtJ?pB@rA?r@?H?|@?jB?@?j@@h@AL?\\?J@f@?|B?h@?|@?n@?N?|G?J@tE?d@@dC?p@AL@J?V@P@H?B?D@F@HBH@JDPDLDLDHDJDJHLFHFHLL?@TVTVn@v@NRh@h@NPVX^f@BJBFBFf@v@P`@DZDVBT@F?D@F?H?P@P?X?N?F?j@@pAIpB@f@?V?fA?j@?V@h@AjA?h@@~@?b@@^Af@@d@?X?bA?jA?b@@nC?J?d@Aj@?v@?P@dB?jA?bC?`A?\\@dH?`D?dC@fE?jD?T@`F@vB?jD?vC?X?`E@V@zCAb@?fAAX@fB@fA?T@|B?l@A~A?x@?XAzB?`A?dB?l@?P?F?H@^?Z?@?H?@?Z?h@?f@?j@?^?t@@j@BnAAV@|@@fB?bBG?"}, "start_location": {"lat": 29.804119, "lng": -95.38793299999999}, "transit_details": {"arrival_stop": {"location": {"lat": 29.80163, "lng": -95.454342}, "name": "W 18th St @ Northwest Fwy"}, "arrival_time": {"text": "5:18pm", "time_zone": "America/Chicago", "value": 1642029520}, "departure_stop": {"location": {"lat": 29.804119, "lng": -95.38793299999999}, "name": "W Cavalcade St @ N Main St"}, "departure_time": {"text": "5:04pm", "time_zone": "America/Chicago", "value": 1642028656}, "headsign": "Memorial City", "line": {"agencies": [{"name": "Metropolitan Transit Authority of Harris County", "phone": "1 (713) 635-4000", "url": "http://www.ridemetro.org/"}], "color": "#004080", "name": "Long Point / Cavalcade", "short_name": "26", "text_color": "#ffffff", "url": "https://www.ridemetro.org/MetroPDFs/Schedules/BusSchedules/n026-Long-Point-Cavalcade.pdf", "vehicle": {"icon": "//maps.gstatic.com/mapfiles/transit/iw2/6/bus2.png", "name": "Bus", "type": "BUS"}}, "num_stops": 24, "trip_short_name": "LONGPOINT"}, "travel_mode": "TRANSIT"}, {"distance": {"text": "322 ft", "value": 98}, "duration": {"text": "1 min", "value": 77}, "end_location": {"lat": 29.8019199, "lng": -95.45428179999999}, "html_instructions": "Walk to 4400 W 18th St, Houston, TX 77092, USA", "polyline": {"points": "es{tDrlreQ?z@YEc@E?G@Q@a@"}, "start_location": {"lat": 29.8016264, "lng": -95.454342}, "steps": [{"distance": {"text": "95 ft", "value": 29}, "duration": {"text": "1 min", "value": 22}, "end_location": {"lat": 29.8016252, "lng": -95.45463819999999}, "html_instructions": "Head <b>west</b> on <b>W 18th St</b>/<wbr/><b>NW Mall</b>", "polyline": {"points": "es{tDrlreQ?z@"}, "start_location": {"lat": 29.8016264, "lng": -95.454342}, "travel_mode": "WALKING"}, {"distance": {"text": "131 ft", "value": 40}, "duration": {"text": "1 min", "value": 33}, "end_location": {"lat": 29.8019405, "lng": -95.4545788}, "html_instructions": "Turn <b>right</b><div style=\"font-size:0.9em\">Restricted usage road</div>", "maneuver": "turn-right", "polyline": {"points": "es{tDnnreQYEc@E"}, "start_location": {"lat": 29.8016252, "lng": -95.45463819999999}, "travel_mode": "WALKING"}, {"distance": {"text": "95 ft", "value": 29}, "duration": {"text": "1 min", "value": 22}, "end_location": {"lat": 29.8019199, "lng": -95.45428179999999}, "html_instructions": "Turn <b>right</b><div style=\"font-size:0.9em\">Restricted usage road</div><div style=\"font-size:0.9em\">Destination will be on the left</div>", "maneuver": "turn-right", "polyline": {"points": "cu{tDbnreQ?G@Q@a@"}, "start_location": {"lat": 29.8019405, "lng": -95.4545788}, "travel_mode": "WALKING"}], "travel_mode": "WALKING"}], "traffic_speed_entry": [], "via_waypoint": []}], "overview_polyline": {"points": "a{ysDza{eQ?xAlAAV?fIE@HLAZAPbENfBVxBn@nCdAxCd@lAh@hBl@vC^vDDpAB|B?tCAVrAJhCPlBV|Cd@?}@A_@|@CVBBQ?DyAD?|AE^wB_@wDe@gEY}AAgFAwPJoEVk@{BmCmJoBuFa@w@aCcIkEqOqByHwCyKyDcNmEyO_GySmD}L}FaTgKk^mFcQoH{W{Kk`@sMyd@qF}QuJq]w@}Co@cDgAmImBaQO_AW{@c@_AaA}AeAiAiAq@s@[u@OgAUw@EsDKmISaAOiAWiAk@uA{@cE}C{EmDeKqHaHcFwG}EsEeDsUuPoNiKaHkF}BmB{AcAqFcEoGyEuNiKwSgOmSiOgIaGwCeBoAaAiHgFiAg@yL{I}UcQaX{R}CyB`ByDf@cBL{@Bq@?mBI_AUwAAMWTy@L{@L?JIcAbBYFBHHBH@XEt@m@bC@\\N\\LFL@`AFAh@i@hCg@lAc@fAKTIPa@UQM[[USqAgAyBaBg@]u@i@y@o@{BaBkBkASCcEsC{D{CeBsAaCgB{BaBsF}DcC_BcI_GaD_CiCoBsIkGeMcJm@g@{FgE{EkD_BmAm@m@E_@Qa@WSOGe@IEAODKLGP?FWVO@YF]?kD?cD@_FBcODgC@m@?GEWC}A@u@?o@?]@KJG?w@?aA@_A?}D?iC@wJFySFwJ@eA?eCBGEk@EeBBcB?_ABm@Dm@JiCt@aA^kBVYBeEHqEB{KHsIJoC?cNHkCDwBFyAF}@FuAL{BBeFDqCA{AAm@C{@?c@?c@Gm@C[?eAFg@@oBEcEMoDEoGBuCMu@MoAUeBg@QCiBk@gA_@oCcAiAa@}@Ui@K[EkCKkF?i@Ae@EoAUgA_@y@c@m@c@sAeAmAiAoEmEuBoBaB{@gA_@aBYgAGU?gCNmD~@w@Za@LiADO?EDCDU?_GBqEBeD@iLD{TJeADeAAuA?}B@eED_LDmOHuLFuNDoA@sAIc@HL_ADo@F?Ep@Kp@SBO@DOCCHDIr@AxABpDDnHDjMNf^JxZNt_@FlPHt]@bH@dX?jFD~@BZPt@Vn@f@n@dDxDv@`AFRj@~@V|@Jz@Bt@?|A@pAIpB@~@@tDAtB@bB@fC@bI?|MBv`@BxI?bIBnKAlFBhGCnH?fF@vBBfJBdD?bBG??z@}@KB{@"}, "summary": "", "warnings": ["Walking directions are in beta. Use caution \u2013 This route may be missing sidewalks or pedestrian paths."], "waypoint_order": []}, {"bounds": {"northeast": {"lat": 29.803869, "lng": -95.4031601}, "southwest": {"lat": 29.6218423, "lng": -95.5078355}}, "copyrights": "Map data \u00a92022 Google", "legs": [{"arrival_time": {"text": "5:19pm", "time_zone": "America/Chicago", "value": 1642029597}, "departure_time": {"text": "3:42pm", "time_zone": "America/Chicago", "value": 1642023739}, "distance": {"text": "20.8 mi", "value": 33550}, "duration": {"text": "1 hour 38 mins", "value": 5858}, "end_address": "4400 W 18th St, Houston, TX 77092, USA", "end_location": {"lat": 29.8019199, "lng": -95.45428179999999}, "start_address": "12405 Carlsbad St, Houston, TX 77085, USA", "start_location": {"lat": 29.6288077, "lng": -95.4987027}, "steps": [{"distance": {"text": "0.9 mi", "value": 1507}, "duration": {"text": "19 mins", "value": 1121}, "end_location": {"lat": 29.6218553, "lng": -95.5072374}, "html_instructions": "Walk to Missouri City P&R", "polyline": {"points": "a{ysDza{eQ?xAlAAD?P?n@A|CCr@?dA?@HLAL?LAFvAHjB@RLrADb@PtAZxARt@r@rBPd@d@lAh@hBd@|BFXZnCBf@B\\@r@Br@?hA?`B?r@AVrAJhCPlBVh@DrB^?W?e@A_@|@CVB"}, "start_location": {"lat": 29.6288077, "lng": -95.4987027}, "steps": [{"distance": {"text": "141 ft", "value": 43}, "duration": {"text": "1 min", "value": 31}, "end_location": {"lat": 29.6288077, "lng": -95.4991452}, "html_instructions": "Head <b>west</b> toward <b>Carlsbad St</b>", "polyline": {"points": "a{ysDza{eQ?xA"}, "start_location": {"lat": 29.6288077, "lng": -95.4987027}, "travel_mode": "WALKING"}, {"distance": {"text": "0.2 mi", "value": 259}, "duration": {"text": "3 mins", "value": 205}, "end_location": {"lat": 29.6264383, "lng": -95.4991404}, "html_instructions": "Turn <b>left</b> onto <b>Carlsbad St</b>", "maneuver": "turn-left", "polyline": {"points": "a{ysDtd{eQlAAD?P?n@A|CCr@?dA?@HLAL?LA"}, "start_location": {"lat": 29.6288077, "lng": -95.4991452}, "travel_mode": "WALKING"}, {"distance": {"text": "0.5 mi", "value": 826}, "duration": {"text": "10 mins", "value": 609}, "end_location": {"lat": 29.62472979999999, "lng": -95.50725399999999}, "html_instructions": "Turn <b>right</b> onto <b>W Orem Dr</b>", "maneuver": "turn-right", "polyline": {"points": "glysDrd{eQFvAHjB@RLrADb@PtAZxARt@r@rBPd@d@lAh@hBd@|BFXZnCBf@B\\@r@Br@?hA?`B?r@AV"}, "start_location": {"lat": 29.6264383, "lng": -95.4991404}, "travel_mode": "WALKING"}, {"distance": {"text": "0.2 mi", "value": 281}, "duration": {"text": "3 mins", "value": 203}, "end_location": {"lat": 29.62227799999999, "lng": -95.50771259999999}, "html_instructions": "Turn <b>left</b> onto <b>Fondren Rd</b>", "maneuver": "turn-left", "polyline": {"points": "qaysDhw|eQrAJhCPlBVh@DrB^"}, "start_location": {"lat": 29.62472979999999, "lng": -95.50725399999999}, "travel_mode": "WALKING"}, {"distance": {"text": "164 ft", "value": 50}, "duration": {"text": "1 min", "value": 37}, "end_location": {"lat": 29.622286, "lng": -95.50723889999999}, "html_instructions": "Turn <b>left</b> onto <b>Missour City Pr 1 Dr</b><div style=\"font-size:0.9em\">Restricted usage road</div>", "maneuver": "turn-left", "polyline": {"points": "grxsDdz|eQ?W?e@A_@"}, "start_location": {"lat": 29.62227799999999, "lng": -95.50771259999999}, "travel_mode": "WALKING"}, {"distance": {"text": "157 ft", "value": 48}, "duration": {"text": "1 min", "value": 36}, "end_location": {"lat": 29.6218553, "lng": -95.5072374}, "html_instructions": "Turn <b>right</b><div style=\"font-size:0.9em\">Restricted usage road</div><div style=\"font-size:0.9em\">Destination will be on the left</div>", "maneuver": "turn-right", "polyline": {"points": "irxsDfw|eQ|@CVB"}, "start_location": {"lat": 29.622286, "lng": -95.50723889999999}, "travel_mode": "WALKING"}], "travel_mode": "WALKING"}, {"distance": {"text": "9.2 mi", "value": 14851}, "duration": {"text": "16 mins", "value": 960}, "end_location": {"lat": 29.704328, "lng": -95.40361999999999}, "html_instructions": "Bus towards TMC TC", "polyline": {"points": "ooxsDtv|eQ?DyAD?|AE^wB_@wDe@gEY}AAqBAuB?kE@gEDeA@}A@gAHgCL_@yAKa@qAkE{@aDoBuFa@w@w@mCiAuDkEqOqByHc@cBsBuHaCsIw@oCMe@M_@i@uBgC}I_BwF_DaLiBwGcAeDcCaJ_AiDYeA_@oAkEkO{@wC{@wCcAoD[kAqEwNmB_HaE{NeAsDOe@gDsL}C}KsC}JyCmKq@aCsBkHQm@aBwFs@}BiAyDgCaJmFoRW{@_@aBOs@_@oB[qBk@{E{@wHq@iGO_AW{@c@_AaA}AeAiAiAq@s@[u@OgAUw@EcDKO?mISaAOiAWiAk@uA{@cE}CsB}AgBoAcHcFaBmA_@Yi@_@YS}DuCiCkBmCqBoBsAcBqAcEyCwEgDs@i@cGiEeIcGiDeCoEeDqAeA}BmB{AcAaDaCoAaAuB_ByCyB_GkEuF}DaAs@uGyEyFaEeAw@cBoA_D_CqDkCwEmDkE}C{BcBwCeBoAaAiHgFiAg@mDkCkGoEwFcEwCuB{BcBqEeDgE}CcDcCgHiFmCoB}CyB`ByDVq@Nq@L{@Bq@?a@?kAI_AUwAAK?AWR?@WBa@H{@L?J"}, "start_location": {"lat": 29.621844, "lng": -95.50714699999999}, "transit_details": {"arrival_stop": {"location": {"lat": 29.704328, "lng": -95.40361999999999}, "name": "Texas Medical Center Transit Center"}, "arrival_time": {"text": "4:17pm", "time_zone": "America/Chicago", "value": 1642025820}, "departure_stop": {"location": {"lat": 29.621844, "lng": -95.50714699999999}, "name": "Missouri City P&R"}, "departure_time": {"text": "4:01pm", "time_zone": "America/Chicago", "value": 1642024860}, "headsign": "TMC TC", "line": {"agencies": [{"name": "Metropolitan Transit Authority of Harris County", "phone": "1 (713) 635-4000", "url": "http://www.ridemetro.org/"}], "color": "#004080", "name": "Missouri City Express", "short_name": "170", "text_color": "#ffffff", "url": "https://www.ridemetro.org/MetroPDFs/Schedules/BusSchedules/tmccorridor.pdf", "vehicle": {"icon": "//maps.gstatic.com/mapfiles/transit/iw2/6/bus2.png", "name": "Bus", "type": "BUS"}}, "num_stops": 1, "trip_short_name": "M.C."}, "travel_mode": "TRANSIT"}, {"distance": {"text": "7.9 mi", "value": 12693}, "duration": {"text": "34 mins", "value": 2040}, "end_location": {"lat": 29.803613, "lng": -95.41008699999999}, "html_instructions": "Bus towards N Shepherd P&R", "polyline": {"points": "ashtDroheQFj@kAh@QBKAKKCQ@O?i@?A?e@j@Kn@KDAp@Mr@KPHDPDVERC\\AJCJCL@TCLUp@CN?PDPJJLDhAHCp@Mz@Op@Wp@gAhC?@CFIPEJIPEHELWh@QXINOPSNkAl@OH]PE@MFC@MBS@e@@M?o@A]??|B?vA?^@nG?j@?R?P@b@?~@@rAA`A@n@?h@oA?[?_@?WAsBBQ?Q?eD@uB@S?Y?yAA{@@yC@kC@K?gD?cDB_D@}A?oA@_B@c@?cE@w@@}AAAc@?g@AQCYCg@Iq@E[Gc@Km@Os@Me@IUSu@GUw@oCMc@Uw@cBp@IDkAb@kAf@{@^SHy@ZEBSF_@JKBi@LA@SDWDa@FI@a@F]DWBYBQ@o@DA?M@w@@W@M?K?oA?gA?K?sA@uA@K@iB?s@?iD@yB?S?c@@gB?oCBU@eB@e@?]?eA?S?O?U?aA?i@@A?[?A?Y@k@?]?m@?W?iD@c@@aA@eADcAAQ?aA?S@c@?U@y@Ao@AgB?cA@sA?cA@Q?iD@wA?u@@e@?c@?M?_A@]?y@?y@@Y?K?y@@O?s@?y@?eB@cA?y@@O?K?W?I?c@?E?}ABE?q@?gA?]Aa@G[GSCg@AS@M?Y?a@?m@?_A?c@@S?sC@gA@iA?kD?iB?_@?[?Y?q@@gB?{@?Y@qA?eA?I?uD@i@@_A?Q?O?{@?m@?M?g@@y@@g@@Q?[?{@?OGEAGCEEGCECECGEY[OYEKCECGEQ_AuCAEEIQe@IQCEACGIEGEGGIIIEEOKGEQKMEk@Oo@@M?{@?WIgB?KEC?SAYAU?IA]?SAeA?S?g@AcA@EBIFKFA@CBIHCDGHGXQ@aAJa@Da@DC?}AL]D]DK@KEA?A?I?G?M?MAAAA?C?AAE?CAA?OCC?AAM?WA[FE@E@c@HG@YD_@HeAPKBw@TgABW?C?W?k@@_A@K?[@SBe@Dc@@SBa@?eA@[?M?eA@c@?e@?]?_@@Y?k@?M?qCBg@?Q?M@U?e@?M?qCB]?w@@_@?E@W?e@?mB@gA?k@@]?qB@c@@a@CE@e@@m@?S@kA?cA@aCBM?oC@eA@oA@Y?[?O?a@Bm@?U?o@?e@@I?A?A?y@?M@YAS@O?_@@w@@y@?]?M?YAMAMCOEYIIAa@Kc@Ku@QGACAm@MAAOCIAK?OAM?M?A?I?O?S@M@IBc@Jq@P}@Vg@Jk@Ji@Hc@Be@DE?c@Bs@ByABA?oCBYA}B@I?A?q@@K?E?k@?C?O@u@?S?k@@w@@K?a@?O?[@U?U?U?k@@k@?Y@C?I?S?kC@y@@K?W@[?S?A?W?G?U@S?c@?e@@O?E?[?mCBeA@U?Y?S?U@A?S?aA@_@?e@@Q?S?U?s@?C?W?qB@sB@eBBg@?oBBaGBq@@w@?aB@i@@W@_B@yA@aB@Q?qD@U@gB?eB@eBA_A@?K"}, "start_location": {"lat": 29.704328, "lng": -95.40361999999999}, "transit_details": {"arrival_stop": {"location": {"lat": 29.803613, "lng": -95.41008699999999}, "name": "N Shepherd Dr @ W 20th St"}, "arrival_time": {"text": "4:59pm", "time_zone": "America/Chicago", "value": 1642028340}, "departure_stop": {"location": {"lat": 29.704328, "lng": -95.40361999999999}, "name": "Texas Medical Center Transit Center"}, "departure_time": {"text": "4:25pm", "time_zone": "America/Chicago", "value": 1642026300}, "headsign": "N Shepherd P&R", "line": {"agencies": [{"name": "Metropolitan Transit Authority of Harris County", "phone": "1 (713) 635-4000", "url": "http://www.ridemetro.org/"}], "color": "#004080", "name": "Shepherd", "short_name": "27", "text_color": "#ffffff", "url": "https://www.ridemetro.org/MetroPDFs/Schedules/BusSchedules/n027-Shepherd.pdf", "vehicle": {"icon": "//maps.gstatic.com/mapfiles/transit/iw2/6/bus2.png", "name": "Bus", "type": "BUS"}}, "num_stops": 53, "trip_short_name": "SHEPHERD"}, "travel_mode": "TRANSIT"}, {"distance": {"text": "112 ft", "value": 34}, "duration": {"text": "1 min", "value": 34}, "end_location": {"lat": 29.803842, "lng": -95.41002979999999}, "html_instructions": "Walk to W 20th St @ N Shepherd Dr", "polyline": {"points": "q_|tDdxieQ_@@M??Q"}, "start_location": {"lat": 29.8036121, "lng": -95.410111}, "steps": [{"distance": {"text": "69 ft", "value": 21}, "duration": {"text": "1 min", "value": 15}, "end_location": {"lat": 29.8038391, "lng": -95.4101207}, "html_instructions": "Head <b>north</b> on <b>N Shepherd Dr</b> toward <b>W 20th St</b>", "polyline": {"points": "q_|tDdxieQ_@@M?"}, "start_location": {"lat": 29.8036121, "lng": -95.410111}, "travel_mode": "WALKING"}, {"distance": {"text": "43 ft", "value": 13}, "duration": {"text": "1 min", "value": 19}, "end_location": {"lat": 29.803842, "lng": -95.41002979999999}, "html_instructions": "Turn <b>right</b> onto <b>W 20th St</b>", "maneuver": "turn-right", "polyline": {"points": "_a|tDfxieQ?Q"}, "start_location": {"lat": 29.8038391, "lng": -95.4101207}, "travel_mode": "WALKING"}], "travel_mode": "WALKING"}, {"distance": {"text": "2.7 mi", "value": 4367}, "duration": {"text": "10 mins", "value": 582}, "end_location": {"lat": 29.80163, "lng": -95.454342}, "html_instructions": "Bus towards Memorial City", "polyline": {"points": "ea|tDvwieQJ?@V?fA@`ABfE?tABtJ?pB@rA?r@?H?|@?jB?@?j@@h@AL?\\?J@f@?|B?h@?|@?n@?N?|G?J@tE?d@@dC?p@AL@J?V@P@H?B?D@F@HBH@JDPDLDLDHDJDJHLFHFHLL?@TVTVn@v@NRh@h@NPVX^f@BJBFBFf@v@P`@DZDVBT@F?D@F?H?P@P?X?N?F?j@@pAIpB@f@?V?fA?j@?V@h@AjA?h@@~@?b@@^Af@@d@?X?bA?jA?b@@nC?J?d@Aj@?v@?P@dB?jA?bC?`A?\\@dH?`D?dC@fE?jD?T@`F@vB?jD?vC?X?`E@V@zCAb@?fAAX@fB@fA?T@|B?l@A~A?x@?XAzB?`A?dB?l@?P?F?H@^?Z?@?H?@?Z?h@?f@?j@?^?t@@j@BnAAV@|@@fB?bBG?"}, "start_location": {"lat": 29.803869, "lng": -95.410039}, "transit_details": {"arrival_stop": {"location": {"lat": 29.80163, "lng": -95.454342}, "name": "W 18th St @ Northwest Fwy"}, "arrival_time": {"text": "5:18pm", "time_zone": "America/Chicago", "value": 1642029520}, "departure_stop": {"location": {"lat": 29.803869, "lng": -95.410039}, "name": "W 20th St @ N Shepherd Dr"}, "departure_time": {"text": "5:08pm", "time_zone": "America/Chicago", "value": 1642028938}, "headsign": "Memorial City", "line": {"agencies": [{"name": "Metropolitan Transit Authority of Harris County", "phone": "1 (713) 635-4000", "url": "http://www.ridemetro.org/"}], "color": "#004080", "name": "Long Point / Cavalcade", "short_name": "26", "text_color": "#ffffff", "url": "https://www.ridemetro.org/MetroPDFs/Schedules/BusSchedules/n026-Long-Point-Cavalcade.pdf", "vehicle": {"icon": "//maps.gstatic.com/mapfiles/transit/iw2/6/bus2.png", "name": "Bus", "type": "BUS"}}, "num_stops": 14, "trip_short_name": "LONGPOINT"}, "travel_mode": "TRANSIT"}, {"distance": {"text": "322 ft", "value": 98}, "duration": {"text": "1 min", "value": 77}, "end_location": {"lat": 29.8019199, "lng": -95.45428179999999}, "html_instructions": "Walk to 4400 W 18th St, Houston, TX 77092, USA", "polyline": {"points": "es{tDrlreQ?z@YEc@E?G@Q@a@"}, "start_location": {"lat": 29.8016264, "lng": -95.454342}, "steps": [{"distance": {"text": "95 ft", "value": 29}, "duration": {"text": "1 min", "value": 22}, "end_location": {"lat": 29.8016252, "lng": -95.45463819999999}, "html_instructions": "Head <b>west</b> on <b>W 18th St</b>/<wbr/><b>NW Mall</b>", "polyline": {"points": "es{tDrlreQ?z@"}, "start_location": {"lat": 29.8016264, "lng": -95.454342}, "travel_mode": "WALKING"}, {"distance": {"text": "131 ft", "value": 40}, "duration": {"text": "1 min", "value": 33}, "end_location": {"lat": 29.8019405, "lng": -95.4545788}, "html_instructions": "Turn <b>right</b><div style=\"font-size:0.9em\">Restricted usage road</div>", "maneuver": "turn-right", "polyline": {"points": "es{tDnnreQYEc@E"}, "start_location": {"lat": 29.8016252, "lng": -95.45463819999999}, "travel_mode": "WALKING"}, {"distance": {"text": "95 ft", "value": 29}, "duration": {"text": "1 min", "value": 22}, "end_location": {"lat": 29.8019199, "lng": -95.45428179999999}, "html_instructions": "Turn <b>right</b><div style=\"font-size:0.9em\">Restricted usage road</div><div style=\"font-size:0.9em\">Destination will be on the left</div>", "maneuver": "turn-right", "polyline": {"points": "cu{tDbnreQ?G@Q@a@"}, "start_location": {"lat": 29.8019405, "lng": -95.4545788}, "travel_mode": "WALKING"}], "travel_mode": "WALKING"}], "traffic_speed_entry": [], "via_waypoint": []}], "overview_polyline": {"points": "a{ysDza{eQ?xAlAAV?fIE@HLAZAPbENfBVxBn@nCdAxCd@lAh@hBl@vC^vDDpAB|B?tCAVrAJhCPlBV|Cd@?}@A_@|@CVBBQ?DyAD?|AE^wB_@wDe@gEY}AAgFAwPJoEVk@{BmCmJoBuFa@w@aCcIkEqOqByHwCyKyDcNmEyO_GySmD}L}FaTgKk^mFcQoH{W{Kk`@sMyd@qF}QuJq]w@}Co@cDgAmImBaQO_AW{@c@_AaA}AeAiAiAq@s@[u@OgAUw@EsDKmISaAOiAWiAk@uA{@cE}C{EmDeKqHaHcFwG}EsEeDsUuPoNiKaHkF}BmB{AcAqFcEoGyEuNiKwSgOmSiOgIaGwCeBoAaAiHgFiAg@yL{I}UcQaX{R}CyB`ByDf@cBL{@Bq@?mBI_AUwAAMWTy@L{@L?JFj@kAh@]@KKCQ@y@?g@rCg@r@KPHJh@Ip@EVCL@TCLY`ADb@JJLDhAHCp@]lB_BzDSf@m@rA[h@c@`@_CjAQHa@DaC?@dOBzJ?h@oA?{@?oD@iIBuC?eHBsD?cIDqHB{FB}AAAc@Ay@GaAc@_D]yA]kAcBaGeGbCoChAiBd@oATaBR}AJkBDoD?_HDkJ@qHFkJ@mDBsGBgCFuAAoCBuGAkPD_IDgTF_AIo@KcB?mNDo`@FgC?{CDwA?UI[QMIY[OYIQIYyAkEWe@]c@o@c@y@U}@@{@?WIgB?KEWAo@AaCC{@AcA@EBUNEDMNOb@wCX}CXK@KEC?Q?[AAAQCe@EWA[FKBeBZqATw@TgAB[?cA@kA@o@D_CJ}HDcIDyIFgGBoC@eAAmBD_HD_ID{BBsD@{FDu@CaAUgEaAs@Ci@?a@Bm@NoBh@sAVyBRwAF{ABqHBeA@mFDgEBmMHgQLqJBkUNwPLsJ@?K?Bm@@?QE@J?@V@hCB|GDnR?tD@|IBhX?bBBd@Hf@Vv@\\n@j@p@tAbBx@z@v@`AFRj@~@V|@Hl@B^@lA?r@@pAIpB@~@?rB@`AAtB@jDBtL?jOBtWBzO?~OBrDAjB@~E@jDAxCA|H?pA@vD@lDDlG?bBG??z@}@K@Y@a@"}, "summary": "", "warnings": ["Walking directions are in beta. Use caution \u2013 This route may be missing sidewalks or pedestrian paths."], "waypoint_order": []}], "status": "OK"}