{"geocoded_waypoints": [{"geocoder_status": "OK", "place_id": "ChIJ0dba7z6VQIYRSoe6T3uJ6lE", "types": ["establishment", "point_of_interest", "school"]}, {"geocoder_status": "OK", "place_id": "ChIJ9_tphxzHQIYRIMyPy_d3VZU", "types": ["establishment", "point_of_interest"]}], "routes": [{"bounds": {"northeast": {"lat": 29.8026484, "lng": -95.3483811}, "southwest": {"lat": 29.64974539999999, "lng": -95.4593211}}, "copyrights": "Map data \u00a92022 Google", "legs": [{"arrival_time": {"text": "4:49pm", "time_zone": "America/Chicago", "value": 1642027775}, "departure_time": {"text": "3:04pm", "time_zone": "America/Chicago", "value": 1642021488}, "distance": {"text": "18.9 mi", "value": 30378}, "duration": {"text": "1 hour 45 mins", "value": 6287}, "end_address": "4400 W 18th St, Houston, TX 77092, USA", "end_location": {"lat": 29.8019199, "lng": -95.45428179999999}, "start_address": "9601 Rosehaven Dr, Houston, TX 77051, USA", "start_location": {"lat": 29.6516447, "lng": -95.3759638}, "steps": [{"distance": {"text": "0.6 mi", "value": 966}, "duration": {"text": "12 mins", "value": 731}, "end_location": {"lat": 29.6497461, "lng": -95.368377}, "html_instructions": "Walk to Scott St @ Sunbeam St", "polyline": {"points": "wi~sDvbceQnCA?\\v@?tBAA{CAeDAq@@Q@S@O@MHk@DOBIF_@B[@Q@M?m@EkEAcEFS?SGOAgB?sAAwBAa@?K?K?MAEF?AO?S?O^?"}, "start_location": {"lat": 29.6516447, "lng": -95.3759638}, "steps": [{"distance": {"text": "262 ft", "value": 80}, "duration": {"text": "1 min", "value": 58}, "end_location": {"lat": 29.650925, "lng": -95.3759457}, "html_instructions": "Head <b>south</b> toward <b>Rosehaven Dr</b>", "polyline": {"points": "wi~sDvbceQnCA"}, "start_location": {"lat": 29.6516447, "lng": -95.3759638}, "travel_mode": "WALKING"}, {"distance": {"text": "62 ft", "value": 19}, "duration": {"text": "1 min", "value": 14}, "end_location": {"lat": 29.6509186, "lng": -95.3761028}, "html_instructions": "Turn <b>right</b> toward <b>Rosehaven Dr</b>", "maneuver": "turn-right", "polyline": {"points": "ge~sDtbceQ?\\"}, "start_location": {"lat": 29.650925, "lng": -95.3759457}, "travel_mode": "WALKING"}, {"distance": {"text": "318 ft", "value": 97}, "duration": {"text": "1 min", "value": 73}, "end_location": {"lat": 29.6500452, "lng": -95.3760889}, "html_instructions": "Turn <b>left</b> onto <b>Rosehaven Dr</b>", "maneuver": "turn-left", "polyline": {"points": "ge~sDrcceQv@?tBA"}, "start_location": {"lat": 29.6509186, "lng": -95.3761028}, "travel_mode": "WALKING"}, {"distance": {"text": "0.5 mi", "value": 748}, "duration": {"text": "9 mins", "value": 560}, "end_location": {"lat": 29.6499094, "lng": -95.3683808}, "html_instructions": "Turn <b>left</b> onto <b>Sunbeam St</b>", "maneuver": "turn-left", "polyline": {"points": "y_~sDpcceQA{CAeDAq@@Q@S@O@MHk@DOBIF_@B[@Q@M?m@EkEAcEFS?SGOAgB?sAAwBAa@?K?K?MAEF?AO?S?O"}, "start_location": {"lat": 29.6500452, "lng": -95.3760889}, "travel_mode": "WALKING"}, {"distance": {"text": "72 ft", "value": 22}, "duration": {"text": "1 min", "value": 26}, "end_location": {"lat": 29.6497461, "lng": -95.368377}, "html_instructions": "Turn <b>right</b> onto <b>Scott St</b>", "maneuver": "turn-right", "polyline": {"points": "}~}sDjsaeQ^?"}, "start_location": {"lat": 29.6499094, "lng": -95.3683808}, "travel_mode": "WALKING"}], "travel_mode": "WALKING"}, {"distance": {"text": "8.6 mi", "value": 13834}, "duration": {"text": "38 mins", "value": 2281}, "end_location": {"lat": 29.750211, "lng": -95.371095}, "html_instructions": "Bus towards Downtown TC", "polyline": {"points": "}}}sDjsaeQ?Fg@?iCBkCBu@@iB@M?eB@}@@K?q@@sA@]?{@@oB@kA@w@?e@?]AWAE?SAQCUE_@IUEiA[u@Ym@QWGIAW?Y?SASAk@AU?sC@k@?gB@wCBcCBU?uC@qDByBBS?m@@kA?{B?e@@mCB{B@U@mCBwB@U?oCB{@AIAi@GYG[GeBe@aCs@c@M_Bc@}Bq@kBe@YIcCKkFB{CB}A@uFDcFDQ?eF@[@k@C}@I[IaAS}@]]KEAAA}@Us@SC?a@Mc@MWIiA_@{@SoAMMAc@CUEa@Ge@O_Cu@g@Oc@K_AYq@S}@Yq@SSGo@Se@M[Kw@Ui@Qi@Og@OsBo@IE]IaA[_@KgA[q@Sk@O_A[wBq@WIaHsB_@KqA_@{@UQGWIk@Q]MaAY[KwAa@{Bs@QEoCw@yBq@QGoCy@yBm@WIoCy@eA]gAWi@Gm@C_@@k@BCq@IIEEICIEMCcA[aCs@Fg@Jy@OGGCIGEGAKAIBK@CDU@KR}@X}ADM@IBGBADCDCD?F@FBDBBD@B@F?B@DABoA~FKx@Gf@A?cAYi@Oi@OUIFrADnB@|@m@QmBk@gCs@SGcBg@C?{@WcAYiBi@oBi@_@K]KyAc@_@Mo@ScCs@gA]uAa@w@Uc@M_Be@oA[OGk@Qe@OWIKCg@O_@Ki@O{DiAcCu@OEwC{@cCw@OEQGcAYaA[qBm@e@OoA_@[Ic@MOGeBg@a@M]KqBk@a@Mw@SQGy@WWIc@Mm@Q_DaA}@W]Ka@M[K{Aa@{@WaBg@oA_@aCq@i@QqBi@w@Wk@Ok@QqBi@s@Uq@Mw@Q_@IQCSCUCQ?Q?c@AY?MAaA?W?O@Q?_A?qA?s@C]AUAUAYESGSGe@SSI[MQISIUGQGQCOE_@Ic@MUGSE[M]M_@M_@Mg@Ok@Qg@Ok@QEPAFCHCPELYvAETGTo@vCMn@y@~DGZKj@uAxGKb@u@rD[xAIZEVKb@u@pDm@xCGVm@nCI`@i@dA?@]n@CDa@x@eBhDU`@OZUb@k@hAm@lAw@zAqAfCGJMV{@bBi@dAc@v@e@`AMTOZeBfDe@z@]l@S`@OX?@CDU`@?BA?EHIPA@ABEHQ\\ABA??@S^CFCDADEF]r@Q\\]t@OXUd@qAfC{@dBINKPQ^_AfBS`@U`@m@nAc@|@S\\u@xAGLIL_@t@o@dAGLINQ^Ub@UOKG_As@SQk@a@YSk@c@m@c@{AgAYSYUQMs@g@YSq@g@WQ]Uk@c@k@a@IIe@]CAACOIAAEC]Wa@[w@i@w@m@c@z@aAlBi@`AU`@CDa@v@CDEJCDCFk@lAMXMRZTZVJFR]"}, "start_location": {"lat": 29.649746, "lng": -95.36838399999999}, "transit_details": {"arrival_stop": {"location": {"lat": 29.750211, "lng": -95.371095}, "name": "Downtown Transit Center"}, "arrival_time": {"text": "3:55pm", "time_zone": "America/Chicago", "value": 1642024500}, "departure_stop": {"location": {"lat": 29.649746, "lng": -95.36838399999999}, "name": "Scott St @ Sunbeam St"}, "departure_time": {"text": "3:16pm", "time_zone": "America/Chicago", "value": 1642022219}, "headsign": "Downtown TC", "line": {"agencies": [{"name": "Metropolitan Transit Authority of Harris County", "phone": "1 (713) 635-4000", "url": "http://www.ridemetro.org/"}], "color": "#004080", "name": "Scott", "short_name": "54", "text_color": "#ffffff", "url": "https://www.ridemetro.org/MetroPDFs/Schedules/BusSchedules/n054-Scott.pdf", "vehicle": {"icon": "//maps.gstatic.com/mapfiles/transit/iw2/6/bus2.png", "name": "Bus", "type": "BUS"}}, "num_stops": 59, "trip_short_name": "SCOTT"}, "travel_mode": "TRANSIT"}, {"distance": {"text": "358 ft", "value": 109}, "duration": {"text": "2 mins", "value": 92}, "end_location": {"lat": 29.7502155, "lng": -95.36995329999999}, "html_instructions": "Walk to St Joseph Pkwy @ Main St", "polyline": {"points": "yrqtDbabeQTe@FODIFMKI\\o@BEQKOZA?"}, "start_location": {"lat": 29.7503691, "lng": -95.3705803}, "steps": [{"distance": {"text": "253 ft", "value": 77}, "duration": {"text": "1 min", "value": 68}, "end_location": {"lat": 29.7500425, "lng": -95.3698711}, "html_instructions": "Head <b>southeast</b> on <b>St Joseph Pkwy</b> toward <b>Main St</b>", "polyline": {"points": "yrqtDbabeQTe@FODIFMKI\\o@BE"}, "start_location": {"lat": 29.7503691, "lng": -95.3705803}, "travel_mode": "WALKING"}, {"distance": {"text": "49 ft", "value": 15}, "duration": {"text": "1 min", "value": 11}, "end_location": {"lat": 29.7501304, "lng": -95.36981159999999}, "html_instructions": "Turn <b>left</b>", "maneuver": "turn-left", "polyline": {"points": "wpqtDt|aeQQK"}, "start_location": {"lat": 29.7500425, "lng": -95.3698711}, "travel_mode": "WALKING"}, {"distance": {"text": "56 ft", "value": 17}, "duration": {"text": "1 min", "value": 13}, "end_location": {"lat": 29.7502155, "lng": -95.36995329999999}, "html_instructions": "Turn <b>left</b><div style=\"font-size:0.9em\">Destination will be on the left</div>", "maneuver": "turn-left", "polyline": {"points": "iqqtDh|aeQOZA?"}, "start_location": {"lat": 29.7501304, "lng": -95.36981159999999}, "travel_mode": "WALKING"}], "travel_mode": "WALKING"}, {"distance": {"text": "9.2 mi", "value": 14731}, "duration": {"text": "36 mins", "value": 2148}, "end_location": {"lat": 29.801027, "lng": -95.45922999999999}, "html_instructions": "Bus towards Greenspoint TC", "polyline": {"points": "sqqtDn}aeQLJQZCDEJCDCFk@lAMXMRU`@]p@OXOVg@bA}@dBOXYh@wCuBu@i@a@[g@]UQ_@W]WwAeAEEuB}AWSwAeAy@m@gAy@g@_@KGWOi@c@[WIEg@_@_@W_CeBUOwAgA}@q@]Wm@c@e@]MISMmCsBGC{BcBQMCCi@_@QMUQkA{@aCiB[UqCqBAAqCqBa@v@k@dAINIJGHA@A@GJGDC@C@C@E?M?C?Q?M?ICIEAAEGC\\SdBGd@E^O`A?BM|@M|@EZOjAALGX?@?@CJALGl@?@A@?BAHAJAHShAETCJEPCHCLGVWdAKXQh@O`@GTGLS^IPS\\AB}@~AGFADABMv@EV?@OfAOnAEXAPGd@Gn@?XGrACb@Cr@Ev@ALEp@AVEv@ALGrAEt@G~@?BGdAATGlACj@ItACb@AT?TAFG`AATCb@GzAGtAMfCANGfA?DKtBAHMfCEbAANALCr@AVAr@Al@?d@CrAAx@Cx@?NCzBAJAz@Cv@GnAQvCEz@EbAM~B?HAp@C|@GjCCj@MtFGHAB?BALCb@Af@?R?TA`@A`@ARGt@AVGp@AXGz@KtBCZ?B?@@D?B@D@FGlACd@A`@GtACZA\\KfBG|@Ez@C`@C\\A`@El@El@Cb@CZCf@Cd@AREp@APIzACXANATALANAHC\\AZATC\\A`@IbBEp@ALCp@GfAG~@G~@Cj@AXCVAL?BCd@AL?NCl@Cd@El@Ab@Ev@ANMxCCXAXAXQtCCl@?z@@dA?|A@d@?~B@d@?N?zA?P?N@d@?b@?X?\\?^?X?N?j@?b@@`@?t@@j@?j@?N@`@?z@@dC?V@h@?RARAr@AJ?NAP?RCZAV?FCxA?XExACpAClACnAAj@CvAC|@?NA`@Ab@GxAAVIhAI|BEf@KnDEv@Cv@EpAGlACz@?DA`@APCvAAPCDABCHC`AAPAF@JC@A@A@A@A@A@?@CBc@FKDG@C?IBC@C@C@C@A@EBMLwAlAc@\\sAhA_Av@MJa@^sBbB_Av@QLq@h@IHKHOLw@p@w@n@]Z_@ZSPGFIFaAz@EBe@b@QRUVY\\q@~@s@`AOPGF?@o@v@?@CB}@hAQPKNYd@c@|@ILg@bAU`@IPA@S`@g@bAw@zAq@rA}AxCkA|Bc@v@IPYh@Uf@IP?`@?DCHI\\I`@I`@CVATARA^?\\Ar@?^@`@@@?b@?@@^@hB?f@?XCjA?D?XCXCZEVId@Ot@Ot@GVUfAAD{@`E?@Mj@?@K^[|AMn@Sx@On@I`@I^[xAGZMn@Mh@Kf@Qx@Qr@_@rBg@`DKl@Gd@CXMdA?BALGj@CXCVCXE`@IfAMzBE|AAr@AXC?Ar@CbDAjCCpF@l@@v@AzG~@@X?V?Z^?r@Ap@?bAAtA?R?d@?XEAw@B?u@@S?_@AcA@cA@w@@k@ZA^@DA`AAN??H?P?f@?j@?l@?d@JCF@D?DABA@CDIDSB[@g@BUBM@AN]FGJY@K?MCUCKCCA?OGQAGAE?E@GDQJOPMD[BY@W?aAAY@c@?AVAzAAb@?f@?L?ZAn@?`B?R?f@sBNO@Q@Y?W?K@wA@y@@K?u@?wA@U?O?}@@I?Y?_@?_@@oA@oD@eABM?A?a@?c@?qA@W?w@?cA@s@?c@@_@?uA@a@?OAY?q@@c@?_@?[@cA@a@?U?G?C?E?]@S?S@]@c@?}@@M?w@@]?mA@_B@W?E?e@Aa@EQEWG[OUM[QIG_@Ui@i@e@_@OQQQOMCCc@a@MR{A|BU\\W`@sBtCg@z@a@L{@vA]b@Sd@w@lAYh@OQ"}, "start_location": {"lat": 29.750178, "lng": -95.370002}, "transit_details": {"arrival_stop": {"location": {"lat": 29.801027, "lng": -95.45922999999999}, "name": "Hempstead Rd @ W 18th St"}, "arrival_time": {"text": "4:39pm", "time_zone": "America/Chicago", "value": 1642027188}, "departure_stop": {"location": {"lat": 29.750178, "lng": -95.370002}, "name": "St Joseph Pkwy @ Main St"}, "departure_time": {"text": "4:04pm", "time_zone": "America/Chicago", "value": 1642025040}, "headsign": "Greenspoint TC", "line": {"agencies": [{"name": "Metropolitan Transit Authority of Harris County", "phone": "1 (713) 635-4000", "url": "http://www.ridemetro.org/"}], "color": "#004080", "name": "Antoine / Washington", "short_name": "85", "text_color": "#ffffff", "url": "https://www.ridemetro.org/MetroPDFs/Schedules/BusSchedules/n085-Antoine-Washington.pdf", "vehicle": {"icon": "//maps.gstatic.com/mapfiles/transit/iw2/6/bus2.png", "name": "Bus", "type": "BUS"}}, "num_stops": 51, "trip_short_name": "ANTOINWAS"}, "travel_mode": "TRANSIT"}, {"distance": {"text": "0.5 mi", "value": 738}, "duration": {"text": "10 mins", "value": 587}, "end_location": {"lat": 29.8019199, "lng": -95.45428179999999}, "html_instructions": "Walk to 4400 W 18th St, Houston, TX 77092, USA", "polyline": {"points": "mo{tDdkseQKPKKKAK?I@IB?Q?aA?M?QAO?OM?M@M?mED@[Ae@?g@ASDKP]d@}@Xq@B]QOIIOMEKKAQUGGEIAE?C?A@C@EBEV_@KMNWHMJSRa@Ts@R}@Jy@Hy@?G@Q@a@"}, "start_location": {"lat": 29.8010254, "lng": -95.4592253}, "steps": [{"distance": {"text": "49 ft", "value": 15}, "duration": {"text": "1 min", "value": 11}, "end_location": {"lat": 29.8011512, "lng": -95.4592626}, "html_instructions": "Head <b>northwest</b>", "polyline": {"points": "mo{tDdkseQKPKK"}, "start_location": {"lat": 29.8010254, "lng": -95.4592253}, "travel_mode": "WALKING"}, {"distance": {"text": "102 ft", "value": 31}, "duration": {"text": "1 min", "value": 23}, "end_location": {"lat": 29.8013705, "lng": -95.4592806}, "html_instructions": "Turn <b>right</b> toward <b>W 18th St</b>", "maneuver": "turn-right", "polyline": {"points": "ep{tDjkseQKAK?I@IB"}, "start_location": {"lat": 29.8011512, "lng": -95.4592626}, "travel_mode": "WALKING"}, {"distance": {"text": "240 ft", "value": 73}, "duration": {"text": "1 min", "value": 61}, "end_location": {"lat": 29.8014508, "lng": -95.4585436}, "html_instructions": "Turn <b>right</b> onto <b>W 18th St</b>", "maneuver": "turn-right", "polyline": {"points": "qq{tDnkseQ?Q?aA?M?QAO?OM?"}, "start_location": {"lat": 29.8013705, "lng": -95.4592806}, "travel_mode": "WALKING"}, {"distance": {"text": "440 ft", "value": 134}, "duration": {"text": "2 mins", "value": 127}, "end_location": {"lat": 29.80261729999999, "lng": -95.45858140000001}, "html_instructions": "Turn <b>left</b> onto <b>Mangum Rd</b>", "maneuver": "turn-left", "polyline": {"points": "ar{tDzfseQM@M?mED"}, "start_location": {"lat": 29.8014508, "lng": -95.4585436}, "travel_mode": "WALKING"}, {"distance": {"text": "0.1 mi", "value": 168}, "duration": {"text": "2 mins", "value": 133}, "end_location": {"lat": 29.8021725, "lng": -95.45703209999999}, "html_instructions": "Turn <b>right</b>", "maneuver": "turn-right", "polyline": {"points": "ky{tDbgseQ@[Ae@?g@ASDKP]d@}@Xq@B]"}, "start_location": {"lat": 29.80261729999999, "lng": -95.45858140000001}, "travel_mode": "WALKING"}, {"distance": {"text": "348 ft", "value": 106}, "duration": {"text": "1 min", "value": 80}, "end_location": {"lat": 29.8024852, "lng": -95.4562641}, "html_instructions": "Turn <b>left</b><div style=\"font-size:0.9em\">Partial restricted usage road</div>", "maneuver": "turn-left", "polyline": {"points": "qv{tDl}reQQOIIOMEKKAQUGGEIAE?C?A@C@EBEV_@"}, "start_location": {"lat": 29.8021725, "lng": -95.45703209999999}, "travel_mode": "WALKING"}, {"distance": {"text": "33 ft", "value": 10}, "duration": {"text": "1 min", "value": 8}, "end_location": {"lat": 29.8025494, "lng": -95.456192}, "html_instructions": "Turn <b>left</b><div style=\"font-size:0.9em\">Restricted usage road</div>", "maneuver": "turn-left", "polyline": {"points": "qx{tDrxreQKM"}, "start_location": {"lat": 29.8024852, "lng": -95.4562641}, "travel_mode": "WALKING"}, {"distance": {"text": "0.1 mi", "value": 201}, "duration": {"text": "2 mins", "value": 144}, "end_location": {"lat": 29.8019199, "lng": -95.45428179999999}, "html_instructions": "Turn <b>right</b><div style=\"font-size:0.9em\">Restricted usage road</div><div style=\"font-size:0.9em\">Destination will be on the left</div>", "maneuver": "turn-right", "polyline": {"points": "}x{tDdxreQNWHMJSRa@Ts@R}@Jy@Hy@?G@Q@a@"}, "start_location": {"lat": 29.8025494, "lng": -95.456192}, "travel_mode": "WALKING"}], "travel_mode": "WALKING"}], "traffic_speed_entry": [], "via_waypoint": []}], "overview_polyline": {"points": "wi~sDvbceQnCA?\\lDACeKN}AHYJ{@B_@EyFAcEFS?SGOA{DCyCAk@F?AO?c@^??Fg@?uGF_DB}DByNHoAE}AYeEoAoAC_ACiD@oLHwMHiG@qVReACcAOaCm@eDaA}EuAeCo@cCKkFByFDyMJwF@[@k@C}@I[IaAS}@]c@M_AW}Bo@aBi@{@SoAMq@Ew@MqFaBgJqCqKcDeEkAqNkE_EiAcDcAmTsGgJoCgAWi@GmAAk@BCq@OOeBi@aCs@Fg@Jy@OGQKGS@UFYt@uDDQHEJCNDJL@ToA~FKx@If@mDcALbE@|@m@QuF_BwBo@mF{AgGeBmP_F_Bc@qAa@kBi@wTwG}LsD}LoDcLiD_TgG}FaB{Cm@mAGmCCyB@eCCs@Co@Gg@OgBu@mA]iBe@mBo@{C_Ak@QEPEPi@lC_C|KuBdKyEhUw@pDi@fAiDxGgHhNaItOaCrEoAbCgG|LcFzJ{ArCaBxCg@bAa@WyC{BiIcGsF_EyAgAoBwAeBhDeB`DQ^y@fBMRZTf@^R]_@gB\\u@LWKI\\o@BEQKQZTT_@r@kAbCcFrJcMaJuKeI{HwFiEaDuByAyJmH{JmHsCsBmA|B]f@UT[BU?WCKGEGC\\[jCU`Ba@zCYrBMlAEZ_@tBU`Ac@~Aa@jAm@tA{AhCWxAe@rDQfBGlBGvAOnCUnEk@rKKtBUjFy@pPIhBGzEI~FOnEk@vKMdGQ`HILG|AClBSrCYfF@NBLKrBOpDo@~Kc@`IS`De@rJ_@tGYjGUfFUbE@`CBhH?lC@vFD`IBzEEbBQnHWbNI|BK`BOdDQfFUrGGpCEVELEfBQP{@NUHiHbGcFfEyAjAcFhEgA~@w@v@o@t@eB`CgArAaAnA]`@}@bBqAdCuJfRcAtB?f@Mf@SbAEl@EdCFzGCdCGt@O|@}@jEkAtFmBzI_AnEoAhG_AnGWbCQlBWbEGpCAXC?EvEE|JBdBAzG~@@p@?Z^?r@AtBAhDEAw@B@iAAcBB{B@k@ZAd@?pAA?Z?fD^CDEJ]DcAFc@d@aA@YGa@ECOGQAMAMFa@\\MD[Bq@@{A?c@?AVC~BA`C?tB?f@sBNa@Bq@?iDDuHBeJHuA?sLF}B?cDBcA?kABqKH]?gAGi@Mq@]e@Y_@Ui@i@u@q@a@_@g@e@iBpCm@~@sBtCg@z@a@L{@vA]b@Sd@qAvBOQKPKKWASD?sAA_AwFFA}BVi@~@oBB]QOYWEKKAY]GU^o@KMNWTa@Ra@Ts@R}@TsB@Y@a@"}, "summary": "", "warnings": ["Walking directions are in beta. Use caution \u2013 This route may be missing sidewalks or pedestrian paths."], "waypoint_order": []}, {"bounds": {"northeast": {"lat": 29.803817, "lng": -95.3483811}, "southwest": {"lat": 29.64974539999999, "lng": -95.4599238}}, "copyrights": "Map data \u00a92022", "legs": [{"arrival_time": {"text": "4:51pm", "time_zone": "America/Chicago", "value": 1642027884}, "departure_time": {"text": "3:04pm", "time_zone": "America/Chicago", "value": 1642021488}, "distance": {"text": "19.5 mi", "value": 31451}, "duration": {"text": "1 hour 47 mins", "value": 6396}, "end_address": "4400 W 18th St, Houston, TX 77092, USA", "end_location": {"lat": 29.8019199, "lng": -95.45428179999999}, "start_address": "9601 Rosehaven Dr, Houston, TX 77051, USA", "start_location": {"lat": 29.6516447, "lng": -95.3759638}, "steps": [{"distance": {"text": "0.6 mi", "value": 966}, "duration": {"text": "12 mins", "value": 731}, "end_location": {"lat": 29.6497461, "lng": -95.368377}, "html_instructions": "Walk to Scott St @ Sunbeam St", "polyline": {"points": "wi~sDvbceQnCA?\\v@?tBAA{CAeDAq@@Q@S@O@MHk@DOBIF_@B[@Q@M?m@EkEAcEFS?SGOAgB?sAAwBAa@?K?K?MAEF?AO?S?O^?"}, "start_location": {"lat": 29.6516447, "lng": -95.3759638}, "steps": [{"distance": {"text": "262 ft", "value": 80}, "duration": {"text": "1 min", "value": 58}, "end_location": {"lat": 29.650925, "lng": -95.3759457}, "html_instructions": "Head <b>south</b> toward <b>Rosehaven Dr</b>", "polyline": {"points": "wi~sDvbceQnCA"}, "start_location": {"lat": 29.6516447, "lng": -95.3759638}, "travel_mode": "WALKING"}, {"distance": {"text": "62 ft", "value": 19}, "duration": {"text": "1 min", "value": 14}, "end_location": {"lat": 29.6509186, "lng": -95.3761028}, "html_instructions": "Turn <b>right</b> toward <b>Rosehaven Dr</b>", "maneuver": "turn-right", "polyline": {"points": "ge~sDtbceQ?\\"}, "start_location": {"lat": 29.650925, "lng": -95.3759457}, "travel_mode": "WALKING"}, {"distance": {"text": "318 ft", "value": 97}, "duration": {"text": "1 min", "value": 73}, "end_location": {"lat": 29.6500452, "lng": -95.3760889}, "html_instructions": "Turn <b>left</b> onto <b>Rosehaven Dr</b>", "maneuver": "turn-left", "polyline": {"points": "ge~sDrcceQv@?tBA"}, "start_location": {"lat": 29.6509186, "lng": -95.3761028}, "travel_mode": "WALKING"}, {"distance": {"text": "0.5 mi", "value": 748}, "duration": {"text": "9 mins", "value": 560}, "end_location": {"lat": 29.6499094, "lng": -95.3683808}, "html_instructions": "Turn <b>left</b> onto <b>Sunbeam St</b>", "maneuver": "turn-left", "polyline": {"points": "y_~sDpcceQA{CAeDAq@@Q@S@O@MHk@DOBIF_@B[@Q@M?m@EkEAcEFS?SGOAgB?sAAwBAa@?K?K?MAEF?AO?S?O"}, "start_location": {"lat": 29.6500452, "lng": -95.3760889}, "travel_mode": "WALKING"}, {"distance": {"text": "72 ft", "value": 22}, "duration": {"text": "1 min", "value": 26}, "end_location": {"lat": 29.6497461, "lng": -95.368377}, "html_instructions": "Turn <b>right</b> onto <b>Scott St</b>", "maneuver": "turn-right", "polyline": {"points": "}~}sDjsaeQ^?"}, "start_location": {"lat": 29.6499094, "lng": -95.3683808}, "travel_mode": "WALKING"}], "travel_mode": "WALKING"}, {"distance": {"text": "8.6 mi", "value": 13834}, "duration": {"text": "38 mins", "value": 2281}, "end_location": {"lat": 29.750211, "lng": -95.371095}, "html_instructions": "Bus towards Downtown TC", "polyline": {"points": "}}}sDjsaeQ?Fg@?iCBkCBu@@iB@M?eB@}@@K?q@@sA@]?{@@oB@kA@w@?e@?]AWAE?SAQCUE_@IUEiA[u@Ym@QWGIAW?Y?SASAk@AU?sC@k@?gB@wCBcCBU?uC@qDByBBS?m@@kA?{B?e@@mCB{B@U@mCBwB@U?oCB{@AIAi@GYG[GeBe@aCs@c@M_Bc@}Bq@kBe@YIcCKkFB{CB}A@uFDcFDQ?eF@[@k@C}@I[IaAS}@]]KEAAA}@Us@SC?a@Mc@MWIiA_@{@SoAMMAc@CUEa@Ge@O_Cu@g@Oc@K_AYq@S}@Yq@SSGo@Se@M[Kw@Ui@Qi@Og@OsBo@IE]IaA[_@KgA[q@Sk@O_A[wBq@WIaHsB_@KqA_@{@UQGWIk@Q]MaAY[KwAa@{Bs@QEoCw@yBq@QGoCy@yBm@WIoCy@eA]gAWi@Gm@C_@@k@BCq@IIEEICIEMCcA[aCs@Fg@Jy@OGGCIGEGAKAIBK@CDU@KR}@X}ADM@IBGBADCDCD?F@FBDBBD@B@F?B@DABoA~FKx@Gf@A?cAYi@Oi@OUIFrADnB@|@m@QmBk@gCs@SGcBg@C?{@WcAYiBi@oBi@_@K]KyAc@_@Mo@ScCs@gA]uAa@w@Uc@M_Be@oA[OGk@Qe@OWIKCg@O_@Ki@O{DiAcCu@OEwC{@cCw@OEQGcAYaA[qBm@e@OoA_@[Ic@MOGeBg@a@M]KqBk@a@Mw@SQGy@WWIc@Mm@Q_DaA}@W]Ka@M[K{Aa@{@WaBg@oA_@aCq@i@QqBi@w@Wk@Ok@QqBi@s@Uq@Mw@Q_@IQCSCUCQ?Q?c@AY?MAaA?W?O@Q?_A?qA?s@C]AUAUAYESGSGe@SSI[MQISIUGQGQCOE_@Ic@MUGSE[M]M_@M_@Mg@Ok@Qg@Ok@QEPAFCHCPELYvAETGTo@vCMn@y@~DGZKj@uAxGKb@u@rD[xAIZEVKb@u@pDm@xCGVm@nCI`@i@dA?@]n@CDa@x@eBhDU`@OZUb@k@hAm@lAw@zAqAfCGJMV{@bBi@dAc@v@e@`AMTOZeBfDe@z@]l@S`@OX?@CDU`@?BA?EHIPA@ABEHQ\\ABA??@S^CFCDADEF]r@Q\\]t@OXUd@qAfC{@dBINKPQ^_AfBS`@U`@m@nAc@|@S\\u@xAGLIL_@t@o@dAGLINQ^Ub@UOKG_As@SQk@a@YSk@c@m@c@{AgAYSYUQMs@g@YSq@g@WQ]Uk@c@k@a@IIe@]CAACOIAAEC]Wa@[w@i@w@m@c@z@aAlBi@`AU`@CDa@v@CDEJCDCFk@lAMXMRZTZVJFR]"}, "start_location": {"lat": 29.649746, "lng": -95.36838399999999}, "transit_details": {"arrival_stop": {"location": {"lat": 29.750211, "lng": -95.371095}, "name": "Downtown Transit Center"}, "arrival_time": {"text": "3:55pm", "time_zone": "America/Chicago", "value": 1642024500}, "departure_stop": {"location": {"lat": 29.649746, "lng": -95.36838399999999}, "name": "Scott St @ Sunbeam St"}, "departure_time": {"text": "3:16pm", "time_zone": "America/Chicago", "value": 1642022219}, "headsign": "Downtown TC", "line": {"agencies": [{"name": "Metropolitan Transit Authority of Harris County", "phone": "1 (713) 635-4000", "url": "http://www.ridemetro.org/"}], "color": "#004080", "name": "Scott", "short_name": "54", "text_color": "#ffffff", "url": "https://www.ridemetro.org/MetroPDFs/Schedules/BusSchedules/n054-Scott.pdf", "vehicle": {"icon": "//maps.gstatic.com/mapfiles/transit/iw2/6/bus2.png", "name": "Bus", "type": "BUS"}}, "num_stops": 59, "trip_short_name": "SCOTT"}, "travel_mode": "TRANSIT"}, {"distance": {"text": "8.0 mi", "value": 12890}, "duration": {"text": "20 mins", "value": 1200}, "end_location": {"lat": 29.7830001, "lng": -95.4561157}, "html_instructions": "Bus towards W Bellfort P&R", "polyline": {"points": "yqqtDjdbeQEFKIw@i@MRU`@]p@OXOVg@bA}@dBOXYh@wCuBu@i@a@[g@]UQ_@W]WwAeAEEuB}AWSwAeAy@m@gAy@g@_@KGWOi@c@[WIEg@_@_@W_CeBUOwAgA}@q@]Wm@c@e@]MISMmCsBGC{BcBQMCCi@_@QMUQkA{@aCiB[UqCqBAAqCqBa@v@k@dAINIJGHA@A@GJGDC@C@C@E?M?C?Q?M?ICIEAAEGC\\SdBGd@E^O`A?BM|@M|@E\\m@tEQC}Ck@iBKcBCaEu@aDm@gB[eB[wCMaA?mBPeC^c@LuCrAsIlEqAn@{A`AyAxAk@z@k@z@g@bAg@~@c@nAk@vBs@bDa@lBcB`I[`CU`CKpB?fBBrAP`BTfBjAfFnBhHt@dDz@pEt@zHDrANnBH|BF~B@lBKlB@dCFzG?n@NdRNfXBrEDtEB`DAfCAhCMtCCx@IfAa@pESxB_@fD_@fDQvBO|BMtBEdBElC?|D?|DPbf@DnFDzVDrO@xC_@|CS|B_@bEUrCMzCYb@gEhIgG|L]p@a@v@a@~@]|AOx@Gp@C`A@lA@bB?L@bADlCA|@C`@ALa@lDaAnE}@bEw@zDS|@aAnEo@~Ca@~@]fBm@`DIp@]hDMxAStCMjCGxBAr@CbDAjCCpF@l@@v@AzG~@@X?V?Z^?r@Ap@?bAAtA?R?d@?XEAw@B?u@@S?_@AcA@cA@w@@k@ZA^@DA`AAN??H?P?f@?j@?l@?d@GrA"}, "start_location": {"lat": 29.750211, "lng": -95.371095}, "transit_details": {"arrival_stop": {"location": {"lat": 29.7830001, "lng": -95.4561157}, "name": "Northwest Transit Center - North Platform"}, "arrival_time": {"text": "4:20pm", "time_zone": "America/Chicago", "value": 1642026000}, "departure_stop": {"location": {"lat": 29.750211, "lng": -95.371095}, "name": "Downtown Transit Center"}, "departure_time": {"text": "4:00pm", "time_zone": "America/Chicago", "value": 1642024800}, "headsign": "W Bellfort P&R", "line": {"agencies": [{"name": "Metropolitan Transit Authority of Harris County", "phone": "1 (713) 635-4000", "url": "http://www.ridemetro.org/"}], "color": "#004080", "name": "Wilcrest Express", "short_name": "161", "text_color": "#ffffff", "url": "https://www.ridemetro.org/MetroPDFs/Schedules/BusSchedules/n161-Wilcrest-Express.pdf", "vehicle": {"icon": "//maps.gstatic.com/mapfiles/transit/iw2/6/bus2.png", "name": "Bus", "type": "BUS"}}, "num_stops": 11, "trip_short_name": "WILCRESEXP"}, "travel_mode": "TRANSIT"}, {"distance": {"text": "2.0 mi", "value": 3143}, "duration": {"text": "9 mins", "value": 523}, "end_location": {"lat": 29.803817, "lng": -95.458625}, "html_instructions": "Bus towards Dacoma Shuttle", "polyline": {"points": "w~wtDvwreQRwAF@D?DABA@CDIDSB[@g@BUBM@AN]FGJY@K?MCUCKCCA?OGQAGAE?E@GDQJOPMD[BY@W?aAAY@c@?AVAzAAb@?f@?L?ZAn@?`B?R?f@sBNO@Q@Y?W?K@wA@y@@K?u@?wA@U?O?}@@I?Y?_@?_@@oA@oD@eABM?A?a@?c@?qA@W?w@?cA@s@?c@@_@?uA@a@?OAY?q@@c@?_@?[@cA@a@?U?G?C?E?]@S?S@]@c@?}@@M?w@@]?mA@_B@W?E?e@Aa@EQEWG[OUM[QIG_@Ui@i@e@_@OQQQOMCCc@a@MR{A|BU\\W`@sBtCg@z@a@L{@vA]b@Sd@w@lAYh@OVk@r@Yj@EsB?]@aAAU?a@[@uEDaA@gAD_A@e@??I"}, "start_location": {"lat": 29.7830001, "lng": -95.4561157}, "transit_details": {"arrival_stop": {"location": {"lat": 29.803817, "lng": -95.458625}, "name": "Mangum Rd @ W 20th St"}, "arrival_time": {"text": "4:43pm", "time_zone": "America/Chicago", "value": 1642027423}, "departure_stop": {"location": {"lat": 29.7830001, "lng": -95.4561157}, "name": "Northwest Transit Center - North Platform"}, "departure_time": {"text": "4:35pm", "time_zone": "America/Chicago", "value": 1642026900}, "headsign": "Dacoma Shuttle", "line": {"agencies": [{"name": "Metropolitan Transit Authority of Harris County", "phone": "1 (713) 635-4000", "url": "http://www.ridemetro.org/"}], "color": "#004080", "name": "Dacoma", "short_name": "89", "text_color": "#ffffff", "url": "https://www.ridemetro.org/MetroPDFs/Schedules/BusSchedules/n089-Dacoma.pdf", "vehicle": {"icon": "//maps.gstatic.com/mapfiles/transit/iw2/6/bus2.png", "name": "Bus", "type": "BUS"}}, "num_stops": 9, "trip_short_name": "DACOMA"}, "travel_mode": "TRANSIT"}, {"distance": {"text": "0.4 mi", "value": 618}, "duration": {"text": "8 mins", "value": 461}, "end_location": {"lat": 29.8019199, "lng": -95.45428179999999}, "html_instructions": "Walk to 4400 W 18th St, Houston, TX 77092, USA", "polyline": {"points": "{`|tDlgseQd@A~@AdACbAA@[Ae@?g@ASDKP]d@}@Xq@B]QOIIOMEKKAQUGGEIAE?C?A@C@EBEV_@KMNWHMJSRa@Ts@R}@Jy@Hy@?G@Q@a@"}, "start_location": {"lat": 29.8038169, "lng": -95.458628}, "steps": [{"distance": {"text": "436 ft", "value": 133}, "duration": {"text": "2 mins", "value": 96}, "end_location": {"lat": 29.80261729999999, "lng": -95.45858140000001}, "html_instructions": "Head <b>south</b> on <b>Mangum Rd</b>", "polyline": {"points": "{`|tDlgseQd@A~@AdACbAA"}, "start_location": {"lat": 29.8038169, "lng": -95.458628}, "travel_mode": "WALKING"}, {"distance": {"text": "0.1 mi", "value": 168}, "duration": {"text": "2 mins", "value": 133}, "end_location": {"lat": 29.8021725, "lng": -95.45703209999999}, "html_instructions": "Turn <b>left</b>", "maneuver": "turn-left", "polyline": {"points": "ky{tDbgseQ@[Ae@?g@ASDKP]d@}@Xq@B]"}, "start_location": {"lat": 29.80261729999999, "lng": -95.45858140000001}, "travel_mode": "WALKING"}, {"distance": {"text": "348 ft", "value": 106}, "duration": {"text": "1 min", "value": 80}, "end_location": {"lat": 29.8024852, "lng": -95.4562641}, "html_instructions": "Turn <b>left</b><div style=\"font-size:0.9em\">Partial restricted usage road</div>", "maneuver": "turn-left", "polyline": {"points": "qv{tDl}reQQOIIOMEKKAQUGGEIAE?C?A@C@EBEV_@"}, "start_location": {"lat": 29.8021725, "lng": -95.45703209999999}, "travel_mode": "WALKING"}, {"distance": {"text": "33 ft", "value": 10}, "duration": {"text": "1 min", "value": 8}, "end_location": {"lat": 29.8025494, "lng": -95.456192}, "html_instructions": "Turn <b>left</b><div style=\"font-size:0.9em\">Restricted usage road</div>", "maneuver": "turn-left", "polyline": {"points": "qx{tDrxreQKM"}, "start_location": {"lat": 29.8024852, "lng": -95.4562641}, "travel_mode": "WALKING"}, {"distance": {"text": "0.1 mi", "value": 201}, "duration": {"text": "2 mins", "value": 144}, "end_location": {"lat": 29.8019199, "lng": -95.45428179999999}, "html_instructions": "Turn <b>right</b><div style=\"font-size:0.9em\">Restricted usage road</div><div style=\"font-size:0.9em\">Destination will be on the left</div>", "maneuver": "turn-right", "polyline": {"points": "}x{tDdxreQNWHMJSRa@Ts@R}@Jy@Hy@?G@Q@a@"}, "start_location": {"lat": 29.8025494, "lng": -95.456192}, "travel_mode": "WALKING"}], "travel_mode": "WALKING"}], "traffic_speed_entry": [], "via_waypoint": []}], "overview_polyline": {"points": "wi~sDvbceQnCA?\\lDACeKN}AHYJ{@B_@EyFAcEFS?SGOA{DCyCAk@F?AO?c@^??Fg@?uGF_DB}DByNHoAE}AYeEoAoAC_ACiD@oLHwMHiG@qVReACcAOaCm@eDaA}EuAeCo@cCKkFByFDyMJwF@[@k@C}@I[IaAS}@]c@M_AW}Bo@aBi@{@SoAMq@Ew@MqFaBgJqCqKcDeEkAqNkE_EiAcDcAmTsGgJoCgAWi@GmAAk@BCq@OOeBi@aCs@Fg@Jy@OGQKGS@UFYt@uDDQHEJCNDJL@ToA~FKx@If@mDcALbE@|@m@QuF_BwBo@mF{AgGeBmP_F_Bc@qAa@kBi@wTwG}LsD}LoDcLiD_TgG}FaB{Cm@mAGmCCyB@eCCs@Co@Gg@OgBu@mA]iBe@mBo@{C_Ak@QEPEPi@lC_C|KuBdKyEhUw@pDi@fAiDxGgHhNaItOaCrEoAbCgG|LcFzJ{ArCaBxCg@bAa@WyC{BiIcGsF_EyAgAoBwAeBhDeB`DQ^y@fBMRZTf@^R]EFcAs@c@t@eBfDmA~BYh@wCuBwAeA}@o@{C{B{KgIgBqA}EmDwL_JwHuFqHsFqCqBa@v@u@tAUXOPGB[@_@?SIGIWbC]jCa@xCm@tEQC}Ck@iBKcBCaEu@iGiAeB[wCMaA?mBPeC^c@LuCrAsIlEqAn@{A`AyAxAk@z@k@z@g@bAg@~@c@nA_BzGeCnL[`CU`CKpB?fBBrAP`BTfBjAfFnBhHt@dDz@pEt@zHTbEP|F@lBKlBH`Lb@ps@HvJCpGQnEk@xGeB`Q]rFKrF?zJVrm@Jng@@xC_@|Cs@`IUrCMzCYb@gEhIeHnNcAvBm@vCKrBBpD@pABjEEn@a@lDaAnEuB~JuAlGo@~Ca@~@kAhGg@zEa@nFUdGEvEE|JBdBAzG~@@p@?Z^?r@AtBAhDEAw@B@iAAcBB{B@k@ZAd@?pAA?Z?fDGrARwAL@HCFMHo@D}@DOVe@Le@Cc@GOQGYCK@YPOPMDu@DyAA}@@CrBAtBAlEoDReJFqLF}HD{DBaD?uGDoEFqDBcD?s@Ks@W{A}@qBmBSQc@a@MRqBzCkCvDg@z@a@L{@vA]b@Sd@w@lAi@`Ak@r@Yj@EqC?wA?a@[@wGFgCFe@??Id@?dCEbAA@[AmAB_@v@{AXq@B][YUYKAQUMQ?ODKV_@KMXe@^u@Ts@^wBHaABs@"}, "summary": "", "warnings": ["Walking directions are in beta. Use caution \u2013 This route may be missing sidewalks or pedestrian paths."], "waypoint_order": []}, {"bounds": {"northeast": {"lat": 29.8041289, "lng": -95.3263393}, "southwest": {"lat": 29.64974539999999, "lng": -95.45463819999999}}, "copyrights": "Map data \u00a92022 Google", "legs": [{"arrival_time": {"text": "5:04pm", "time_zone": "America/Chicago", "value": 1642028697}, "departure_time": {"text": "3:04pm", "time_zone": "America/Chicago", "value": 1642021488}, "distance": {"text": "19.9 mi", "value": 31953}, "duration": {"text": "2 hours 0 mins", "value": 7209}, "end_address": "4400 W 18th St, Houston, TX 77092, USA", "end_location": {"lat": 29.8019199, "lng": -95.45428179999999}, "start_address": "9601 Rosehaven Dr, Houston, TX 77051, USA", "start_location": {"lat": 29.6516447, "lng": -95.3759638}, "steps": [{"distance": {"text": "0.6 mi", "value": 966}, "duration": {"text": "12 mins", "value": 731}, "end_location": {"lat": 29.6497461, "lng": -95.368377}, "html_instructions": "Walk to Scott St @ Sunbeam St", "polyline": {"points": "wi~sDvbceQnCA?\\v@?tBAA{CAeDAq@@Q@S@O@MHk@DOBIF_@B[@Q@M?m@EkEAcEFS?SGOAgB?sAAwBAa@?K?K?MAEF?AO?S?O^?"}, "start_location": {"lat": 29.6516447, "lng": -95.3759638}, "steps": [{"distance": {"text": "262 ft", "value": 80}, "duration": {"text": "1 min", "value": 58}, "end_location": {"lat": 29.650925, "lng": -95.3759457}, "html_instructions": "Head <b>south</b> toward <b>Rosehaven Dr</b>", "polyline": {"points": "wi~sDvbceQnCA"}, "start_location": {"lat": 29.6516447, "lng": -95.3759638}, "travel_mode": "WALKING"}, {"distance": {"text": "62 ft", "value": 19}, "duration": {"text": "1 min", "value": 14}, "end_location": {"lat": 29.6509186, "lng": -95.3761028}, "html_instructions": "Turn <b>right</b> toward <b>Rosehaven Dr</b>", "maneuver": "turn-right", "polyline": {"points": "ge~sDtbceQ?\\"}, "start_location": {"lat": 29.650925, "lng": -95.3759457}, "travel_mode": "WALKING"}, {"distance": {"text": "318 ft", "value": 97}, "duration": {"text": "1 min", "value": 73}, "end_location": {"lat": 29.6500452, "lng": -95.3760889}, "html_instructions": "Turn <b>left</b> onto <b>Rosehaven Dr</b>", "maneuver": "turn-left", "polyline": {"points": "ge~sDrcceQv@?tBA"}, "start_location": {"lat": 29.6509186, "lng": -95.3761028}, "travel_mode": "WALKING"}, {"distance": {"text": "0.5 mi", "value": 748}, "duration": {"text": "9 mins", "value": 560}, "end_location": {"lat": 29.6499094, "lng": -95.3683808}, "html_instructions": "Turn <b>left</b> onto <b>Sunbeam St</b>", "maneuver": "turn-left", "polyline": {"points": "y_~sDpcceQA{CAeDAq@@Q@S@O@MHk@DOBIF_@B[@Q@M?m@EkEAcEFS?SGOAgB?sAAwBAa@?K?K?MAEF?AO?S?O"}, "start_location": {"lat": 29.6500452, "lng": -95.3760889}, "travel_mode": "WALKING"}, {"distance": {"text": "72 ft", "value": 22}, "duration": {"text": "1 min", "value": 26}, "end_location": {"lat": 29.6497461, "lng": -95.368377}, "html_instructions": "Turn <b>right</b> onto <b>Scott St</b>", "maneuver": "turn-right", "polyline": {"points": "}~}sDjsaeQ^?"}, "start_location": {"lat": 29.6499094, "lng": -95.3683808}, "travel_mode": "WALKING"}], "travel_mode": "WALKING"}, {"distance": {"text": "6.2 mi", "value": 9978}, "duration": {"text": "26 mins", "value": 1582}, "end_location": {"lat": 29.731119, "lng": -95.348985}, "html_instructions": "Bus towards Downtown TC", "polyline": {"points": "}}}sDjsaeQ?Fg@?iCBkCBu@@iB@M?eB@}@@K?q@@sA@]?{@@oB@kA@w@?e@?]AWAE?SAQCUE_@IUEiA[u@Ym@QWGIAW?Y?SASAk@AU?sC@k@?gB@wCBcCBU?uC@qDByBBS?m@@kA?{B?e@@mCB{B@U@mCBwB@U?oCB{@AIAi@GYG[GeBe@aCs@c@M_Bc@}Bq@kBe@YIcCKkFB{CB}A@uFDcFDQ?eF@[@k@C}@I[IaAS}@]]KEAAA}@Us@SC?a@Mc@MWIiA_@{@SoAMMAc@CUEa@Ge@O_Cu@g@Oc@K_AYq@S}@Yq@SSGo@Se@M[Kw@Ui@Qi@Og@OsBo@IE]IaA[_@KgA[q@Sk@O_A[wBq@WIaHsB_@KqA_@{@UQGWIk@Q]MaAY[KwAa@{Bs@QEoCw@yBq@QGoCy@yBm@WIoCy@eA]gAWi@Gm@C_@@k@BCq@IIEEICIEMCcA[aCs@Fg@Jy@OGGCIGEGAKAIBK@CDU@KR}@X}ADM@IBGBADCDCD?F@FBDBBD@B@F?B@DABoA~FKx@Gf@A?cAYi@Oi@OUIFrADnB@|@m@QmBk@gCs@SGcBg@C?{@WcAYiBi@oBi@_@K]KyAc@_@Mo@ScCs@gA]uAa@w@Uc@M_Be@oA[OGk@Qe@OWIKCg@O_@Ki@O{DiAcCu@OEwC{@cCw@OEQGcAYaA[qBm@e@OoA_@[Ic@MOGeBg@a@M]KqBk@a@Mw@SQGy@WWIc@Mm@Q_DaA}@W]Ka@M[K{Aa@{@WaBg@oA_@aCq@i@QqBi@w@Wk@Ok@QqBi@s@Uq@Mw@Q_@IQCSCUCQ?Q?c@AY?MAaA?W?O@Q?_A?qA?s@C]AUAUAYESGSGe@SSI[MQISIUGQGQCOE_@Ic@MUG@I"}, "start_location": {"lat": 29.649746, "lng": -95.36838399999999}, "transit_details": {"arrival_stop": {"location": {"lat": 29.731119, "lng": -95.348985}, "name": "Scott St @ Drew St"}, "arrival_time": {"text": "3:43pm", "time_zone": "America/Chicago", "value": 1642023801}, "departure_stop": {"location": {"lat": 29.649746, "lng": -95.36838399999999}, "name": "Scott St @ Sunbeam St"}, "departure_time": {"text": "3:16pm", "time_zone": "America/Chicago", "value": 1642022219}, "headsign": "Downtown TC", "line": {"agencies": [{"name": "Metropolitan Transit Authority of Harris County", "phone": "1 (713) 635-4000", "url": "http://www.ridemetro.org/"}], "color": "#004080", "name": "Scott", "short_name": "54", "text_color": "#ffffff", "url": "https://www.ridemetro.org/MetroPDFs/Schedules/BusSchedules/n054-Scott.pdf", "vehicle": {"icon": "//maps.gstatic.com/mapfiles/transit/iw2/6/bus2.png", "name": "Bus", "type": "BUS"}}, "num_stops": 43, "trip_short_name": "SCOTT"}, "travel_mode": "TRANSIT"}, {"distance": {"text": "5.3 mi", "value": 8480}, "duration": {"text": "24 mins", "value": 1452}, "end_location": {"lat": 29.800744, "lng": -95.32811699999999}, "html_instructions": "Bus towards Northline TC", "polyline": {"points": "ozmtDbz}dQAHSE[M]M_@M_@Mg@Ok@Qg@Ok@QkA]YIcBg@cA[KEi@Om@QUISGOE[O[MICCACAA?_@OA?A?QG?AA?MECAA?KEMEEA?AA?KEGCGAOGMAMAOCSAMAMCMAMESGy@YyAg@{@Ya@Oa@Qg@SYKUIe@MoA_@[KgBg@_@Kq@Sk@Q]IWEIAEAWC[AcBK]C_@A_@CSASGWIMISMECOMeAw@kA{@{BcBYS]W{@o@EEECa@[ECEEUO_CaB_@Yy@o@KGOMSOGG}CwBgA{@e@]IGSMEEKGGEw@m@IGgAw@_CcBUOwBaB]W{BcBOKQMoCsB}AiAYSyBaBe@[yAgAwB}AoA}@e@]]WSOWUa@o@OYGMEIEOGUIUE[GYE]Gc@EWKI?AEUCGAEACCCECCCGMP_@@CEYEWMa@Qe@S_@W_@QSIKYSo@g@_@U]Wu@k@m@a@ECwAgAm@c@UOc@[}@k@w@m@SOKI[W]WMKMKGGQMCCSQEG[YIIe@a@IGc@]]UOKi@Y_A]CC_AYgAS{@Ma@GA?oAEeAAgA@c@@oDBQ?aBBg@?m@?gA?W?U?UAKAG?AAYAm@GuAU_@IOCsAc@g@Q}Ak@mAYw@KyBUOAkDAiAAg@As@AkABU?i@?Q?y@?A?e@?G?c@?OAO?aA?wABQ?_@?]?WAI?W?u@?]?aB@_AA_@?sBHY@qCPmBFY?uA?K@i@?kC?sABY@Q@e@Bi@Fm@FYFkBb@a@HK@WDQBQ@M@Y@m@DS@c@@M@S@U@U@U?A?a@@G?[?c@@}@?c@?c@@gA?c@@c@?kB@qAJYBsDJwABG?G?u@?{@@cCBE?k@?]@m@?uBB}@@k@@a@@O@y@DSBG@k@Da@FS@o@DW@S@]@c@?iA@c@?g@?Q?cD?uADu@?W?eD?sA@c@?q@?[@]Da@BWDWDw@Rk@L_@Hu@LI@M@e@@w@@cA@cA?oA@_@@mA??K"}, "start_location": {"lat": 29.731119, "lng": -95.348985}, "transit_details": {"arrival_stop": {"location": {"lat": 29.800744, "lng": -95.32811699999999}, "name": "Hirsch Rd @ Cavalcade St"}, "arrival_time": {"text": "4:15pm", "time_zone": "America/Chicago", "value": 1642025741}, "departure_stop": {"location": {"lat": 29.731119, "lng": -95.348985}, "name": "Scott St @ Drew St"}, "departure_time": {"text": "3:51pm", "time_zone": "America/Chicago", "value": 1642024289}, "headsign": "Northline TC", "line": {"agencies": [{"name": "Metropolitan Transit Authority of Harris County", "phone": "1 (713) 635-4000", "url": "http://www.ridemetro.org/"}], "color": "#004080", "name": "Cullen / Hirsch", "short_name": "29", "text_color": "#ffffff", "url": "https://www.ridemetro.org/MetroPDFs/Schedules/BusSchedules/n029-Cullen-Hirsch.pdf", "vehicle": {"icon": "//maps.gstatic.com/mapfiles/transit/iw2/6/bus2.png", "name": "Bus", "type": "BUS"}}, "num_stops": 31, "trip_short_name": "CULLENHIRS"}, "travel_mode": "TRANSIT"}, {"distance": {"text": "292 ft", "value": 89}, "duration": {"text": "1 min", "value": 85}, "end_location": {"lat": 29.8005867, "lng": -95.32834079999999}, "html_instructions": "Walk to Hirsch Rd @ Cavalcade St", "polyline": {"points": "sm{tDzwydQfA??N?F@Nk@?"}, "start_location": {"lat": 29.8007437, "lng": -95.32814309999999}, "steps": [{"distance": {"text": "144 ft", "value": 44}, "duration": {"text": "1 min", "value": 32}, "end_location": {"lat": 29.8003809, "lng": -95.3282201}, "html_instructions": "Head <b>south</b> on <b>Hirsch Rd</b> toward <b>Cavalcade St</b>", "polyline": {"points": "sm{tDzwydQfA??N"}, "start_location": {"lat": 29.8007437, "lng": -95.32814309999999}, "travel_mode": "WALKING"}, {"distance": {"text": "36 ft", "value": 11}, "duration": {"text": "1 min", "value": 18}, "end_location": {"lat": 29.8003734, "lng": -95.328338}, "html_instructions": "Turn <b>right</b> onto <b>Cavalcade St</b>", "maneuver": "turn-right", "polyline": {"points": "kk{tDjxydQ?F@N"}, "start_location": {"lat": 29.8003809, "lng": -95.3282201}, "travel_mode": "WALKING"}, {"distance": {"text": "98 ft", "value": 30}, "duration": {"text": "1 min", "value": 32}, "end_location": {"lat": 29.8005867, "lng": -95.32834079999999}, "html_instructions": "Turn <b>right</b> onto <b>Hirsch Rd</b>", "maneuver": "turn-right", "polyline": {"points": "ik{tDbyydQk@?"}, "start_location": {"lat": 29.8003734, "lng": -95.328338}, "travel_mode": "WALKING"}, {"distance": {"text": "13 ft", "value": 4}, "duration": {"text": "1 min", "value": 3}, "end_location": {"lat": 29.8005867, "lng": -95.32834079999999}, "html_instructions": "Turn <b>left</b><div style=\"font-size:0.9em\">Destination will be on the right</div>", "maneuver": "turn-left", "polyline": {"points": "ul{tDbyydQ"}, "start_location": {"lat": 29.8005867, "lng": -95.32834079999999}, "travel_mode": "WALKING"}], "travel_mode": "WALKING"}, {"distance": {"text": "7.7 mi", "value": 12342}, "duration": {"text": "30 mins", "value": 1772}, "end_location": {"lat": 29.80163, "lng": -95.454342}, "html_instructions": "Bus towards Memorial City", "polyline": {"points": "yl{tDdyydQ?It@??n@?j@@bD?p@@hA?X?x@DvCFpD?rA@zBGvAEpAGjBARC\\K`AEb@]fBKb@EPGVYdAUdAMx@W|AOjAMx@EZGd@WbBKj@Ib@EVAFIf@ADKn@Kz@In@K|@SdBK|@Gb@K~@AHW|Bc@jEo@fFWlBK|@EVSbBQpAGr@Mp@Eb@CNOrAKdBCf@?HAx@?xB@d@@j@?pA@nA?X@dB?T@fAB~D@bD@ZBbEBzB@fAGrAAXGvA@vD@xC@^@tD@x@?V?v@?l@?\\BpD@nB?fA@jA?tA?T?\\?lA@nA?tA@dA?Z@bA?pB@vDAlBAV?LANAT?RAXCR?@CXQ|@Kf@Sz@ENOr@CRE\\Cb@KfCARCpAAv@AXCf@?DAT?LAHCfAAd@?D?lB?h@?VBjC?lB?x@@z@@fB?fD@fDE`BA|@?HA\\@V?lA@L?\\?x@?V@j@@t@?L?JB`@@T@NBN@N@V?f@@f@?`A?r@?L?xBAP?JALAPANIbAEb@?TAR?V?fH?p@@vD@xAC^C^CRA@ETC\\Af@?P?P?LA`@@\\BpA?^@j@?H@tA?n@?b@@b@?X?P?V@`A?v@@dA?V?vA@T?lB@jB@tA?XB|E?~A@zB@nB?V?V@t@?L?R?L@R?N?f@?h@@|@?\\?d@?b@@n@?pA@|B?d@?`@@t@?T?pA@v@@rA?v@@bD@~@?nA@H?tB@^@dC?P?j@@x@?x@?t@@P?dA@|A?\\?^@dC@zB?xA?N@V?fA@`ABfE?tABtJ?pB@rA?r@?H?|@?jB?@?j@@h@AL?\\?J@f@?|B?h@?|@?n@?N?|G?J@tE?d@@dC?p@AL@J?V@P@H?B?D@F@HBH@JDPDLDLDHDJDJHLFHFHLL?@TVTVn@v@NRh@h@NPVX^f@BJBFBFf@v@P`@DZDVBT@F?D@F?H?P@P?X?N?F?j@@pAIpB@f@?V?fA?j@?V@h@AjA?h@@~@?b@@^Af@@d@?X?bA?jA?b@@nC?J?d@Aj@?v@?P@dB?jA?bC?`A?\\@dH?`D?dC@fE?jD?T@`F@vB?jD?vC?X?`E@V@zCAb@?fAAX@fB@fA?T@|B?l@A~A?x@?XAzB?`A?dB?l@?P?F?H@^?Z?@?H?@?Z?h@?f@?j@?^?t@@j@BnAAV@|@@fB?bBG?"}, "start_location": {"lat": 29.800614, "lng": -95.32835}, "transit_details": {"arrival_stop": {"location": {"lat": 29.80163, "lng": -95.454342}, "name": "W 18th St @ Northwest Fwy"}, "arrival_time": {"text": "5:03pm", "time_zone": "America/Chicago", "value": 1642028620}, "departure_stop": {"location": {"lat": 29.800614, "lng": -95.32835}, "name": "Hirsch Rd @ Cavalcade St"}, "departure_time": {"text": "4:34pm", "time_zone": "America/Chicago", "value": 1642026848}, "headsign": "Memorial City", "line": {"agencies": [{"name": "Metropolitan Transit Authority of Harris County", "phone": "1 (713) 635-4000", "url": "http://www.ridemetro.org/"}], "color": "#004080", "name": "Long Point / Cavalcade", "short_name": "26", "text_color": "#ffffff", "url": "https://www.ridemetro.org/MetroPDFs/Schedules/BusSchedules/n026-Long-Point-Cavalcade.pdf", "vehicle": {"icon": "//maps.gstatic.com/mapfiles/transit/iw2/6/bus2.png", "name": "Bus", "type": "BUS"}}, "num_stops": 46, "trip_short_name": "LONGPOINT"}, "travel_mode": "TRANSIT"}, {"distance": {"text": "322 ft", "value": 98}, "duration": {"text": "1 min", "value": 77}, "end_location": {"lat": 29.8019199, "lng": -95.45428179999999}, "html_instructions": "Walk to 4400 W 18th St, Houston, TX 77092, USA", "polyline": {"points": "es{tDrlreQ?z@YEc@E?G@Q@a@"}, "start_location": {"lat": 29.8016264, "lng": -95.454342}, "steps": [{"distance": {"text": "95 ft", "value": 29}, "duration": {"text": "1 min", "value": 22}, "end_location": {"lat": 29.8016252, "lng": -95.45463819999999}, "html_instructions": "Head <b>west</b> on <b>W 18th St</b>/<wbr/><b>NW Mall</b>", "polyline": {"points": "es{tDrlreQ?z@"}, "start_location": {"lat": 29.8016264, "lng": -95.454342}, "travel_mode": "WALKING"}, {"distance": {"text": "131 ft", "value": 40}, "duration": {"text": "1 min", "value": 33}, "end_location": {"lat": 29.8019405, "lng": -95.4545788}, "html_instructions": "Turn <b>right</b><div style=\"font-size:0.9em\">Restricted usage road</div>", "maneuver": "turn-right", "polyline": {"points": "es{tDnnreQYEc@E"}, "start_location": {"lat": 29.8016252, "lng": -95.45463819999999}, "travel_mode": "WALKING"}, {"distance": {"text": "95 ft", "value": 29}, "duration": {"text": "1 min", "value": 22}, "end_location": {"lat": 29.8019199, "lng": -95.45428179999999}, "html_instructions": "Turn <b>right</b><div style=\"font-size:0.9em\">Restricted usage road</div><div style=\"font-size:0.9em\">Destination will be on the left</div>", "maneuver": "turn-right", "polyline": {"points": "cu{tDbnreQ?G@Q@a@"}, "start_location": {"lat": 29.8019405, "lng": -95.4545788}, "travel_mode": "WALKING"}], "travel_mode": "WALKING"}], "traffic_speed_entry": [], "via_waypoint": []}], "overview_polyline": {"points": "wi~sDvbceQnCA?\\lDACeKN}AHYJ{@B_@EyFAcEFS?SGOA{DCyCAk@F?AO?c@^??Fg@?uGF_DB}DByNHoAE}AYeEoAoAC_ACiD@oLHwMHiG@qVReACcAOaCm@eDaA}EuAeCo@cCKkFByFDyMJwF@[@k@C}@I[IaAS}@]c@M_AW}Bo@aBi@{@SoAMq@Ew@MqFaBgJqCqKcDeEkAqNkE_EiAcDcAmTsGgJoCgAWi@GmAAk@BCq@OOeBi@aCs@Fg@Jy@OGQKGS@UFYt@uDDQHEJCNDJL@ToA~FKx@If@mDcALbE@|@m@QuF_BwBo@mF{AgGeBmP_F_Bc@qAa@kBi@wTwG}LsD}LoDcLiD_TgG}FaB{Cm@mAGmCCyB@eCCs@Co@Gg@OgBu@mA]iBe@@IAHo@SeCy@mK_DyBq@{Ak@u@W_Bk@e@K_AI}@SqFkByB{@yFaB{C{@_AM}DSs@Ek@Qa@WUQgHkFiDgCoLqI}EqDgFsDaHiFkScOgDcCWUa@o@Wg@]eA[wBEWKI?AMg@UYRc@Kq@Ma@e@eAi@s@c@_@oA}@sAcAyDqCoDeC{@q@qBcBuAmAaAs@y@e@cAa@_AYgAS}AUqAEmC?sEDiEBkCAo@EcC]o@M{Bu@}Ak@mAYqDa@{DCqBC_C@kC?g@?wG@wAAuF?sCHkDRiFHuD?mBDoCTsDv@iALmERcFBsDBkB@qAJmEN}CBqFD_GFwCJiBRoBJoDBy@?yFDgI@uA?y@Fy@HoAXkAV_ANoDFaGB?K?BfA??N@Vo@@?It@??n@@nE@zB?rALhI@nEMhDI~BO~AEb@]fBQt@a@|Ac@~B{@~FgA`Hc@`Ds@dGiArKyAjL{@zGIr@OrAKdBCp@ArDDrFN`XDbEIlBGvA@vDBxDB~HDlJBpOBvG?dHAd@ErAYlBu@fDIp@OjDIvDEpAG|BBzHBjI@nIG~C?lC@|BBzBFfAFv@@dEAdDOrBEx@Aj@BjRG~@ETIr@Ax@?~ADfDDrIFrPLl[Lt^Lv]HdTDdX@|IBhX?bBBd@Hf@Vv@\\n@j@p@tAbBx@z@v@`AFRj@~@V|@Hl@B^@lA?r@@pAIpB@~@?rB@`AAtB@jDBtL?jOBtWBzO?~OBrDAjB@~E@jDAxCA|H?pA@vD@lDDlG?bBG??z@}@K@Y@a@"}, "summary": "", "warnings": ["Walking directions are in beta. Use caution \u2013 This route may be missing sidewalks or pedestrian paths."], "waypoint_order": []}, {"bounds": {"northeast": {"lat": 29.803869, "lng": -95.3256973}, "southwest": {"lat": 29.6512633, "lng": -95.45463819999999}}, "copyrights": "Map data \u00a92022", "legs": [{"arrival_time": {"text": "5:19pm", "time_zone": "America/Chicago", "value": 1642029597}, "departure_time": {"text": "3:26pm", "time_zone": "America/Chicago", "value": 1642022808}, "distance": {"text": "22.7 mi", "value": 36487}, "duration": {"text": "1 hour 53 mins", "value": 6789}, "end_address": "4400 W 18th St, Houston, TX 77092, USA", "end_location": {"lat": 29.8019199, "lng": -95.45428179999999}, "start_address": "9601 Rosehaven Dr, Houston, TX 77051, USA", "start_location": {"lat": 29.6516447, "lng": -95.3759638}, "steps": [{"distance": {"text": "203 ft", "value": 62}, "duration": {"text": "1 min", "value": 44}, "end_location": {"lat": 29.6512638, "lng": -95.3761083}, "html_instructions": "Walk to Rosehaven Dr @ Reynolds Elem", "polyline": {"points": "wi~sDvbceQA\\lA?"}, "start_location": {"lat": 29.6516447, "lng": -95.3759638}, "steps": [{"distance": {"text": "62 ft", "value": 19}, "duration": {"text": "1 min", "value": 13}, "end_location": {"lat": 29.6516463, "lng": -95.37611439999999}, "html_instructions": "Head <b>west</b> toward <b>Rosehaven Dr</b>", "polyline": {"points": "wi~sDvbceQA\\"}, "start_location": {"lat": 29.6516447, "lng": -95.3759638}, "travel_mode": "WALKING"}, {"distance": {"text": "141 ft", "value": 43}, "duration": {"text": "1 min", "value": 31}, "end_location": {"lat": 29.6512638, "lng": -95.3761083}, "html_instructions": "Turn <b>left</b> onto <b>Rosehaven Dr</b>", "maneuver": "turn-left", "polyline": {"points": "yi~sDtcceQlA?"}, "start_location": {"lat": 29.6516463, "lng": -95.37611439999999}, "travel_mode": "WALKING"}], "travel_mode": "WALKING"}, {"distance": {"text": "12.0 mi", "value": 19233}, "duration": {"text": "44 mins", "value": 2667}, "end_location": {"lat": 29.704328, "lng": -95.40361999999999}, "html_instructions": "Bus towards TMC TC", "polyline": {"points": "kg~sDpcceQ?JmA@m@?Y?g@@yEDW?wIFI?sBB{EBI?eEDY?GkEA_DCiDA}AAaAAeA@o@?s@CsEC{B?q@?m@CwBAkBAuA?E?Y@]CoECgE?aB?a@A{@?mA?W?y@AcBCuD?_A?kA?g@C{C?{CA}CAcA?uA?WAkC?k@AmEAyAAiBA]?U?c@?g@?qCCaE?_AAaA@oA?uAAyB?e@CsEAsCAeAAuFAkC?e@A{B?AAqC?yCAS?o@AiD?cACuHA{F?gBAuCAsCA}ACkB?K?C?_A?q@?g@?s@?s@?o@?e@@a@DmA?O?AEIDw@?kAE_H?[CqDC{BGqK?UAaA{@Ac@CS?k@Cy@A_BAuCBmAB_@?O?[?U@sB?Y?uCBqCD{C@yA@_A@}ABS?g@@m@BuB@}@@uBBM?y@?U?}CCkCIQ?_DGmEEO?aBBuB?qA?uA@M?{@@k@?y@@kCB[?mDBuDBK?aBB_A@mD@oCBO?mDDkDBA?iD?{@D[DSFSJOHWRIF{BpCo@l@UNKFQHk@NeCv@UFyCz@mCx@MDsCt@qAb@ODSJy@uBEIo@aBcAyCgA{Ci@sAi@}A[_AWy@c@{Am@mBaAgDOYiATC?E@C@e@HC@C@A?gATuDt@kAVI@aATiATqAXWFERWvACPCDGXS|@GXAFEVG\\Mp@CNEREVYvAABMj@Kf@Mf@Ml@GXCD_@rA_@|ACJQz@EVUfAWjAKj@GRUfAUjAS~@G\\Mh@Ot@[bBYpAEPU`AGXGXSv@S|@I\\XH~Af@z@V@@tBp@vA`@f@NTHr@P|A`@|Bt@NFrCv@nA`@h@NXHlCx@~Bp@PFnCz@|Bn@NDpA^~@Xr@PfAZCt@?FAR?J@JBtANrBF^Fh@Db@Bv@?j@AfA?`@SrB[tBMn@m@`DgAfEc@hBMh@UfAWjAKj@Kb@G^CHG\\UdAI\\Ml@Qt@Mj@GVGXm@pC_@jBKf@WdAI\\Kh@GTGb@EVCRABALAPCj@@T?HANAP?HAH?BCJANCNABG\\q@|Cg@bCGXo@zCg@`CI\\o@~Ck@nCGZeAjFQ`AYlAEXMj@GVSbASz@s@dDUbAKb@g@bCId@{@bEQz@kAzFCJc@zBm@~CMh@UhAERGTm@~C]zAKh@GVIZe@bCq@`Dq@dDWlAS`AGXWjAKh@CLI\\CJMl@qCs@s@Qk@OcB]KCkCg@CA_ASeAYSCu@Iu@ESAM?I|@MnAOvAAHCVOfAIXa@dBOp@o@vCUbAiA~EGTa@jB?DOt@Kb@YpAI`@IZGXGZI\\Ol@Sh@Md@Sh@O\\S`@?@KNS^QXGLSX[d@g@r@SVQTA@W`@INILKTCFIPGLCDKVO^WbA?@ELYbAABMd@ETGRQp@Qt@CLI^Md@EXETADCX?@EVCXAXAXAT?@?V?R?P@T@R@R@RDT?BDVBL@HBNDNDNDNBJDHDLFPHNJVN^FN@DL`@FTHZBRF\\D^BX?H@P@P?J?^?^?DCXALANCXABCREXEZG\\AHIr@Gb@AH?BGb@OpACd@?DCd@?@?V?|@A\\AxB?hBA|B?r@?TCxE?N?xBA~A@VX@r@A\\?@?Z@D@z@Hl@HLDz@VTHb@LF`APxABPDZBJPtADZJp@DXBX@BF`@@FDZTnAFl@@J?H@LBLJd@Fd@_@JKBMB_ANYD@L"}, "start_location": {"lat": 29.651264, "lng": -95.37609100000002}, "transit_details": {"arrival_stop": {"location": {"lat": 29.704328, "lng": -95.40361999999999}, "name": "Texas Medical Center Transit Center"}, "arrival_time": {"text": "4:12pm", "time_zone": "America/Chicago", "value": 1642025520}, "departure_stop": {"location": {"lat": 29.651264, "lng": -95.37609100000002}, "name": "Rosehaven Dr @ Reynolds Elem"}, "departure_time": {"text": "3:27pm", "time_zone": "America/Chicago", "value": 1642022853}, "headsign": "TMC TC", "line": {"agencies": [{"name": "Metropolitan Transit Authority of Harris County", "phone": "1 (713) 635-4000", "url": "http://www.ridemetro.org/"}], "color": "#004080", "name": "Sunnyside", "short_name": "87", "text_color": "#ffffff", "url": "https://www.ridemetro.org/MetroPDFs/Schedules/BusSchedules/n087-Sunnyside.pdf", "vehicle": {"icon": "//maps.gstatic.com/mapfiles/transit/iw2/6/bus2.png", "name": "Bus", "type": "BUS"}}, "num_stops": 72, "trip_short_name": "SUNNYSIDE"}, "travel_mode": "TRANSIT"}, {"distance": {"text": "7.9 mi", "value": 12693}, "duration": {"text": "34 mins", "value": 2040}, "end_location": {"lat": 29.803613, "lng": -95.41008699999999}, "html_instructions": "Bus towards N Shepherd P&R", "polyline": {"points": "ashtDroheQFj@kAh@QBKAKKCQ@O?i@?A?e@j@Kn@KDAp@Mr@KPHDPDVERC\\AJCJCL@TCLUp@CN?PDPJJLDhAHCp@Mz@Op@Wp@gAhC?@CFIPEJIPEHELWh@QXINOPSNkAl@OH]PE@MFC@MBS@e@@M?o@A]??|B?vA?^@nG?j@?R?P@b@?~@@rAA`A@n@?h@oA?[?_@?WAsBBQ?Q?eD@uB@S?Y?yAA{@@yC@kC@K?gD?cDB_D@}A?oA@_B@c@?cE@w@@}AAAc@?g@AQCYCg@Iq@E[Gc@Km@Os@Me@IUSu@GUw@oCMc@Uw@cBp@IDkAb@kAf@{@^SHy@ZEBSF_@JKBi@LA@SDWDa@FI@a@F]DWBYBQ@o@DA?M@w@@W@M?K?oA?gA?K?sA@uA@K@iB?s@?iD@yB?S?c@@gB?oCBU@eB@e@?]?eA?S?O?U?aA?i@@A?[?A?Y@k@?]?m@?W?iD@c@@aA@eADcAAQ?aA?S@c@?U@y@Ao@AgB?cA@sA?cA@Q?iD@wA?u@@e@?c@?M?_A@]?y@?y@@Y?K?y@@O?s@?y@?eB@cA?y@@O?K?W?I?c@?E?}ABE?q@?gA?]Aa@G[GSCg@AS@M?Y?a@?m@?_A?c@@S?sC@gA@iA?kD?iB?_@?[?Y?q@@gB?{@?Y@qA?eA?I?uD@i@@_A?Q?O?{@?m@?M?g@@y@@g@@Q?[?{@?OGEAGCEEGCECECGEY[OYEKCECGEQ_AuCAEEIQe@IQCEACGIEGEGGIIIEEOKGEQKMEk@Oo@@M?{@?WIgB?KEC?SAYAU?IA]?SAeA?S?g@AcA@EBIFKFA@CBIHCDGHGXQ@aAJa@Da@DC?}AL]D]DK@KEA?A?I?G?M?MAAAA?C?AAE?CAA?OCC?AAM?WA[FE@E@c@HG@YD_@HeAPKBw@TgABW?C?W?k@@_A@K?[@SBe@Dc@@SBa@?eA@[?M?eA@c@?e@?]?_@@Y?k@?M?qCBg@?Q?M@U?e@?M?qCB]?w@@_@?E@W?e@?mB@gA?k@@]?qB@c@@a@CE@e@@m@?S@kA?cA@aCBM?oC@eA@oA@Y?[?O?a@Bm@?U?o@?e@@I?A?A?y@?M@YAS@O?_@@w@@y@?]?M?YAMAMCOEYIIAa@Kc@Ku@QGACAm@MAAOCIAK?OAM?M?A?I?O?S@M@IBc@Jq@P}@Vg@Jk@Ji@Hc@Be@DE?c@Bs@ByABA?oCBYA}B@I?A?q@@K?E?k@?C?O@u@?S?k@@w@@K?a@?O?[@U?U?U?k@@k@?Y@C?I?S?kC@y@@K?W@[?S?A?W?G?U@S?c@?e@@O?E?[?mCBeA@U?Y?S?U@A?S?aA@_@?e@@Q?S?U?s@?C?W?qB@sB@eBBg@?oBBaGBq@@w@?aB@i@@W@_B@yA@aB@Q?qD@U@gB?eB@eBA_A@?K"}, "start_location": {"lat": 29.704328, "lng": -95.40361999999999}, "transit_details": {"arrival_stop": {"location": {"lat": 29.803613, "lng": -95.41008699999999}, "name": "N Shepherd Dr @ W 20th St"}, "arrival_time": {"text": "4:59pm", "time_zone": "America/Chicago", "value": 1642028340}, "departure_stop": {"location": {"lat": 29.704328, "lng": -95.40361999999999}, "name": "Texas Medical Center Transit Center"}, "departure_time": {"text": "4:25pm", "time_zone": "America/Chicago", "value": 1642026300}, "headsign": "N Shepherd P&R", "line": {"agencies": [{"name": "Metropolitan Transit Authority of Harris County", "phone": "1 (713) 635-4000", "url": "http://www.ridemetro.org/"}], "color": "#004080", "name": "Shepherd", "short_name": "27", "text_color": "#ffffff", "url": "https://www.ridemetro.org/MetroPDFs/Schedules/BusSchedules/n027-Shepherd.pdf", "vehicle": {"icon": "//maps.gstatic.com/mapfiles/transit/iw2/6/bus2.png", "name": "Bus", "type": "BUS"}}, "num_stops": 53, "trip_short_name": "SHEPHERD"}, "travel_mode": "TRANSIT"}, {"distance": {"text": "112 ft", "value": 34}, "duration": {"text": "1 min", "value": 34}, "end_location": {"lat": 29.803842, "lng": -95.41002979999999}, "html_instructions": "Walk to W 20th St @ N Shepherd Dr", "polyline": {"points": "q_|tDdxieQ_@@M??Q"}, "start_location": {"lat": 29.8036121, "lng": -95.410111}, "steps": [{"distance": {"text": "69 ft", "value": 21}, "duration": {"text": "1 min", "value": 15}, "end_location": {"lat": 29.8038391, "lng": -95.4101207}, "html_instructions": "Head <b>north</b> on <b>N Shepherd Dr</b> toward <b>W 20th St</b>", "polyline": {"points": "q_|tDdxieQ_@@M?"}, "start_location": {"lat": 29.8036121, "lng": -95.410111}, "travel_mode": "WALKING"}, {"distance": {"text": "43 ft", "value": 13}, "duration": {"text": "1 min", "value": 19}, "end_location": {"lat": 29.803842, "lng": -95.41002979999999}, "html_instructions": "Turn <b>right</b> onto <b>W 20th St</b>", "maneuver": "turn-right", "polyline": {"points": "_a|tDfxieQ?Q"}, "start_location": {"lat": 29.8038391, "lng": -95.4101207}, "travel_mode": "WALKING"}], "travel_mode": "WALKING"}, {"distance": {"text": "2.7 mi", "value": 4367}, "duration": {"text": "10 mins", "value": 582}, "end_location": {"lat": 29.80163, "lng": -95.454342}, "html_instructions": "Bus towards Memorial City", "polyline": {"points": "ea|tDvwieQJ?@V?fA@`ABfE?tABtJ?pB@rA?r@?H?|@?jB?@?j@@h@AL?\\?J@f@?|B?h@?|@?n@?N?|G?J@tE?d@@dC?p@AL@J?V@P@H?B?D@F@HBH@JDPDLDLDHDJDJHLFHFHLL?@TVTVn@v@NRh@h@NPVX^f@BJBFBFf@v@P`@DZDVBT@F?D@F?H?P@P?X?N?F?j@@pAIpB@f@?V?fA?j@?V@h@AjA?h@@~@?b@@^Af@@d@?X?bA?jA?b@@nC?J?d@Aj@?v@?P@dB?jA?bC?`A?\\@dH?`D?dC@fE?jD?T@`F@vB?jD?vC?X?`E@V@zCAb@?fAAX@fB@fA?T@|B?l@A~A?x@?XAzB?`A?dB?l@?P?F?H@^?Z?@?H?@?Z?h@?f@?j@?^?t@@j@BnAAV@|@@fB?bBG?"}, "start_location": {"lat": 29.803869, "lng": -95.410039}, "transit_details": {"arrival_stop": {"location": {"lat": 29.80163, "lng": -95.454342}, "name": "W 18th St @ Northwest Fwy"}, "arrival_time": {"text": "5:18pm", "time_zone": "America/Chicago", "value": 1642029520}, "departure_stop": {"location": {"lat": 29.803869, "lng": -95.410039}, "name": "W 20th St @ N Shepherd Dr"}, "departure_time": {"text": "5:08pm", "time_zone": "America/Chicago", "value": 1642028938}, "headsign": "Memorial City", "line": {"agencies": [{"name": "Metropolitan Transit Authority of Harris County", "phone": "1 (713) 635-4000", "url": "http://www.ridemetro.org/"}], "color": "#004080", "name": "Long Point / Cavalcade", "short_name": "26", "text_color": "#ffffff", "url": "https://www.ridemetro.org/MetroPDFs/Schedules/BusSchedules/n026-Long-Point-Cavalcade.pdf", "vehicle": {"icon": "//maps.gstatic.com/mapfiles/transit/iw2/6/bus2.png", "name": "Bus", "type": "BUS"}}, "num_stops": 14, "trip_short_name": "LONGPOINT"}, "travel_mode": "TRANSIT"}, {"distance": {"text": "322 ft", "value": 98}, "duration": {"text": "1 min", "value": 77}, "end_location": {"lat": 29.8019199, "lng": -95.45428179999999}, "html_instructions": "Walk to 4400 W 18th St, Houston, TX 77092, USA", "polyline": {"points": "es{tDrlreQ?z@YEc@E?G@Q@a@"}, "start_location": {"lat": 29.8016264, "lng": -95.454342}, "steps": [{"distance": {"text": "95 ft", "value": 29}, "duration": {"text": "1 min", "value": 22}, "end_location": {"lat": 29.8016252, "lng": -95.45463819999999}, "html_instructions": "Head <b>west</b> on <b>W 18th St</b>/<wbr/><b>NW Mall</b>", "polyline": {"points": "es{tDrlreQ?z@"}, "start_location": {"lat": 29.8016264, "lng": -95.454342}, "travel_mode": "WALKING"}, {"distance": {"text": "131 ft", "value": 40}, "duration": {"text": "1 min", "value": 33}, "end_location": {"lat": 29.8019405, "lng": -95.4545788}, "html_instructions": "Turn <b>right</b><div style=\"font-size:0.9em\">Restricted usage road</div>", "maneuver": "turn-right", "polyline": {"points": "es{tDnnreQYEc@E"}, "start_location": {"lat": 29.8016252, "lng": -95.45463819999999}, "travel_mode": "WALKING"}, {"distance": {"text": "95 ft", "value": 29}, "duration": {"text": "1 min", "value": 22}, "end_location": {"lat": 29.8019199, "lng": -95.45428179999999}, "html_instructions": "Turn <b>right</b><div style=\"font-size:0.9em\">Restricted usage road</div><div style=\"font-size:0.9em\">Destination will be on the left</div>", "maneuver": "turn-right", "polyline": {"points": "cu{tDbnreQ?G@Q@a@"}, "start_location": {"lat": 29.8019405, "lng": -95.4545788}, "travel_mode": "WALKING"}], "travel_mode": "WALKING"}], "traffic_speed_entry": [], "via_waypoint": []}], "overview_polyline": {"points": "wi~sDvbceQA\\lA??F}DBsb@ZY?GkEEiICuGO}WMcg@Qcn@Uov@Ieb@IuR?_EFeDEKDcCE{HOuUAaA{@Aw@CeBEuF@yCBaWP_OPoA?iHMoKMoPHgZRyNLkD?wAJg@Rg@\\eCxCeA|@]PqDfAkIbCeFxAc@P_A_CsB{FwDmKkDkLOYiATI@q@NsPjDWFER[hBg@vBgAbGi@~By@`D{@|DaArE{CfOk@fCg@tBI\\XHzC~@vBr@hElAzEvAbD~@`HtB~KdDtEpAfAZCt@AZT`FNhAHzAArBStCi@dDm@`DgAfEq@rCm@rCc@xBu@nDo@rCqBjJe@`CM|@E|@@^Et@In@cBbIsGl[uKlh@oEtTsExTo@|CMh@Ml@qCs@_Ba@oBa@oCi@eCm@sCUM?I|@]fD_@bCwBrJsBfJ_AlEc@nBeAfDo@pAaA`BiBfCm@`Aa@|@O\\g@bBa@vAm@`Cm@hCQnAKlAChABnAH`AN~@Tz@bAfCb@fBP`BBnAElAa@~Co@fGI|NCrHAxE@VX@pAA\\@`AJz@NpA`@b@LF`ATjBHf@h@|DNfAd@dDPjAFd@_@JYFyATHx@}Al@KAKKAa@?k@?e@j@Kt@MdBYPHDPDVEREh@CJAb@Y~@C`@P\\vANQlBg@bBuAdD[t@i@bAY`@mCxAe@NwB@]??|B?vB@`J@xF@xAkB?}D@aIBiI@q[J}J@GwB[yC[aBW{@aB_GUw@cBp@uAh@uElBeAZwAZkBVsBN_BDqD?aEDaM@oHD_IBqEBmG@oFFsJ?uZJySHeBA}@O{@Ea@@iD?sGDoQ@wODcHDm@?{@?OGMEMIm@i@]s@mAwDa@aA[c@g@a@_@Qk@Oo@@iA?WIgB?OEm@CqACeE?]TY\\GXQ@cBPaDXi@FMEa@?MAOC[Ge@Aa@HkAReBZcAX{BBsCDqBN_IBmIFkXNaLF{KH_MFsACw@SaE_Au@Gg@?{@F{D`AuATiAHwDJsJDoKF{_@Va_@RcSLiI@_A@?K?B_@@M??QE@J?@~ADhGDpS?fF@tH@lU@pEBv@F`@Rx@Zn@\\b@|DpEb@r@FNf@v@P`@Jr@Fj@@fA@tCGxC?~A?xDBlD@vL?rOHfaA@pG?`HA~L@xC?hDDpE@jEG??z@YEc@E?GBs@"}, "summary": "", "warnings": ["Walking directions are in beta. Use caution \u2013 This route may be missing sidewalks or pedestrian paths."], "waypoint_order": []}], "status": "OK"}