{"geocoded_waypoints": [{"geocoder_status": "OK", "place_id": "ChIJ12qdRI-VQIYRLB7XCbon3Bs", "types": ["establishment", "point_of_interest", "school", "secondary_school"]}, {"geocoder_status": "OK", "place_id": "ChIJ9_tphxzHQIYRIMyPy_d3VZU", "types": ["establishment", "point_of_interest"]}], "routes": [{"bounds": {"northeast": {"lat": 29.804029, "lng": -95.27799499999999}, "southwest": {"lat": 29.7107769, "lng": -95.45463819999999}}, "copyrights": "Map data \u00a92022", "legs": [{"arrival_time": {"text": "4:34pm", "time_zone": "America/Chicago", "value": 1642026897}, "departure_time": {"text": "2:59pm", "time_zone": "America/Chicago", "value": 1642021165}, "distance": {"text": "18.1 mi", "value": 29104}, "duration": {"text": "1 hour 36 mins", "value": 5732}, "end_address": "4400 W 18th St, Houston, TX 77092, USA", "end_location": {"lat": 29.8019199, "lng": -95.45428179999999}, "start_address": "1601 Broadway St, Houston, TX 77012, USA", "start_location": {"lat": 29.7107769, "lng": -95.27801749999999}, "steps": [{"distance": {"text": "164 ft", "value": 50}, "duration": {"text": "1 min", "value": 36}, "end_location": {"lat": 29.7112301, "lng": -95.27802919999999}, "html_instructions": "Walk to Broadway St @ Brutus St", "polyline": {"points": "k{itDr~odQ_@?I?O?K?M@E?"}, "start_location": {"lat": 29.7107769, "lng": -95.27801749999999}, "steps": [{"distance": {"text": "164 ft", "value": 50}, "duration": {"text": "1 min", "value": 36}, "end_location": {"lat": 29.7112301, "lng": -95.27802919999999}, "html_instructions": "Head <b>north</b> on <b>Broadway St</b> toward <b>Brutus St</b>", "polyline": {"points": "k{itDr~odQ_@?I?O?K?M@E?"}, "start_location": {"lat": 29.7107769, "lng": -95.27801749999999}, "travel_mode": "WALKING"}], "travel_mode": "WALKING"}, {"distance": {"text": "5.8 mi", "value": 9353}, "duration": {"text": "22 mins", "value": 1318}, "end_location": {"lat": 29.728237, "lng": -95.335172}, "html_instructions": "Bus towards Eastwood TC", "polyline": {"points": "e~itDl~odQ?NO@aBAk@AsABQ@u@@i@BO?o@@y@@O?[?_C@_@@e@?M@o@?{A@_@Au@@qC@[?kBDi@@_ABc@?aCFq@Bc@@Y@gA@_@@kA@G?M?C@O?A?K?A?S?G?G?c@@kB@w@?o@AkD@iA@oCBcEFU@oA?iAFw@@U?_ABG@a@@KB{@NC?MDGBWHi@R{@`@o@^CBIFCBQLc@b@ON?@UTSZILMRMVMVc@rACH?@?@?B@HI`@Kd@GXQz@Mr@Kd@G\\gAhFi@hCEXKd@Kf@CPa@nBI\\Ml@S~@Kh@YzAsAvGERsBpKOn@CLGZYrAQx@ETGVKb@CLGZGTEVI^Mh@Mn@I\\e@zBYpAI^WnAMl@Ib@g@bCYpACNQt@YpAAHGVGVGXENb@Nr@RLDnC|@_@fBMl@YrAAFWlAOl@Mn@K`@I\\Ml@EP_@jBKb@Op@ERENYvAETI^_@lBENMl@Ov@i@[qBk@OGYMLi@rA^fA\\j@POv@Qv@OfAWxA[jAa@dBWhAETK`@Mj@Qv@Mh@dBf@XFB@dBh@`@Lh@NZJzAd@`AZWlACLENG\\AJAHAFA^?v@@D@RHj@BPBF@BDLFNJTn@xAJVDPBLDRBRDXBXJjAFn@@R@N@Z?V?l@?^@dD?h@?rA?n@?JA^Cb@C`@?HCTEXCNAHSz@o@pCGR[rAAH?B?@?@@@@BGTERQx@Qx@AHKd@On@WjAUnAc@rBYrAI`@g@~BQx@k@pCi@lCERq@|Ce@`CGXKj@i@fCi@xCABKd@Q~@AHGb@?H?DAJCLq@jDo@zCCHMj@EFCBCFGLERgAhFG`@[|@GXGX?@K`@Kd@Kf@Kh@GVLFVJRJVNRP\\^PTLTP^f@zANZDH^j@@@BBXTVPXNHDj@TRFr@RpA`@NFz@Vn@Rj@Ph@NJD|@VNDPDfBh@n@RlDbAXHjEpA|@BT?TAn@Cn@Cj@?n@Dp@gDLk@@AJk@J?JAJ?JBlAb@~@\\NNBD@LANGT]`@MNG@K?GAs@{@Xc@"}, "start_location": {"lat": 29.711233, "lng": -95.27799499999999}, "transit_details": {"arrival_stop": {"location": {"lat": 29.728237, "lng": -95.335172}, "name": "Eastwood Transit Center"}, "arrival_time": {"text": "3:23pm", "time_zone": "America/Chicago", "value": 1642022580}, "departure_stop": {"location": {"lat": 29.711233, "lng": -95.27799499999999}, "name": "Broadway St @ Brutus St"}, "departure_time": {"text": "3:01pm", "time_zone": "America/Chicago", "value": 1642021262}, "headsign": "Eastwood TC", "line": {"agencies": [{"name": "Metropolitan Transit Authority of Harris County", "phone": "1 (713) 635-4000", "url": "http://www.ridemetro.org/"}], "color": "#004080", "name": "Broadway", "short_name": "50", "text_color": "#ffffff", "url": "https://www.ridemetro.org/MetroPDFs/Schedules/BusSchedules/n050-Broadway.pdf", "vehicle": {"icon": "//maps.gstatic.com/mapfiles/transit/iw2/6/bus2.png", "name": "Bus", "type": "BUS"}}, "num_stops": 34, "trip_short_name": "BROADWAY"}, "travel_mode": "TRANSIT"}, {"distance": {"text": "8.8 mi", "value": 14161}, "duration": {"text": "40 mins", "value": 2400}, "end_location": {"lat": 29.804029, "lng": -95.398901}, "html_instructions": "Bus towards N Shepherd P&R", "polyline": {"points": "ohmtDxc{dQDe@nAHNNBD@LANGT]`@MNG@K?GAWKa@Yc@YMQGIEO@E?EBKHe@?WK@K?Kj@UFSGMY[i@QYg@i@c@_@m@c@eBk@?Aa@KMEsDiAoBm@_@KICuAc@SG]KCA]KcCu@eBi@OEm@Qi@Me@GS?QAa@@WBC@G?SDA?E@c@F]BK?c@Ba@?Y?C?_@C[CUCWKe@Oa@M_@MMEGVu@pDI\\ABKf@SjAEX?La@tBa@rBI`@cBfIQx@wBnKQ|@S~@YnAG\\]|A[xAKd@]`BCLGXUlAMn@Op@Op@iAvF]bBEXAFI^CNCHCNIV]~@Q`@Wj@INeBjDqAdCOZGLGHADWh@KPm@jAGLGJaB~CgBhDyAtCKTgBlDy@zAk@jAuAnCQZUj@Wd@_@t@MTKJg@bAIN]p@OZMTINCFQZS\\AFS`@INGP{AtCA@IRWh@GLMPCHo@lAMPKVIL?@?@INCFA@GJ?@A@ABEHCDA@a@t@i@fA{@`BKTUb@QMuB}AGGA?CAA?A@A??@A@EDu@xA_@p@SRQLIFKDODEBE?G@IB]DMBKBEBM@UD_@HIBC@IBQLIFIJKRQTsAlCKP?BABADINs@pAi@bAgArBa@t@aBnDQZgArBMTADABCFA@OVwAnCuAnCMT_@x@gAtB]p@{@bB?@KViBdDIRMTkA|BdAz@t@f@RNbBnAj@r@Lj@BvA?TBVGT?b@?bBB|A@n@?L?B?@?f@?B?Z?@?F@b@?B?DAX@l@@T?\\@nA?h@?h@A|A@V?\\?nA?f@@d@AJAL?HCJGTEREp@C`@ANAd@?@?h@?nA@tA?R@dB?F@v@?H?T?JBt@BTDRLp@D^Dn@?b@@tA?`@@x@?h@@d@?X@`AB|C?v@@n@@R?H?P@p@?~@@dA@h@?rA@F?^@rA@f@@|B?lA?p@@P?LB|D@`C@lB@P?@?F@\\?Z?dA@fA@vABjB@dA?`@?^@T?hB@p@@|B@^B|C@rA?R?V?r@_B@{ABk@@uA@yAAa@A{A?O?aC?Y?O?I?Y@[@A?G@E?G@UBMDMFOF}@^_A^QHSH]NQFC@MBEB[DWDW@Y@m@Em@GMCIACAOCEAMCe@QSISIUM_@Q[KGEWMCAUMCCAAWQ[UECSOYUOKGG[WSKSIYMKCKEqCm@c@E_ABq@@yB@O?k@Bc@BQJO@Q@MBWNB[y@?c@?[?o@?oA@qA@S?O@G?cA?{EDm@?{ABa@@C?eA?[?aB?YAmA@kA@S@C?O@g@?[?s@BG?C?U?M?E?s@A}@@}A@I?gJDI?sHD{@@eJDK?S?E?{@@m@@yEBO?_JFS?gIFW?M?yDB{C@Y?kFBsB@Q?aC@mB@iB@W?yB@c@@_E@S?cJHK?qHF]?O?O@iE?_EDK?{@?i@@cB?gBBs@@_@?Q??R?L@R?N?f@?h@@|@M?"}, "start_location": {"lat": 29.728237, "lng": -95.335172}, "transit_details": {"arrival_stop": {"location": {"lat": 29.804029, "lng": -95.398901}, "name": "W 20th St @ Yale St"}, "arrival_time": {"text": "4:16pm", "time_zone": "America/Chicago", "value": 1642025760}, "departure_stop": {"location": {"lat": 29.728237, "lng": -95.335172}, "name": "Eastwood Transit Center"}, "departure_time": {"text": "3:36pm", "time_zone": "America/Chicago", "value": 1642023360}, "headsign": "N Shepherd P&R", "line": {"agencies": [{"name": "Metropolitan Transit Authority of Harris County", "phone": "1 (713) 635-4000", "url": "http://www.ridemetro.org/"}], "color": "#004080", "name": "Telephone / Heights", "short_name": "40", "text_color": "#ffffff", "url": "https://www.ridemetro.org/MetroPDFs/Schedules/BusSchedules/n040-Telephone-Heights.pdf", "vehicle": {"icon": "//maps.gstatic.com/mapfiles/transit/iw2/6/bus2.png", "name": "Bus", "type": "BUS"}}, "num_stops": 57, "trip_short_name": "TELEHEIGHT"}, "travel_mode": "TRANSIT"}, {"distance": {"text": "3.4 mi", "value": 5442}, "duration": {"text": "12 mins", "value": 725}, "end_location": {"lat": 29.80163, "lng": -95.454342}, "html_instructions": "Bus towards Memorial City", "polyline": {"points": "eb|tDbrgeQL??\\?d@?b@@n@?pA@|B?d@?`@@t@?T?pA@v@@rA?v@@bD@~@?nA@H?tB@^@dC?P?j@@x@?x@?t@@P?dA@|A?\\?^@dC@zB?xA?N@V?fA@`ABfE?tABtJ?pB@rA?r@?H?|@?jB?@?j@@h@AL?\\?J@f@?|B?h@?|@?n@?N?|G?J@tE?d@@dC?p@AL@J?V@P@H?B?D@F@HBH@JDPDLDLDHDJDJHLFHFHLL?@TVTVn@v@NRh@h@NPVX^f@BJBFBFf@v@P`@DZDVBT@F?D@F?H?P@P?X?N?F?j@@pAIpB@f@?V?fA?j@?V@h@AjA?h@@~@?b@@^Af@@d@?X?bA?jA?b@@nC?J?d@Aj@?v@?P@dB?jA?bC?`A?\\@dH?`D?dC@fE?jD?T@`F@vB?jD?vC?X?`E@V@zCAb@?fAAX@fB@fA?T@|B?l@A~A?x@?XAzB?`A?dB?l@?P?F?H@^?Z?@?H?@?Z?h@?f@?j@?^?t@@j@BnAAV@|@@fB?bBG?"}, "start_location": {"lat": 29.804029, "lng": -95.398901}, "transit_details": {"arrival_stop": {"location": {"lat": 29.80163, "lng": -95.454342}, "name": "W 18th St @ Northwest Fwy"}, "arrival_time": {"text": "4:33pm", "time_zone": "America/Chicago", "value": 1642026820}, "departure_stop": {"location": {"lat": 29.804029, "lng": -95.398901}, "name": "W 20th St @ Yale St"}, "departure_time": {"text": "4:21pm", "time_zone": "America/Chicago", "value": 1642026095}, "headsign": "Memorial City", "line": {"agencies": [{"name": "Metropolitan Transit Authority of Harris County", "phone": "1 (713) 635-4000", "url": "http://www.ridemetro.org/"}], "color": "#004080", "name": "Long Point / Cavalcade", "short_name": "26", "text_color": "#ffffff", "url": "https://www.ridemetro.org/MetroPDFs/Schedules/BusSchedules/n026-Long-Point-Cavalcade.pdf", "vehicle": {"icon": "//maps.gstatic.com/mapfiles/transit/iw2/6/bus2.png", "name": "Bus", "type": "BUS"}}, "num_stops": 18, "trip_short_name": "LONGPOINT"}, "travel_mode": "TRANSIT"}, {"distance": {"text": "322 ft", "value": 98}, "duration": {"text": "1 min", "value": 77}, "end_location": {"lat": 29.8019199, "lng": -95.45428179999999}, "html_instructions": "Walk to 4400 W 18th St, Houston, TX 77092, USA", "polyline": {"points": "es{tDrlreQ?z@YEc@E?G@Q@a@"}, "start_location": {"lat": 29.8016264, "lng": -95.454342}, "steps": [{"distance": {"text": "95 ft", "value": 29}, "duration": {"text": "1 min", "value": 22}, "end_location": {"lat": 29.8016252, "lng": -95.45463819999999}, "html_instructions": "Head <b>west</b> on <b>W 18th St</b>/<wbr/><b>NW Mall</b>", "polyline": {"points": "es{tDrlreQ?z@"}, "start_location": {"lat": 29.8016264, "lng": -95.454342}, "travel_mode": "WALKING"}, {"distance": {"text": "131 ft", "value": 40}, "duration": {"text": "1 min", "value": 33}, "end_location": {"lat": 29.8019405, "lng": -95.4545788}, "html_instructions": "Turn <b>right</b><div style=\"font-size:0.9em\">Restricted usage road</div>", "maneuver": "turn-right", "polyline": {"points": "es{tDnnreQYEc@E"}, "start_location": {"lat": 29.8016252, "lng": -95.45463819999999}, "travel_mode": "WALKING"}, {"distance": {"text": "95 ft", "value": 29}, "duration": {"text": "1 min", "value": 22}, "end_location": {"lat": 29.8019199, "lng": -95.45428179999999}, "html_instructions": "Turn <b>right</b><div style=\"font-size:0.9em\">Restricted usage road</div><div style=\"font-size:0.9em\">Destination will be on the left</div>", "maneuver": "turn-right", "polyline": {"points": "cu{tDbnreQ?G@Q@a@"}, "start_location": {"lat": 29.8019405, "lng": -95.4545788}, "travel_mode": "WALKING"}], "travel_mode": "WALKING"}], "traffic_speed_entry": [], "via_waypoint": []}], "overview_polyline": {"points": "k{itDr~odQeA?S@?G?NqB?_C@aCFuCBsEDaF@cIHcBBsDJeDFcCBuDBgBAuFByLLaCHuABi@BgARYHaA\\kB`Ac@\\iAjAk@|@[n@g@|A@Po@|CqDrQkEjTgEbTwEzTcCfLMh@vAb@|CbAm@tCcAvEq@|CmBdJ}@jEOv@i@[aCs@YMLi@zC|@j@POv@a@~BWxA[jAy@nDq@zCMh@dBf@\\HlErA|C`A[zAQbACf@@|@J~@FXZv@z@pBH^RzAV~C@`C@rIIpBMhAmAjF]bB@B@BGTWlASbAiApFoBhJyErUaBjIShAGl@APu@xDs@dDMj@EFGJM`@oAjGc@vA_@bBWpAGVLFj@Vj@`@n@t@^t@v@vBd@t@v@l@b@T~@\\pEtApCz@fElAvF`BjEpA|@Bj@A~AGzADlAaGVAVBlC`ART@LId@k@p@S@GAs@{@Xc@De@nAHNNDRANGT]`@MNG@SAy@e@c@YMQMY@KLq@?WK@K?Kj@UFSGi@cAy@cAqAcAeBm@sIiCsC{@cEoAuBo@wA_@y@Gs@?w@JiALo@B{@?c@Cq@G_Cw@MEGV_AnEg@pC?La@tBk@tC_GnY}CzNyDpRS`AMf@o@`ByElJa@x@eK`SyEjJuC|Fm@jAs@nAeArBs@pAg@jA_CtEiAvBq@rAcE`IqCsBI?}@bB_@p@SR[Tg@N}@Nu@Nw@R[TIJ]h@_B~CM\\gE~HsBjEuAhCIRkElIaEdI_CrEyArCzBbBvB~Aj@r@Lj@BlBBVGT?fCDlC?R@xBBdH?bFAfBQ~@MhCDjKB`B\\zBDrA@vBBbDJhLHfLRf_@JbPFdH?jA{DDaCB{BCgG?oABWBUB[L_DpAgAb@o@Lo@FgACeAMg@KmAe@yAq@u@a@aCgBo@c@m@WWIqCm@c@EqBDiC@oAFQJO@_@DWNB[}A?[?eFBwHFoDD}EAyHJo@?y@A{CBoTJaMFu_@VgWJcVJ_UPiLFcLF@dA?pA@|@M?L??\\?hABdHFfPLp[JtUDxZ@tH@lU@pEBv@F`@Rx@Zn@\\b@|DpE^f@BJFNf@v@P`@Jr@Fj@@fA@tCIpB@f@?~A?xDBlD@vL?rODve@BnZ@pG@rCAlCApG?lD@xC?hDDpE@jEG??z@YEc@E?GBs@"}, "summary": "", "warnings": ["Walking directions are in beta. Use caution \u2013 This route may be missing sidewalks or pedestrian paths."], "waypoint_order": []}, {"bounds": {"northeast": {"lat": 29.8144283, "lng": -95.27799499999999}, "southwest": {"lat": 29.7107769, "lng": -95.45463819999999}}, "copyrights": "Map data \u00a92022", "legs": [{"arrival_time": {"text": "4:34pm", "time_zone": "America/Chicago", "value": 1642026897}, "departure_time": {"text": "2:59pm", "time_zone": "America/Chicago", "value": 1642021165}, "distance": {"text": "20.3 mi", "value": 32601}, "duration": {"text": "1 hour 36 mins", "value": 5732}, "end_address": "4400 W 18th St, Houston, TX 77092, USA", "end_location": {"lat": 29.8019199, "lng": -95.45428179999999}, "start_address": "1601 Broadway St, Houston, TX 77012, USA", "start_location": {"lat": 29.7107769, "lng": -95.27801749999999}, "steps": [{"distance": {"text": "164 ft", "value": 50}, "duration": {"text": "1 min", "value": 36}, "end_location": {"lat": 29.7112301, "lng": -95.27802919999999}, "html_instructions": "Walk to Broadway St @ Brutus St", "polyline": {"points": "k{itDr~odQ_@?I?O?K?M@E?"}, "start_location": {"lat": 29.7107769, "lng": -95.27801749999999}, "steps": [{"distance": {"text": "164 ft", "value": 50}, "duration": {"text": "1 min", "value": 36}, "end_location": {"lat": 29.7112301, "lng": -95.27802919999999}, "html_instructions": "Head <b>north</b> on <b>Broadway St</b> toward <b>Brutus St</b>", "polyline": {"points": "k{itDr~odQ_@?I?O?K?M@E?"}, "start_location": {"lat": 29.7107769, "lng": -95.27801749999999}, "travel_mode": "WALKING"}], "travel_mode": "WALKING"}, {"distance": {"text": "5.0 mi", "value": 8070}, "duration": {"text": "18 mins", "value": 1057}, "end_location": {"lat": 29.736671, "lng": -95.333236}, "html_instructions": "Bus towards Eastwood TC", "polyline": {"points": "e~itDl~odQ?NO@aBAk@AsABQ@u@@i@BO?o@@y@@O?[?_C@_@@e@?M@o@?{A@_@Au@@qC@[?kBDi@@_ABc@?aCFq@Bc@@Y@gA@_@@kA@G?M?C@O?A?K?A?S?G?G?c@@kB@w@?o@AkD@iA@oCBcEFU@oA?iAFw@@U?_ABG@a@@KB{@NC?MDGBWHi@R{@`@o@^CBIFCBQLc@b@ON?@UTSZILMRMVMVc@rACH?@?@?B@HI`@Kd@GXQz@Mr@Kd@G\\gAhFi@hCEXKd@Kf@CPa@nBI\\Ml@S~@Kh@YzAsAvGERsBpKOn@CLGZYrAQx@ETGVKb@CLGZGTEVI^Mh@Mn@I\\e@zBYpAI^WnAMl@Ib@g@bCYpACNQt@YpAAHGVGVGXENb@Nr@RLDnC|@_@fBMl@YrAAFWlAOl@Mn@K`@I\\Ml@EP_@jBKb@Op@ERENYvAETI^_@lBENMl@Ov@i@[qBk@OGYMLi@rA^fA\\j@POv@Qv@OfAWxA[jAa@dBWhAETK`@Mj@Qv@Mh@dBf@XFB@dBh@`@Lh@NZJzAd@`AZWlACLENG\\AJAHAFA^?v@@D@RHj@BPBF@BDLFNJTn@xAJVDPBLDRBRDXBXJjAFn@@R@N@Z?V?l@?^@dD?h@?rA?n@?JA^Cb@C`@?HCTEXCNAHSz@o@pCGR[rAAH?B?@?@@@@BGTERQx@Qx@AHKd@On@WjAUnAc@rBYrAI`@g@~BQx@k@pCi@lCERq@|Ce@`CGXKj@i@fCi@xCABKd@Q~@AHGb@?H?DAJCLq@jDo@zCCHMj@EFCBCFGLERgAhFG`@[|@GXGX?@K`@Kd@Kf@Kh@GVLFVJRJVNRP\\^PTLTP^f@zANZGF"}, "start_location": {"lat": 29.711233, "lng": -95.27799499999999}, "transit_details": {"arrival_stop": {"location": {"lat": 29.736671, "lng": -95.333236}, "name": "Ernestine St @ Bell St"}, "arrival_time": {"text": "3:18pm", "time_zone": "America/Chicago", "value": 1642022319}, "departure_stop": {"location": {"lat": 29.711233, "lng": -95.27799499999999}, "name": "Broadway St @ Brutus St"}, "departure_time": {"text": "3:01pm", "time_zone": "America/Chicago", "value": 1642021262}, "headsign": "Eastwood TC", "line": {"agencies": [{"name": "Metropolitan Transit Authority of Harris County", "phone": "1 (713) 635-4000", "url": "http://www.ridemetro.org/"}], "color": "#004080", "name": "Broadway", "short_name": "50", "text_color": "#ffffff", "url": "https://www.ridemetro.org/MetroPDFs/Schedules/BusSchedules/n050-Broadway.pdf", "vehicle": {"icon": "//maps.gstatic.com/mapfiles/transit/iw2/6/bus2.png", "name": "Bus", "type": "BUS"}}, "num_stops": 30, "trip_short_name": "BROADWAY"}, "travel_mode": "TRANSIT"}, {"distance": {"text": "0.1 mi", "value": 206}, "duration": {"text": "3 mins", "value": 170}, "end_location": {"lat": 29.7375764, "lng": -95.3316523}, "html_instructions": "Walk to Lockwood Dr @ Polk St", "polyline": {"points": "c}ntDtwzdQO]i@{AO]MWQSFOBKH_@BMWKe@Oa@MGC"}, "start_location": {"lat": 29.7366577, "lng": -95.33322539999999}, "steps": [{"distance": {"text": "371 ft", "value": 113}, "duration": {"text": "1 min", "value": 82}, "end_location": {"lat": 29.7371482, "lng": -95.3321744}, "html_instructions": "Head <b>northeast</b> on <b>Ernestine St</b> toward <b>Telephone Rd</b>", "polyline": {"points": "c}ntDtwzdQO]i@{AO]MWQSFO"}, "start_location": {"lat": 29.7366577, "lng": -95.33322539999999}, "travel_mode": "WALKING"}, {"distance": {"text": "102 ft", "value": 31}, "duration": {"text": "1 min", "value": 33}, "end_location": {"lat": 29.7370561, "lng": -95.3318752}, "html_instructions": "Turn <b>right</b> onto <b>Clay St</b>", "maneuver": "turn-right", "polyline": {"points": "e`otD`qzdQBKH_@BM"}, "start_location": {"lat": 29.7371482, "lng": -95.3321744}, "travel_mode": "WALKING"}, {"distance": {"text": "203 ft", "value": 62}, "duration": {"text": "1 min", "value": 55}, "end_location": {"lat": 29.7375764, "lng": -95.3316523}, "html_instructions": "Turn <b>left</b> onto <b>S Lockwood Dr</b><div style=\"font-size:0.9em\">Destination will be on the right</div>", "maneuver": "turn-left", "polyline": {"points": "s_otDfozdQWKe@Oa@MGC"}, "start_location": {"lat": 29.7370561, "lng": -95.3318752}, "travel_mode": "WALKING"}], "travel_mode": "WALKING"}, {"distance": {"text": "6.3 mi", "value": 10104}, "duration": {"text": "23 mins", "value": 1406}, "end_location": {"lat": 29.81412, "lng": -95.327876}, "html_instructions": "Bus towards Kashmere TC", "polyline": {"points": "ybotDrmzdQCLWIMEkAc@SIGCYK}C_Am@So@SaAWUGuC{@a@MiAe@OIQKuA}@OMSOe@Ws@o@w@m@mAs@CCKGEAKEGEkAa@q@Q_@KUIm@UcB_@iCw@SEiE{AaA_@IE[OoA}@m@g@gA_ASS_@a@_@]WQsBwA{BcBo@e@{A}@SMYSq@g@aBoAm@a@aAq@aAq@YQe@a@cAq@_BcAi@[}@i@[S{AaAgAu@IGg@_@]WQKKIYSa@W]W]Yc@]aD_Co@a@cCoAwAo@]Mu@c@?Aw@_@g@WCA{@c@{@a@OIkB{@s@_@o@YIEOIeB}@SKgBaAy@]OGUKy@_@YGaBAcB?c@@W?a@AK?s@CiBEW?qA?cBA[?W?uAAc@?q@?Y?mA?]?}A?c@Am@@Y?wBA{B?cB?Q?WAyASaBU[C}@?C?c@BeADa@?Q?c@@E?G?U@O?I?m@?u@@W@E?m@@]@y@Bc@D[Dk@F_@DkCf@yA\\w@Jo@B_@@O@_E@oD?O?iDDW?}D@eD@[?{@?i@Ac@?WAE?YCwBCCBA?A?A@A?C?W?iABuA?sD@S@E?M?I?A?O?M?cC?G?E?U?[?C?I@m@?wE@gA@[?G@MDoBD[@_DTI?M?S?oEBW?k@BY?C?I@K@_@BQ@S?SHKDi@VMFm@\\C?ULYLUJi@PmABS?mF@Q?s@@eB@gD@g@@Y?s@@e@?W@_@KKEaA@U?a@@k@@]?]?o@?sB?{BHGBUD}@?m@@E?c@?C?Y?U?]?W?W?a@?c@@w@?S?aIDi@@{@@i@@UGg@Aa@AQ?A?q@?k@?_@?]?QAMCQ@kA@Q?m@@Q?c@?K?W?M?U?c@?{@?kA@I?G?cB@kC@C?gA@i@?eCBmA@q@@?^BzI@~IB~I@hA@zGBbH@~G?lAi@b@u@l@y@l@OWCIAA@QDG@Aj@YFN"}, "start_location": {"lat": 29.737567, "lng": -95.33162399999999}, "transit_details": {"arrival_stop": {"location": {"lat": 29.81412, "lng": -95.327876}, "name": "Kashmere Transit Center"}, "arrival_time": {"text": "3:50pm", "time_zone": "America/Chicago", "value": 1642024200}, "departure_stop": {"location": {"lat": 29.737567, "lng": -95.33162399999999}, "name": "Lockwood Dr @ Polk St"}, "departure_time": {"text": "3:26pm", "time_zone": "America/Chicago", "value": 1642022794}, "headsign": "Kashmere TC", "line": {"agencies": [{"name": "Metropolitan Transit Authority of Harris County", "phone": "1 (713) 635-4000", "url": "http://www.ridemetro.org/"}], "color": "#004080", "name": "MLK / Lockwood", "short_name": "80", "text_color": "#ffffff", "url": "https://www.ridemetro.org/MetroPDFs/Schedules/BusSchedules/n080-MLK-Lockwood.pdf", "vehicle": {"icon": "//maps.gstatic.com/mapfiles/transit/iw2/6/bus2.png", "name": "Bus", "type": "BUS"}}, "num_stops": 37, "trip_short_name": "MLKLOCK"}, "travel_mode": "TRANSIT"}, {"distance": {"text": "8.7 mi", "value": 14073}, "duration": {"text": "34 mins", "value": 2020}, "end_location": {"lat": 29.80163, "lng": -95.454342}, "html_instructions": "Bus towards Memorial City", "polyline": {"points": "ga~tDfvydQGOp@s@RB@@HLA\\u@l@y@l@AzAl@?DAjBAr@?vFC?L|DCdEAV?~@Av@?BAX?ZAHAJ?NCVEHAD?DAVAJA@?D?r@ErAMBAb@Cl@Ez@CN?B?L?@?fAAt@?|@AP?tHCd@AX?V?\\?zFEdA?H?z@Ah@?v@?vAAb@?t@??n@?j@@bD?p@@hA?X?x@DvCFpD?rA@zBGvAEpAGjBARC\\K`AEb@]fBKb@EPGVYdAUdAMx@W|AOjAMx@EZGd@WbBKj@Ib@EVAFIf@ADKn@Kz@In@K|@SdBK|@Gb@K~@AHW|Bc@jEo@fFWlBK|@EVSbBQpAGr@Mp@Eb@CNOrAKdBCf@?HAx@?xB@d@@j@?pA@nA?X@dB?T@fAB~D@bD@ZBbEBzB@fAGrAAXGvA@vD@xC@^@tD@x@?V?v@?l@?\\BpD@nB?fA@jA?tA?T?\\?lA@nA?tA@dA?Z@bA?pB@vDAlBAV?LANAT?RAXCR?@CXQ|@Kf@Sz@ENOr@CRE\\Cb@KfCARCpAAv@AXCf@?DAT?LAHCfAAd@?D?lB?h@?VBjC?lB?x@@z@@fB?fD@fDE`BA|@?HA\\@V?lA@L?\\?x@?V@j@@t@?L?JB`@@T@NBN@N@V?f@@f@?`A?r@?L?xBAP?JALAPANIbAEb@?TAR?V?fH?p@@vD@xAC^C^CRA@ETC\\Af@?P?P?LA`@@\\BpA?^@j@?H@tA?n@?b@@b@?X?P?V@`A?v@@dA?V?vA@T?lB@jB@tA?XB|E?~A@zB@nB?V?V@t@?L?R?L@R?N?f@?h@@|@?\\?d@?b@@n@?pA@|B?d@?`@@t@?T?pA@v@@rA?v@@bD@~@?nA@H?tB@^@dC?P?j@@x@?x@?t@@P?dA@|A?\\?^@dC@zB?xA?N@V?fA@`ABfE?tABtJ?pB@rA?r@?H?|@?jB?@?j@@h@AL?\\?J@f@?|B?h@?|@?n@?N?|G?J@tE?d@@dC?p@AL@J?V@P@H?B?D@F@HBH@JDPDLDLDHDJDJHLFHFHLL?@TVTVn@v@NRh@h@NPVX^f@BJBFBFf@v@P`@DZDVBT@F?D@F?H?P@P?X?N?F?j@@pAIpB@f@?V?fA?j@?V@h@AjA?h@@~@?b@@^Af@@d@?X?bA?jA?b@@nC?J?d@Aj@?v@?P@dB?jA?bC?`A?\\@dH?`D?dC@fE?jD?T@`F@vB?jD?vC?X?`E@V@zCAb@?fAAX@fB@fA?T@|B?l@A~A?x@?XAzB?`A?dB?l@?P?F?H@^?Z?@?H?@?Z?h@?f@?j@?^?t@@j@BnAAV@|@@fB?bBG?"}, "start_location": {"lat": 29.81412, "lng": -95.327876}, "transit_details": {"arrival_stop": {"location": {"lat": 29.80163, "lng": -95.454342}, "name": "W 18th St @ Northwest Fwy"}, "arrival_time": {"text": "4:33pm", "time_zone": "America/Chicago", "value": 1642026820}, "departure_stop": {"location": {"lat": 29.81412, "lng": -95.327876}, "name": "Kashmere Transit Center"}, "departure_time": {"text": "4:00pm", "time_zone": "America/Chicago", "value": 1642024800}, "headsign": "Memorial City", "line": {"agencies": [{"name": "Metropolitan Transit Authority of Harris County", "phone": "1 (713) 635-4000", "url": "http://www.ridemetro.org/"}], "color": "#004080", "name": "Long Point / Cavalcade", "short_name": "26", "text_color": "#ffffff", "url": "https://www.ridemetro.org/MetroPDFs/Schedules/BusSchedules/n026-Long-Point-Cavalcade.pdf", "vehicle": {"icon": "//maps.gstatic.com/mapfiles/transit/iw2/6/bus2.png", "name": "Bus", "type": "BUS"}}, "num_stops": 52, "trip_short_name": "LONGPOINT"}, "travel_mode": "TRANSIT"}, {"distance": {"text": "322 ft", "value": 98}, "duration": {"text": "1 min", "value": 77}, "end_location": {"lat": 29.8019199, "lng": -95.45428179999999}, "html_instructions": "Walk to 4400 W 18th St, Houston, TX 77092, USA", "polyline": {"points": "es{tDrlreQ?z@YEc@E?G@Q@a@"}, "start_location": {"lat": 29.8016264, "lng": -95.454342}, "steps": [{"distance": {"text": "95 ft", "value": 29}, "duration": {"text": "1 min", "value": 22}, "end_location": {"lat": 29.8016252, "lng": -95.45463819999999}, "html_instructions": "Head <b>west</b> on <b>W 18th St</b>/<wbr/><b>NW Mall</b>", "polyline": {"points": "es{tDrlreQ?z@"}, "start_location": {"lat": 29.8016264, "lng": -95.454342}, "travel_mode": "WALKING"}, {"distance": {"text": "131 ft", "value": 40}, "duration": {"text": "1 min", "value": 33}, "end_location": {"lat": 29.8019405, "lng": -95.4545788}, "html_instructions": "Turn <b>right</b><div style=\"font-size:0.9em\">Restricted usage road</div>", "maneuver": "turn-right", "polyline": {"points": "es{tDnnreQYEc@E"}, "start_location": {"lat": 29.8016252, "lng": -95.45463819999999}, "travel_mode": "WALKING"}, {"distance": {"text": "95 ft", "value": 29}, "duration": {"text": "1 min", "value": 22}, "end_location": {"lat": 29.8019199, "lng": -95.45428179999999}, "html_instructions": "Turn <b>right</b><div style=\"font-size:0.9em\">Restricted usage road</div><div style=\"font-size:0.9em\">Destination will be on the left</div>", "maneuver": "turn-right", "polyline": {"points": "cu{tDbnreQ?G@Q@a@"}, "start_location": {"lat": 29.8019405, "lng": -95.4545788}, "travel_mode": "WALKING"}], "travel_mode": "WALKING"}], "traffic_speed_entry": [], "via_waypoint": []}], "overview_polyline": {"points": "k{itDr~odQeA?S@?G?NqB?_C@aCFuCBsEDaF@cIHcBBsDJeDFcCBuDBgBAuFByLLaCHuABi@BgARYHaA\\kB`Ac@\\iAjAk@|@[n@g@|A@Po@|CqDrQkEjTgEbTwEzTcCfLMh@vAb@|CbAm@tCcAvEq@|CmBdJ}@jEOv@i@[aCs@YMLi@zC|@j@POv@a@~BWxA[jAy@nDq@zCMh@dBf@\\HlErA|C`A[zAQbACf@@|@J~@FXZv@z@pBH^RzAV~C@`C@rIIpBMhAmAjF]bB@B@BGTWlASbAiApFoBhJyErUaBjIShAGl@APu@xDs@dDMj@EFGJM`@oAjGc@vA_@bBWpAGVLFj@Vj@`@n@t@^t@v@vBGF@Ay@yB]u@QSFOLk@BMWKgA]GC@ECLWIyAi@[MuGsBwA_@wDiAyAo@gBiAc@]e@Ws@o@w@m@mAs@OKeBo@qA]cA_@cB_@iCw@}EaBkAe@kBmAuBgBs@u@_@]kCiBkDiCoBkAkA{@oCqBcEwCcDuBgBeAiEsC{EkDeE}Co@a@cCoAuB}@u@e@_D}AkFgCoDgB{BmAiAe@oAk@YGaBAgC@y@AaEIiFAsLC{H?uB?qBU}BYaA?}CHoCBaCDwAD_AJkALeFdAgBNo@BiPFwKBaDC_@CwBCCBC?C@{DBgFBeF?wIDc@@MDoBD{DVW?gHFs@Bq@DS?SHu@\\{@d@iAf@i@PmABaG@sID{CBW@_@KKEaA@w@@iA@mA?sB?{BH]HkB@gA?uF@qMJUGg@As@A_C?oACsFBcMD{FD_CBBzJFhWFl\\_BpAy@l@OWEK@QDGl@[FNGOp@s@RBJNA\\u@l@y@l@AzAr@A~CAvFC?LbKErCCjACv@Kh@EnCSpCOpFCvVKtFCb@?t@??n@@nE@zB?rALhI@nEMhDI~BO~AEb@]fBQt@a@|Ac@~B{@~Fu@xEQfAc@`Ds@dGiArKyAjL{@zGIr@OrAKdBCp@ArDDrFB|EJbQDbEIlBGvA@vDBxDB~HFlRDhP?dHAd@ErAYlBu@fDIp@OjDIvDMnEFfS@nIG~C?lCDxFN~B@dEAdDOrBEx@Aj@BjRG~@ETIr@Ax@?~ADfDBlEBrJJxWHpQ\\r`AJv_@?vH@vRBpNBd@Hf@Vv@\\n@`CtCx@z@v@`AFRj@~@V|@Hl@B^@lA?r@@pAIpB@~@?rB@`AAtB@jD@nE@`MBda@BzO?~OBrDAjB@~E@jDAxCA|H@xC@|GDlG?bBG??z@}@K@Y@a@"}, "summary": "", "warnings": ["Walking directions are in beta. Use caution \u2013 This route may be missing sidewalks or pedestrian paths."], "waypoint_order": []}, {"bounds": {"northeast": {"lat": 29.8026478, "lng": -95.27799499999999}, "southwest": {"lat": 29.7107769, "lng": -95.4593211}}, "copyrights": "Map data \u00a92022", "legs": [{"arrival_time": {"text": "4:35pm", "time_zone": "America/Chicago", "value": 1642026935}, "departure_time": {"text": "2:59pm", "time_zone": "America/Chicago", "value": 1642021165}, "distance": {"text": "16.6 mi", "value": 26776}, "duration": {"text": "1 hour 36 mins", "value": 5770}, "end_address": "4400 W 18th St, Houston, TX 77092, USA", "end_location": {"lat": 29.8019199, "lng": -95.45428179999999}, "start_address": "1601 Broadway St, Houston, TX 77012, USA", "start_location": {"lat": 29.7107769, "lng": -95.27801749999999}, "steps": [{"distance": {"text": "164 ft", "value": 50}, "duration": {"text": "1 min", "value": 36}, "end_location": {"lat": 29.7112301, "lng": -95.27802919999999}, "html_instructions": "Walk to Broadway St @ Brutus St", "polyline": {"points": "k{itDr~odQ_@?I?O?K?M@E?"}, "start_location": {"lat": 29.7107769, "lng": -95.27801749999999}, "steps": [{"distance": {"text": "164 ft", "value": 50}, "duration": {"text": "1 min", "value": 36}, "end_location": {"lat": 29.7112301, "lng": -95.27802919999999}, "html_instructions": "Head <b>north</b> on <b>Broadway St</b> toward <b>Brutus St</b>", "polyline": {"points": "k{itDr~odQ_@?I?O?K?M@E?"}, "start_location": {"lat": 29.7107769, "lng": -95.27801749999999}, "travel_mode": "WALKING"}], "travel_mode": "WALKING"}, {"distance": {"text": "1.6 mi", "value": 2629}, "duration": {"text": "5 mins", "value": 273}, "end_location": {"lat": 29.730762, "lng": -95.285929}, "html_instructions": "Bus towards Eastwood TC", "polyline": {"points": "e~itDl~odQ?NO@aBAk@AsABQ@u@@i@BO?o@@y@@O?[?_C@_@@e@?M@o@?{A@_@Au@@qC@[?kBDi@@_ABc@?aCFq@Bc@@Y@gA@_@@kA@G?M?C@O?A?K?A?S?G?G?c@@kB@w@?o@AkD@iA@oCBcEFU@oA?iAFw@@U?_ABG@a@@KB{@NC?MDGBWHi@R{@`@o@^CBIFCBQLc@b@ON?@UTSZILMRMVMVc@rACH?@?@?B@HI`@Kd@GXQz@Mr@Kd@G\\gAhFi@hCEXKd@Kf@CPa@nBI\\Ml@S~@KC"}, "start_location": {"lat": 29.711233, "lng": -95.27799499999999}, "transit_details": {"arrival_stop": {"location": {"lat": 29.730762, "lng": -95.285929}, "name": "Harrisburg Blvd @ 78th St"}, "arrival_time": {"text": "3:05pm", "time_zone": "America/Chicago", "value": 1642021535}, "departure_stop": {"location": {"lat": 29.711233, "lng": -95.27799499999999}, "name": "Broadway St @ Brutus St"}, "departure_time": {"text": "3:01pm", "time_zone": "America/Chicago", "value": 1642021262}, "headsign": "Eastwood TC", "line": {"agencies": [{"name": "Metropolitan Transit Authority of Harris County", "phone": "1 (713) 635-4000", "url": "http://www.ridemetro.org/"}], "color": "#004080", "name": "Broadway", "short_name": "50", "text_color": "#ffffff", "url": "https://www.ridemetro.org/MetroPDFs/Schedules/BusSchedules/n050-Broadway.pdf", "vehicle": {"icon": "//maps.gstatic.com/mapfiles/transit/iw2/6/bus2.png", "name": "Bus", "type": "BUS"}}, "num_stops": 9, "trip_short_name": "BROADWAY"}, "travel_mode": "TRANSIT"}, {"distance": {"text": "233 ft", "value": 71}, "duration": {"text": "1 min", "value": 51}, "end_location": {"lat": 29.7311839, "lng": -95.28599039999999}, "html_instructions": "Walk to 78th St @ Harrisburg Blvd", "polyline": {"points": "axmtDbpqdQMh@kA_@"}, "start_location": {"lat": 29.7307338, "lng": -95.2859404}, "steps": [{"distance": {"text": "69 ft", "value": 21}, "duration": {"text": "1 min", "value": 15}, "end_location": {"lat": 29.7307966, "lng": -95.2861456}, "html_instructions": "Head <b>west</b> on <b>Harrisburg Blvd</b> toward <b>N 78th St</b>", "polyline": {"points": "axmtDbpqdQMh@"}, "start_location": {"lat": 29.7307338, "lng": -95.2859404}, "travel_mode": "WALKING"}, {"distance": {"text": "164 ft", "value": 50}, "duration": {"text": "1 min", "value": 36}, "end_location": {"lat": 29.7311839, "lng": -95.28599039999999}, "html_instructions": "Turn <b>right</b> onto <b>N 78th St</b><div style=\"font-size:0.9em\">Destination will be on the right</div>", "maneuver": "turn-right", "polyline": {"points": "oxmtDlqqdQkA_@"}, "start_location": {"lat": 29.7307966, "lng": -95.2861456}, "travel_mode": "WALKING"}], "travel_mode": "WALKING"}, {"distance": {"text": "6.3 mi", "value": 10155}, "duration": {"text": "30 mins", "value": 1795}, "end_location": {"lat": 29.76296, "lng": -95.365387}, "html_instructions": "Bus towards Bellaire TC", "polyline": {"points": "wzmtD~oqdQCLwAa@y@YwBo@KEeCs@gCu@}Ag@o@SSGyC{@wBo@MEiCs@cA]aA[EOGWGQ}At@QJGDs@`@i@b@a@`@[^SVOTQXGJQ^KVi@~ACNENAFAL@TeA|EEVmA~FIX[zAhCx@rBl@PDfCt@fBj@^J`Cv@p@RXHd@Lf@NI^_@lBEPEPw@xDGXe@~B[|AMh@Sz@KZY`Ac@fBABAHERG\\IXMp@e@vBcAzEMj@[tAMj@g@xBkAhFI^Op@ETS|@yAbHELETKf@Sz@g@~BKb@I^S~@CHGXMj@YnAgA`FCLIb@]xAGXoAzFER}A`HI^GZCJERABAFKd@On@k@lCKh@g@xBS`AiAlFGXs@dDER{@tDMp@k@lCs@dDGTw@vD{@`EMj@i@fCKb@g@hCWjAMn@GTe@vBI^g@~BCPGVe@zBUfAWjAa@tBABi@lCK`@I^CLENCHWnAI`@_@dBUfAMr@ABGVk@dCCLEP_@fBKh@CLYnAUlAKf@EV[xAS|@[|ACJKb@]`BG\\Mh@Mj@CHM\\GPQZKLKLMLCBKJSP_@b@Wb@AB[l@cAnBIPIL{AtCELoAbCOXy@bBmAbCKP?@GLCDWf@[l@INc@z@Yh@IP{AtCaAjB[j@OXaB|CGLyArCwArCkAzBS^A@GDOTABYf@a@t@g@`Aa@v@IROZILMVQZGLGJ]n@M^N\\N^Nd@^hA|@pCNd@J^@BZ~@Nl@Hv@@V?ZAVEPGLIRA@S`@U^MTMVEV]v@EFEHGNKP[l@hAz@hAz@m@nAc@z@ABQ\\y@`Be@|@CFw@zAKREJKPO\\U`@KPSb@OVe@~@o@nAe@~@MTw@zAGJa@x@GHqAnCQ^OXs@tACH]l@MT}@`BQXINABEFABCFWf@k@lA_@r@ADOXA@EJOZKR]n@OZa@v@MVs@xAa@v@k@dAINIJJR`@h@FFtAbAbCfBGL"}, "start_location": {"lat": 29.731162, "lng": -95.285918}, "transit_details": {"arrival_stop": {"location": {"lat": 29.76296, "lng": -95.365387}, "name": "Smith St @ Prairie St"}, "arrival_time": {"text": "3:48pm", "time_zone": "America/Chicago", "value": 1642024080}, "departure_stop": {"location": {"lat": 29.731162, "lng": -95.285918}, "name": "78th St @ Harrisburg Blvd"}, "departure_time": {"text": "3:18pm", "time_zone": "America/Chicago", "value": 1642022285}, "headsign": "Bellaire TC", "line": {"agencies": [{"name": "Metropolitan Transit Authority of Harris County", "phone": "1 (713) 635-4000", "url": "http://www.ridemetro.org/"}], "color": "#004080", "name": "Canal / Memorial", "short_name": "20", "text_color": "#ffffff", "url": "https://www.ridemetro.org/MetroPDFs/Schedules/BusSchedules/n020-Canal-Memorial.pdf", "vehicle": {"icon": "//maps.gstatic.com/mapfiles/transit/iw2/6/bus2.png", "name": "Bus", "type": "BUS"}}, "num_stops": 46, "trip_short_name": "CANALMEM"}, "travel_mode": "TRANSIT"}, {"distance": {"text": "436 ft", "value": 133}, "duration": {"text": "2 mins", "value": 126}, "end_location": {"lat": 29.7621626, "lng": -95.36456489999999}, "html_instructions": "Walk to Louisiana St @ Prairie St", "polyline": {"points": "kattDn`aeQHFJFFMvAoCHSDMTN"}, "start_location": {"lat": 29.7629423, "lng": -95.3653571}, "steps": [{"distance": {"text": "36 ft", "value": 11}, "duration": {"text": "1 min", "value": 8}, "end_location": {"lat": 29.7627891, "lng": -95.3653745}, "html_instructions": "Head <b>southwest</b> on <b>Smith St</b> toward <b>Prairie St</b>", "polyline": {"points": "kattDn`aeQHFJFFM"}, "start_location": {"lat": 29.7629423, "lng": -95.3653571}, "travel_mode": "WALKING"}, {"distance": {"text": "341 ft", "value": 104}, "duration": {"text": "2 mins", "value": 95}, "end_location": {"lat": 29.7622658, "lng": -95.3644813}, "html_instructions": "Turn <b>left</b> onto <b>Prairie St</b>", "maneuver": "turn-left", "polyline": {"points": "m`ttDp`aeQvAoCHSDM"}, "start_location": {"lat": 29.7627891, "lng": -95.3653745}, "travel_mode": "WALKING"}, {"distance": {"text": "59 ft", "value": 18}, "duration": {"text": "1 min", "value": 23}, "end_location": {"lat": 29.7621626, "lng": -95.36456489999999}, "html_instructions": "Turn <b>right</b> onto <b>Louisiana St</b>", "maneuver": "turn-right", "polyline": {"points": "e}stD~z`eQTN"}, "start_location": {"lat": 29.7622658, "lng": -95.3644813}, "travel_mode": "WALKING"}], "travel_mode": "WALKING"}, {"distance": {"text": "8.1 mi", "value": 13000}, "duration": {"text": "31 mins", "value": 1848}, "end_location": {"lat": 29.801027, "lng": -95.45922999999999}, "html_instructions": "Bus towards SH 249", "polyline": {"points": "k|stDh{`eQGL[UqCqBAAqCqBa@v@k@dAINIJGHA@A@GJGDC@C@C@E?M?C?Q?M?ICIEAAEGC\\SdBGd@E^O`A?BM|@M|@EZOjAALGX?@?@CJALGl@?@A@?BAHAJAHShAETCJEPCHCLGVWdAKXQh@O`@GTGLS^IPS\\AB}@~AGFADABMv@EV?@OfAOnAEXAPGd@Gn@?XGrACb@Cr@Ev@ALEp@AVEv@ALGrAEt@G~@?BGdAATGlACj@ItACb@AT?TAFG`AATCb@GzAGtAMfCANGfA?DKtBAHMfCEbAANALCr@AVAr@Al@?d@CrAAx@Cx@?NCzBAJAz@Cv@GnAQvCEz@EbAM~B?HAp@C|@GjCCj@MtFGHAB?BALCb@Af@?R?TA`@A`@ARGt@AVGp@AXGz@KtBCZ?B?@@D?B@D@FGlACd@A`@GtACZA\\KfBG|@Ez@C`@C\\A`@El@El@Cb@CZCf@Cd@AREp@APIzACXANATALANAHC\\AZATC\\A`@IbBEp@ALCp@GfAG~@G~@Cj@AXCVAL?BCd@AL?NCl@Cd@El@Ab@Ev@ANMxCCXAXAXQtCCl@?z@@dA?|A@d@?~B@d@?N?zA?P?N@d@?b@?X?\\?^?X?N?j@?b@@`@?t@@j@?j@?N@`@?z@@dC?V@h@?RARAr@AJ?NAP?RCZAV?FCxA?XExACpAClACnAAj@CvAC|@?NA`@Ab@GxAAVIhAI|BEf@KnDEv@Cv@EpAGlACz@?DA`@APCvAAPCDABCHC`AAPAF@JC@A@A@A@A@A@?@CBc@FKDG@C?IBC@C@C@C@A@EBMLwAlAc@\\sAhA_Av@MJa@^sBbB_Av@QLq@h@IHKHOLw@p@w@n@]Z_@ZSPGFIFaAz@EBe@b@QRUVY\\q@~@s@`AOPGF?@o@v@?@CB}@hAQPKNYd@c@|@ILg@bAU`@IPA@S`@g@bAw@zAq@rA}AxCkA|Bc@v@IPYh@Uf@IP?`@?DCHI\\I`@I`@CVATARA^?\\Ar@?^@`@@@?b@?@@^@hB?f@?XCjA?D?XCXCZEVId@Ot@Ot@GVUfAAD{@`E?@Mj@?@K^[|AMn@Sx@On@I`@I^[xAGZMn@Mh@Kf@Qx@Qr@_@rBg@`DKl@Gd@CXMdA?BALGj@CXCVCXE`@IfAMzBE|AAr@AXC?Ar@CbDAjCCpF@l@@v@AzG~@@X?V?Z^?r@Ap@?bAAtA?R?d@?XEAw@B?u@@S?_@AcA@cA@w@@k@ZA^@DA`AAN??H?P?f@?j@?l@?d@JCF@D?DABA@CDIDSB[@g@BUBM@AN]FGJY@K?MCUCKCCA?OGQAGAE?E@GDQJOPMD[BY@W?aAAY@c@?AVAzAAb@?f@?L?ZAn@?`B?R?f@sBNO@Q@Y?W?K@wA@y@@K?u@?wA@U?O?}@@I?Y?_@?_@@oA@oD@eABM?A?a@?c@?qA@W?w@?cA@s@?c@@_@?uA@a@?OAY?q@@c@?_@?[@cA@a@?U?G?C?E?]@S?S@]@c@?}@@M?w@@]?mA@_B@W?E?e@Aa@EQEWG[OUM[QIG_@Ui@i@e@_@OQQQOMCCc@a@MR{A|BU\\W`@sBtCg@z@a@L{@vA]b@Sd@w@lAYh@OQ"}, "start_location": {"lat": 29.762139, "lng": -95.364532}, "transit_details": {"arrival_stop": {"location": {"lat": 29.801027, "lng": -95.45922999999999}, "name": "Hempstead Rd @ W 18th St"}, "arrival_time": {"text": "4:25pm", "time_zone": "America/Chicago", "value": 1642026348}, "departure_stop": {"location": {"lat": 29.762139, "lng": -95.364532}, "name": "Louisiana St @ Prairie St"}, "departure_time": {"text": "3:55pm", "time_zone": "America/Chicago", "value": 1642024500}, "headsign": "SH 249", "line": {"agencies": [{"name": "Metropolitan Transit Authority of Harris County", "phone": "1 (713) 635-4000", "url": "http://www.ridemetro.org/"}], "color": "#004080", "name": "Antoine / Washington", "short_name": "85", "text_color": "#ffffff", "url": "https://www.ridemetro.org/MetroPDFs/Schedules/BusSchedules/n085-Antoine-Washington.pdf", "vehicle": {"icon": "//maps.gstatic.com/mapfiles/transit/iw2/6/bus2.png", "name": "Bus", "type": "BUS"}}, "num_stops": 43, "trip_short_name": "ANTOINWAS"}, "travel_mode": "TRANSIT"}, {"distance": {"text": "0.5 mi", "value": 738}, "duration": {"text": "10 mins", "value": 587}, "end_location": {"lat": 29.8019199, "lng": -95.45428179999999}, "html_instructions": "Walk to 4400 W 18th St, Houston, TX 77092, USA", "polyline": {"points": "mo{tDdkseQKPKKKAK?I@IB?Q?aA?M?QAO?OM?M@M?mED@[Ae@?g@ASDKP]d@}@Xq@B]QOIIOMEKKAQUGGEIAE?C?A@C@EBEV_@KMNWHMJSRa@Ts@R}@Jy@Hy@?G@Q@a@"}, "start_location": {"lat": 29.8010254, "lng": -95.4592253}, "steps": [{"distance": {"text": "49 ft", "value": 15}, "duration": {"text": "1 min", "value": 11}, "end_location": {"lat": 29.8011512, "lng": -95.4592626}, "html_instructions": "Head <b>northwest</b>", "polyline": {"points": "mo{tDdkseQKPKK"}, "start_location": {"lat": 29.8010254, "lng": -95.4592253}, "travel_mode": "WALKING"}, {"distance": {"text": "102 ft", "value": 31}, "duration": {"text": "1 min", "value": 23}, "end_location": {"lat": 29.8013705, "lng": -95.4592806}, "html_instructions": "Turn <b>right</b> toward <b>W 18th St</b>", "maneuver": "turn-right", "polyline": {"points": "ep{tDjkseQKAK?I@IB"}, "start_location": {"lat": 29.8011512, "lng": -95.4592626}, "travel_mode": "WALKING"}, {"distance": {"text": "240 ft", "value": 73}, "duration": {"text": "1 min", "value": 61}, "end_location": {"lat": 29.8014508, "lng": -95.4585436}, "html_instructions": "Turn <b>right</b> onto <b>W 18th St</b>", "maneuver": "turn-right", "polyline": {"points": "qq{tDnkseQ?Q?aA?M?QAO?OM?"}, "start_location": {"lat": 29.8013705, "lng": -95.4592806}, "travel_mode": "WALKING"}, {"distance": {"text": "440 ft", "value": 134}, "duration": {"text": "2 mins", "value": 127}, "end_location": {"lat": 29.80261729999999, "lng": -95.45858140000001}, "html_instructions": "Turn <b>left</b> onto <b>Mangum Rd</b>", "maneuver": "turn-left", "polyline": {"points": "ar{tDzfseQM@M?mED"}, "start_location": {"lat": 29.8014508, "lng": -95.4585436}, "travel_mode": "WALKING"}, {"distance": {"text": "0.1 mi", "value": 168}, "duration": {"text": "2 mins", "value": 133}, "end_location": {"lat": 29.8021725, "lng": -95.45703209999999}, "html_instructions": "Turn <b>right</b>", "maneuver": "turn-right", "polyline": {"points": "ky{tDbgseQ@[Ae@?g@ASDKP]d@}@Xq@B]"}, "start_location": {"lat": 29.80261729999999, "lng": -95.45858140000001}, "travel_mode": "WALKING"}, {"distance": {"text": "348 ft", "value": 106}, "duration": {"text": "1 min", "value": 80}, "end_location": {"lat": 29.8024852, "lng": -95.4562641}, "html_instructions": "Turn <b>left</b><div style=\"font-size:0.9em\">Partial restricted usage road</div>", "maneuver": "turn-left", "polyline": {"points": "qv{tDl}reQQOIIOMEKKAQUGGEIAE?C?A@C@EBEV_@"}, "start_location": {"lat": 29.8021725, "lng": -95.45703209999999}, "travel_mode": "WALKING"}, {"distance": {"text": "33 ft", "value": 10}, "duration": {"text": "1 min", "value": 8}, "end_location": {"lat": 29.8025494, "lng": -95.456192}, "html_instructions": "Turn <b>left</b><div style=\"font-size:0.9em\">Restricted usage road</div>", "maneuver": "turn-left", "polyline": {"points": "qx{tDrxreQKM"}, "start_location": {"lat": 29.8024852, "lng": -95.4562641}, "travel_mode": "WALKING"}, {"distance": {"text": "0.1 mi", "value": 201}, "duration": {"text": "2 mins", "value": 144}, "end_location": {"lat": 29.8019199, "lng": -95.45428179999999}, "html_instructions": "Turn <b>right</b><div style=\"font-size:0.9em\">Restricted usage road</div><div style=\"font-size:0.9em\">Destination will be on the left</div>", "maneuver": "turn-right", "polyline": {"points": "}x{tDdxreQNWHMJSRa@Ts@R}@Jy@Hy@?G@Q@a@"}, "start_location": {"lat": 29.8025494, "lng": -95.456192}, "travel_mode": "WALKING"}], "travel_mode": "WALKING"}], "traffic_speed_entry": [], "via_waypoint": []}], "overview_polyline": {"points": "k{itDr~odQeA?S@?G?NqB?_C@aCFuCBsEDaF@cIHcBBsDJeDFcCBuDBgBAuFByLLaCHuABi@BgARYHaA\\kB`Ac@\\iAjAk@|@[n@g@|A@Po@|CqDrQ}@lES~@KCD@Mh@kA_@BMCLwAa@qDiAqCy@iHyBiLeDeCy@Mg@GQ}At@YPs@`@i@b@}@`A}@rA]v@m@nBGV?b@cDnO[zAhCx@dCr@nF`B`DbAxCz@wDbRa@dBe@|Am@hCaEjRmCtLyBdK{BfKkD|OoElSsCtMuH|]_G|X_DbOqAlGcA|EqBpJgClLcAfF_AjEs@hDg@dB]h@YZcAdAoFhK_GlLcH~MgLtTIFQXeCvEq@tA_AdBM^N\\^dAxB`H\\bAXdB@r@AVEPQ`@Ub@c@t@MVEVc@~@MXg@~@rCvBeBlD{CbGsB~DsFpKgD~GmBnDmBvDsB`EsBdEmA|BSZJR`@h@|AjAbCfBGLBEHFJFFM`BcDDMTNBEGLmDgCsCsBmA|BSZSXSJi@?WCKGEGC\\[jCc@bDm@nEOpAYhBS|@o@dCq@nBs@rAeAfBCHc@xC_@`DGn@GlBO|Ce@|Ie@zJObC_@hIm@vLIlDIlFGrEc@zIU~F]jNILAPEtBCbAIhAS~COvCDVo@jMeAdRcAjR{@tQYvFBdGB|J@rFDxKAdCC`AWhLMpGKnD[fG[pJMpDEhBEVELErA?REBGFCDo@LYFMFsIjHsDzCcAv@}ArAcFhEw@v@o@t@}BzCs@~@{AjBeDlGcK~R_@x@?f@a@jBI`B?rCBfA@pCCdB?^Gt@o@hDuBvJeCnLy@zDq@fDs@nEYhCQjBIz@WbEGpCAXC?EvEE|JBdBAzG~@@p@?Z^?r@AtBAhB?~@EAw@B@iAAcBB{B@k@ZAd@?pAA?nB?rARAPGJ]DcAFc@P_@Ra@@YGa@ECOGQAMAMFa@\\MD[Bq@@{A?c@?AVC~B?t@A`E?f@sBNa@BuCBsEBwGDeGDoD@{JBgHDyCDmJFgAGi@MwAw@_@Ui@i@u@q@iAeAwCpEsBtCg@z@a@L{@vA]b@Sd@qAvBOQKPKKWASD?sBA_@[@{ED?aAA{@Vi@~@oBB]QOYWEKKAY]GOBOZe@KMNWTa@Ra@Ts@R}@TsBB{@"}, "summary": "", "warnings": ["Walking directions are in beta. Use caution \u2013 This route may be missing sidewalks or pedestrian paths."], "waypoint_order": []}, {"bounds": {"northeast": {"lat": 29.8026478, "lng": -95.27801389999999}, "southwest": {"lat": 29.7107769, "lng": -95.4593211}}, "copyrights": "Map data \u00a92022", "legs": [{"arrival_time": {"text": "4:35pm", "time_zone": "America/Chicago", "value": 1642026935}, "departure_time": {"text": "3:02pm", "time_zone": "America/Chicago", "value": 1642021332}, "distance": {"text": "16.6 mi", "value": 26769}, "duration": {"text": "1 hour 33 mins", "value": 5603}, "end_address": "4400 W 18th St, Houston, TX 77092, USA", "end_location": {"lat": 29.8019199, "lng": -95.45428179999999}, "start_address": "1601 Broadway St, Houston, TX 77012, USA", "start_location": {"lat": 29.7107769, "lng": -95.27801749999999}, "steps": [{"distance": {"text": "0.4 mi", "value": 570}, "duration": {"text": "8 mins", "value": 467}, "end_location": {"lat": 29.7158055, "lng": -95.2780155}, "html_instructions": "Walk to Lawndale St @ Broadway St", "polyline": {"points": "k{itDr~odQ_@?I?O?K?M@U@aBCk@?sABK@O?]@Q?g@BM?o@@y@@O?K?Q?}CBe@?M@o@?sA@M?SAM?AU"}, "start_location": {"lat": 29.7107769, "lng": -95.27801749999999}, "steps": [{"distance": {"text": "0.3 mi", "value": 555}, "duration": {"text": "7 mins", "value": 446}, "end_location": {"lat": 29.7158019, "lng": -95.2781321}, "html_instructions": "Head <b>north</b> on <b>Broadway St</b> toward <b>Brutus St</b>", "polyline": {"points": "k{itDr~odQ_@?I?O?K?M@U@aBCk@?sABK@O?]@Q?g@BM?o@@y@@O?K?Q?}CBe@?M@o@?sA@M?SAM?"}, "start_location": {"lat": 29.7107769, "lng": -95.27801749999999}, "travel_mode": "WALKING"}, {"distance": {"text": "49 ft", "value": 15}, "duration": {"text": "1 min", "value": 21}, "end_location": {"lat": 29.7158055, "lng": -95.2780155}, "html_instructions": "Turn <b>right</b> onto <b>Lawndale St</b>", "maneuver": "turn-right", "polyline": {"points": "wzjtDh_pdQAU"}, "start_location": {"lat": 29.7158019, "lng": -95.2781321}, "travel_mode": "WALKING"}], "travel_mode": "WALKING"}, {"distance": {"text": "3.2 mi", "value": 5182}, "duration": {"text": "12 mins", "value": 720}, "end_location": {"lat": 29.73518199999999, "lng": -95.30304199999999}, "html_instructions": "Bus towards Magnolia Park TC", "polyline": {"points": "{zjtDr~odQHA@^Aj@?d@?d@BrA@tA@|C?p@Aj@Eh@APEXIp@CLERIZGXGLGRa@nAQf@KZSl@K`@GVGVCRCREPGb@C\\Eb@AVCXAn@Ab@@h@?lB@d@BvF@tB?`@@zABfD@lAA\\?^CXAVAF?LATERCRWpA?@[v@Od@K\\UfAC|@?h@?fAAV@r@@fC@dA?L?xA?T?|A?`@?\\?`A?d@?^Fd@?fA?Z?d@A^En@ALOhACDAJi@zAS`@OVe@p@KNcAvAa@h@k@t@W^UZ]d@aBzBiA|AkA~AQTgCfDi@`@yB~C[z@Wv@M^CFK\\[`AELIVM`@IXCHARGPGPyCzISn@oCjMKd@CLOt@uAa@k@Qk@UaAa@u@[m@Ow@OE?C?A@E@k@Oi@OKBw@SCAKCe@OaCs@QEy@WaA[cA[QEECc@My@UmA]GAAC?AACA?AAAAQGwEuAy@e@WOWIWKWIa@M]Km@QSGWOOIA?QM?@QK[YU[SWu@eBGUcA_DMUe@o@SWOOUSzAiHgA[m@UC?q@WOM?SHILEx@b@AH"}, "start_location": {"lat": 29.715818, "lng": -95.278016}, "transit_details": {"arrival_stop": {"location": {"lat": 29.73518199999999, "lng": -95.30304199999999}, "name": "Magnolia Park Transit Center"}, "arrival_time": {"text": "3:22pm", "time_zone": "America/Chicago", "value": 1642022520}, "departure_stop": {"location": {"lat": 29.715818, "lng": -95.278016}, "name": "Lawndale St @ Broadway St"}, "departure_time": {"text": "3:10pm", "time_zone": "America/Chicago", "value": 1642021800}, "headsign": "Magnolia Park TC", "line": {"agencies": [{"name": "Metropolitan Transit Authority of Harris County", "phone": "1 (713) 635-4000", "url": "http://www.ridemetro.org/"}], "color": "#004080", "name": "Manchester-Lawndale", "short_name": "38", "text_color": "#ffffff", "url": "https://www.ridemetro.org/MetroPDFs/Schedules/BusSchedules/n038-Manchester-Lawndale.pdf", "vehicle": {"icon": "//maps.gstatic.com/mapfiles/transit/iw2/6/bus2.png", "name": "Bus", "type": "BUS"}}, "num_stops": 13, "trip_short_name": "MANCHES"}, "travel_mode": "TRANSIT"}, {"distance": {"text": "299 ft", "value": 91}, "duration": {"text": "1 min", "value": 67}, "end_location": {"lat": 29.7357753, "lng": -95.30291960000001}, "html_instructions": "Walk to Magnolia Park Transit Center", "polyline": {"points": "usntDjztdQsA_@Mh@[M"}, "start_location": {"lat": 29.7351533, "lng": -95.3029449}, "steps": [{"distance": {"text": "161 ft", "value": 49}, "duration": {"text": "1 min", "value": 36}, "end_location": {"lat": 29.735574, "lng": -95.3027798}, "html_instructions": "Head <b>north</b> on <b>Magnolia Tc 4 Dr</b>", "polyline": {"points": "usntDjztdQsA_@"}, "start_location": {"lat": 29.7351533, "lng": -95.3029449}, "travel_mode": "WALKING"}, {"distance": {"text": "69 ft", "value": 21}, "duration": {"text": "1 min", "value": 15}, "end_location": {"lat": 29.73563609999999, "lng": -95.30298619999999}, "html_instructions": "Turn <b>left</b> toward <b>Magnolia Tc 1 Dr</b>", "maneuver": "turn-left", "polyline": {"points": "ivntDjytdQMh@"}, "start_location": {"lat": 29.735574, "lng": -95.3027798}, "travel_mode": "WALKING"}, {"distance": {"text": "69 ft", "value": 21}, "duration": {"text": "1 min", "value": 16}, "end_location": {"lat": 29.7357753, "lng": -95.30291960000001}, "html_instructions": "Turn <b>right</b> onto <b>Magnolia Tc 1 Dr</b>", "maneuver": "turn-right", "polyline": {"points": "wvntDtztdQ[M"}, "start_location": {"lat": 29.73563609999999, "lng": -95.30298619999999}, "travel_mode": "WALKING"}], "travel_mode": "WALKING"}, {"distance": {"text": "4.3 mi", "value": 6907}, "duration": {"text": "22 mins", "value": 1320}, "end_location": {"lat": 29.760969, "lng": -95.36625699999999}, "html_instructions": "Light rail towards Downtown", "polyline": {"points": "kxntD|ytdQBDi@jCMd@u@lCETGVYbB[bBOt@iApF]`BeA~E?@]~AcBfIa@tB]`BiAzFk@pCYlAEP_@`By@|DUv@Mh@UzAIf@Ib@i@bCKj@WjAaAxE_@fB?BECQv@UbAMn@[tAId@EPERIZGZI\\I\\I\\WdAKb@K`@I`@K`@UhACTANCRCRMn@EV[xAI\\I\\Qv@Qv@IZEVGXEVEXEd@CXCZA^Cf@Ez@Gz@CRARE\\C\\E`@EZYpCE^?@Gd@Ef@m@zFCTCTEZG\\EXGXETCNENEPGXGRuBhIIZKZK`@M^M`@Mb@O^M^gAzCADKVGPGRITGTEPGREPERKf@Qt@GREVGPIXEJEJENKRIPGLMTKT]n@Q\\[n@{@`Bo@nA_@t@INKPKPMTYf@S\\MVOTw@~AOTOPKPYj@KTIXIRe@z@MTKPMTSVMRMPSVuAbBWZo@v@KLMNKLKLMJKHC@KHs@d@OLKHMJ[XKJIHKLCBGHMPINKLIPINGNKTIRGRGRGTGXGVG`@Gf@EZAPAN?NAN?N?N?N?L@N?N@N@NJ`B@NLnB?N@RAN?NAHAJCNi@dAw@zACDCDCFq@pAYj@OVCHOVGLGNWl@GNINGPKPKRGPGNKNIJg@`AS`@S`@S^GNENAL?L@LBNFLFJf@n@FHFJDJBN@H?HCXGVOZYl@c@|@GLIN{@xACHQZoAdCa@v@aAlBEJeBdDS`@sAhC[l@_AnBGJ{@`Bm@lAMVg@`Ac@v@GNEHEHABc@v@a@x@_@r@cB|CEHsAjCQ\\u@zADD"}, "start_location": {"lat": 29.735905, "lng": -95.302872}, "transit_details": {"arrival_stop": {"location": {"lat": 29.760969, "lng": -95.36625699999999}, "name": "Theater District"}, "arrival_time": {"text": "3:48pm", "time_zone": "America/Chicago", "value": 1642024080}, "departure_stop": {"location": {"lat": 29.735905, "lng": -95.302872}, "name": "Magnolia Park Transit Center"}, "departure_time": {"text": "3:26pm", "time_zone": "America/Chicago", "value": 1642022760}, "headsign": "Downtown", "line": {"agencies": [{"name": "Metropolitan Transit Authority of Harris County", "phone": "1 (713) 635-4000", "url": "http://www.ridemetro.org/"}], "color": "#6d8428", "name": "Metrorail Green Line", "short_name": "Green", "text_color": "#ffffff", "url": "https://www.ridemetro.org/Pages/GreenLine.aspx", "vehicle": {"icon": "//maps.gstatic.com/mapfiles/transit/iw2/6/tram2.png", "name": "Light rail", "type": "TRAM"}}, "num_stops": 8}, "travel_mode": "TRANSIT"}, {"distance": {"text": "230 ft", "value": 70}, "duration": {"text": "1 min", "value": 63}, "end_location": {"lat": 29.7606014, "lng": -95.3658147}, "html_instructions": "Walk to Louisiana St @ Capitol St", "polyline": {"points": "gustD|eaeQb@}@NUFMRL"}, "start_location": {"lat": 29.7609995, "lng": -95.36623089999999}, "steps": [{"distance": {"text": "177 ft", "value": 54}, "duration": {"text": "1 min", "value": 41}, "end_location": {"lat": 29.7607388, "lng": -95.3658063}, "html_instructions": "Head <b>southeast</b> on <b>Capitol St</b> toward <b>Louisiana St</b>", "polyline": {"points": "gustD|eaeQb@}@NU"}, "start_location": {"lat": 29.7609995, "lng": -95.36623089999999}, "travel_mode": "WALKING"}, {"distance": {"text": "52 ft", "value": 16}, "duration": {"text": "1 min", "value": 22}, "end_location": {"lat": 29.7606014, "lng": -95.3658147}, "html_instructions": "Turn <b>right</b> onto <b>Louisiana St</b>", "maneuver": "turn-right", "polyline": {"points": "ssstDhcaeQFMRL"}, "start_location": {"lat": 29.7607388, "lng": -95.3658063}, "travel_mode": "WALKING"}], "travel_mode": "WALKING"}, {"distance": {"text": "8.2 mi", "value": 13211}, "duration": {"text": "32 mins", "value": 1896}, "end_location": {"lat": 29.801027, "lng": -95.45922999999999}, "html_instructions": "Bus towards SH 249", "polyline": {"points": "srstD`caeQILQMCCi@_@QMUQkA{@aCiB[UqCqBAAqCqBa@v@k@dAINIJGHA@A@GJGDC@C@C@E?M?C?Q?M?ICIEAAEGC\\SdBGd@E^O`A?BM|@M|@EZOjAALGX?@?@CJALGl@?@A@?BAHAJAHShAETCJEPCHCLGVWdAKXQh@O`@GTGLS^IPS\\AB}@~AGFADABMv@EV?@OfAOnAEXAPGd@Gn@?XGrACb@Cr@Ev@ALEp@AVEv@ALGrAEt@G~@?BGdAATGlACj@ItACb@AT?TAFG`AATCb@GzAGtAMfCANGfA?DKtBAHMfCEbAANALCr@AVAr@Al@?d@CrAAx@Cx@?NCzBAJAz@Cv@GnAQvCEz@EbAM~B?HAp@C|@GjCCj@MtFGHAB?BALCb@Af@?R?TA`@A`@ARGt@AVGp@AXGz@KtBCZ?B?@@D?B@D@FGlACd@A`@GtACZA\\KfBG|@Ez@C`@C\\A`@El@El@Cb@CZCf@Cd@AREp@APIzACXANATALANAHC\\AZATC\\A`@IbBEp@ALCp@GfAG~@G~@Cj@AXCVAL?BCd@AL?NCl@Cd@El@Ab@Ev@ANMxCCXAXAXQtCCl@?z@@dA?|A@d@?~B@d@?N?zA?P?N@d@?b@?X?\\?^?X?N?j@?b@@`@?t@@j@?j@?N@`@?z@@dC?V@h@?RARAr@AJ?NAP?RCZAV?FCxA?XExACpAClACnAAj@CvAC|@?NA`@Ab@GxAAVIhAI|BEf@KnDEv@Cv@EpAGlACz@?DA`@APCvAAPCDABCHC`AAPAF@JC@A@A@A@A@A@?@CBc@FKDG@C?IBC@C@C@C@A@EBMLwAlAc@\\sAhA_Av@MJa@^sBbB_Av@QLq@h@IHKHOLw@p@w@n@]Z_@ZSPGFIFaAz@EBe@b@QRUVY\\q@~@s@`AOPGF?@o@v@?@CB}@hAQPKNYd@c@|@ILg@bAU`@IPA@S`@g@bAw@zAq@rA}AxCkA|Bc@v@IPYh@Uf@IP?`@?DCHI\\I`@I`@CVATARA^?\\Ar@?^@`@@@?b@?@@^@hB?f@?XCjA?D?XCXCZEVId@Ot@Ot@GVUfAAD{@`E?@Mj@?@K^[|AMn@Sx@On@I`@I^[xAGZMn@Mh@Kf@Qx@Qr@_@rBg@`DKl@Gd@CXMdA?BALGj@CXCVCXE`@IfAMzBE|AAr@AXC?Ar@CbDAjCCpF@l@@v@AzG~@@X?V?Z^?r@Ap@?bAAtA?R?d@?XEAw@B?u@@S?_@AcA@cA@w@@k@ZA^@DA`AAN??H?P?f@?j@?l@?d@JCF@D?DABA@CDIDSB[@g@BUBM@AN]FGJY@K?MCUCKCCA?OGQAGAE?E@GDQJOPMD[BY@W?aAAY@c@?AVAzAAb@?f@?L?ZAn@?`B?R?f@sBNO@Q@Y?W?K@wA@y@@K?u@?wA@U?O?}@@I?Y?_@?_@@oA@oD@eABM?A?a@?c@?qA@W?w@?cA@s@?c@@_@?uA@a@?OAY?q@@c@?_@?[@cA@a@?U?G?C?E?]@S?S@]@c@?}@@M?w@@]?mA@_B@W?E?e@Aa@EQEWG[OUM[QIG_@Ui@i@e@_@OQQQOMCCc@a@MR{A|BU\\W`@sBtCg@z@a@L{@vA]b@Sd@w@lAYh@OQ"}, "start_location": {"lat": 29.760582, "lng": -95.365768}, "transit_details": {"arrival_stop": {"location": {"lat": 29.801027, "lng": -95.45922999999999}, "name": "Hempstead Rd @ W 18th St"}, "arrival_time": {"text": "4:25pm", "time_zone": "America/Chicago", "value": 1642026348}, "departure_stop": {"location": {"lat": 29.760582, "lng": -95.365768}, "name": "Louisiana St @ Capitol St"}, "departure_time": {"text": "3:54pm", "time_zone": "America/Chicago", "value": 1642024452}, "headsign": "SH 249", "line": {"agencies": [{"name": "Metropolitan Transit Authority of Harris County", "phone": "1 (713) 635-4000", "url": "http://www.ridemetro.org/"}], "color": "#004080", "name": "Antoine / Washington", "short_name": "85", "text_color": "#ffffff", "url": "https://www.ridemetro.org/MetroPDFs/Schedules/BusSchedules/n085-Antoine-Washington.pdf", "vehicle": {"icon": "//maps.gstatic.com/mapfiles/transit/iw2/6/bus2.png", "name": "Bus", "type": "BUS"}}, "num_stops": 44, "trip_short_name": "ANTOINWAS"}, "travel_mode": "TRANSIT"}, {"distance": {"text": "0.5 mi", "value": 738}, "duration": {"text": "10 mins", "value": 587}, "end_location": {"lat": 29.8019199, "lng": -95.45428179999999}, "html_instructions": "Walk to 4400 W 18th St, Houston, TX 77092, USA", "polyline": {"points": "mo{tDdkseQKPKKKAK?I@IB?Q?aA?M?QAO?OM?M@M?mED@[Ae@?g@ASDKP]d@}@Xq@B]QOIIOMEKKAQUGGEIAE?C?A@C@EBEV_@KMNWHMJSRa@Ts@R}@Jy@Hy@?G@Q@a@"}, "start_location": {"lat": 29.8010254, "lng": -95.4592253}, "steps": [{"distance": {"text": "49 ft", "value": 15}, "duration": {"text": "1 min", "value": 11}, "end_location": {"lat": 29.8011512, "lng": -95.4592626}, "html_instructions": "Head <b>northwest</b>", "polyline": {"points": "mo{tDdkseQKPKK"}, "start_location": {"lat": 29.8010254, "lng": -95.4592253}, "travel_mode": "WALKING"}, {"distance": {"text": "102 ft", "value": 31}, "duration": {"text": "1 min", "value": 23}, "end_location": {"lat": 29.8013705, "lng": -95.4592806}, "html_instructions": "Turn <b>right</b> toward <b>W 18th St</b>", "maneuver": "turn-right", "polyline": {"points": "ep{tDjkseQKAK?I@IB"}, "start_location": {"lat": 29.8011512, "lng": -95.4592626}, "travel_mode": "WALKING"}, {"distance": {"text": "240 ft", "value": 73}, "duration": {"text": "1 min", "value": 61}, "end_location": {"lat": 29.8014508, "lng": -95.4585436}, "html_instructions": "Turn <b>right</b> onto <b>W 18th St</b>", "maneuver": "turn-right", "polyline": {"points": "qq{tDnkseQ?Q?aA?M?QAO?OM?"}, "start_location": {"lat": 29.8013705, "lng": -95.4592806}, "travel_mode": "WALKING"}, {"distance": {"text": "440 ft", "value": 134}, "duration": {"text": "2 mins", "value": 127}, "end_location": {"lat": 29.80261729999999, "lng": -95.45858140000001}, "html_instructions": "Turn <b>left</b> onto <b>Mangum Rd</b>", "maneuver": "turn-left", "polyline": {"points": "ar{tDzfseQM@M?mED"}, "start_location": {"lat": 29.8014508, "lng": -95.4585436}, "travel_mode": "WALKING"}, {"distance": {"text": "0.1 mi", "value": 168}, "duration": {"text": "2 mins", "value": 133}, "end_location": {"lat": 29.8021725, "lng": -95.45703209999999}, "html_instructions": "Turn <b>right</b>", "maneuver": "turn-right", "polyline": {"points": "ky{tDbgseQ@[Ae@?g@ASDKP]d@}@Xq@B]"}, "start_location": {"lat": 29.80261729999999, "lng": -95.45858140000001}, "travel_mode": "WALKING"}, {"distance": {"text": "348 ft", "value": 106}, "duration": {"text": "1 min", "value": 80}, "end_location": {"lat": 29.8024852, "lng": -95.4562641}, "html_instructions": "Turn <b>left</b><div style=\"font-size:0.9em\">Partial restricted usage road</div>", "maneuver": "turn-left", "polyline": {"points": "qv{tDl}reQQOIIOMEKKAQUGGEIAE?C?A@C@EBEV_@"}, "start_location": {"lat": 29.8021725, "lng": -95.45703209999999}, "travel_mode": "WALKING"}, {"distance": {"text": "33 ft", "value": 10}, "duration": {"text": "1 min", "value": 8}, "end_location": {"lat": 29.8025494, "lng": -95.456192}, "html_instructions": "Turn <b>left</b><div style=\"font-size:0.9em\">Restricted usage road</div>", "maneuver": "turn-left", "polyline": {"points": "qx{tDrxreQKM"}, "start_location": {"lat": 29.8024852, "lng": -95.4562641}, "travel_mode": "WALKING"}, {"distance": {"text": "0.1 mi", "value": 201}, "duration": {"text": "2 mins", "value": 144}, "end_location": {"lat": 29.8019199, "lng": -95.45428179999999}, "html_instructions": "Turn <b>right</b><div style=\"font-size:0.9em\">Restricted usage road</div><div style=\"font-size:0.9em\">Destination will be on the left</div>", "maneuver": "turn-right", "polyline": {"points": "}x{tDdxreQNWHMJSRa@Ts@R}@Jy@Hy@?G@Q@a@"}, "start_location": {"lat": 29.8025494, "lng": -95.456192}, "travel_mode": "WALKING"}], "travel_mode": "WALKING"}], "traffic_speed_entry": [], "via_waypoint": []}], "overview_polyline": {"points": "k{itDr~odQeA?qD?eGLiJFcC?CUHA@^ApABxB@pIWfC[vAwB|GUpAS|BEvCF`OFrJGnBI~@[dB[x@[bAUfAC|@?pB?jABtH?rD?fBFdAAhDG|@SnAk@fBc@x@wCbEwBvCiGnIgCfDi@`@yB~C[z@e@vAOd@y@hCMb@Id@aDlJcDzNOr@Ot@uAa@wAg@wB}@eB_@I?GBuA_@KBw@SOEsFaBqIeCEImFaBqAu@o@UeCu@}@a@QKm@e@i@s@}@{BqAuDy@gAe@c@zAiHgA[q@Uq@WOM?SHILEx@b@AHDSsA_@Mh@s@WBDi@jCcArDMl@u@fEyAfHaCbLmFzWkBrIoAtFc@dCiAzFyBpKECQv@c@rBq@`De@rBy@hDo@bDWfBu@lDs@bDSjAe@nHw@`I_A~IWhBWnAkChKo@xBy@dC}AjE_@pAgAtE[`Ak@hAmFjKiDlG_@f@e@|@Un@o@nA{@tAeC`DaBpBq@p@sA~@aAz@a@d@m@`Ag@hA_@vA]|BE`AD|BZpFA|@EZaB`D}@dB}@dBo@zAi@fAe@|@cBdDM^AZD\\NXn@x@LVDXCb@Wr@}@jBqA`CeEfIsJhR}CfGkJrQDDEEr@sAFMRLBGILQMm@c@uFeEaI{FaBxCSXSJi@?WCKGEGC\\[jCc@bDm@nEOpAYhBS|@o@dCq@nBs@rAiApBc@xC_@`DGn@GlBO|Ce@|Ie@zJObC_@hIm@vLIlDIlFGrEc@zIU~F]jNILAPEtBMlCS~COvCDVo@jMc@xHu@vMaArRi@`LYvFBdGB|J@rFDxKAdCC`AWhLY`M[fG[pJMpDEhBEVK`B?REBGFCDo@LYFMFsIjHwFrE}ArAcFhEw@v@o@t@}BzCoCjDiPl[_@x@?f@a@jBI`B?rCBfA@pCCdBGtAo@hDuBvJeCnLy@zDq@fDs@nEYhCQjBa@~FGpCEXKtQBdBAzG~@@p@?Z^?r@AtBAhB?~@}@@?mDB{B@k@ZAd@?pAA?nB?rARAPGJ]DcAFc@P_@Ra@@YGa@ECa@IMAMFa@\\i@Hq@@{A?c@?AVC~B?t@A`E?f@sBNa@BuCBsEBwGDuLF{JBaMJmJFgAGi@MwAw@iA_Au@q@iAeAwCpE{CpEa@L{@vA]b@Sd@qAvBOQKPKKWASD?sBA_@[@{ED?aAA{@Vi@~@oBB]QOYWEKKAY]GOBOZe@KMNWTa@Ra@h@qBTsBB{@"}, "summary": "", "warnings": ["Walking directions are in beta. Use caution \u2013 This route may be missing sidewalks or pedestrian paths."], "waypoint_order": []}], "status": "OK"}