{"geocoded_waypoints": [{"geocoder_status": "OK", "place_id": "ChIJKw-QFcPpQIYRRNSVqEeCaa4", "types": ["establishment", "point_of_interest", "school"]}, {"geocoder_status": "OK", "place_id": "ChIJ9_tphxzHQIYRIMyPy_d3VZU", "types": ["establishment", "point_of_interest"]}], "routes": [{"bounds": {"northeast": {"lat": 29.803869, "lng": -95.4082861}, "southwest": {"lat": 29.6618263, "lng": -95.50888909999999}}, "copyrights": "Map data \u00a92022", "legs": [{"arrival_time": {"text": "4:49pm", "time_zone": "America/Chicago", "value": 1642027797}, "departure_time": {"text": "3:02pm", "time_zone": "America/Chicago", "value": 1642021378}, "distance": {"text": "17.2 mi", "value": 27702}, "duration": {"text": "1 hour 47 mins", "value": 6419}, "end_address": "4400 W 18th St, Houston, TX 77092, USA", "end_location": {"lat": 29.8019199, "lng": -95.45428179999999}, "start_address": "10901 Sandpiper Dr, Houston, TX 77096, USA", "start_location": {"lat": 29.6618263, "lng": -95.5034187}, "steps": [{"distance": {"text": "0.4 mi", "value": 628}, "duration": {"text": "8 mins", "value": 463}, "end_location": {"lat": 29.6626102, "lng": -95.50837059999999}, "html_instructions": "Walk to Fondren Rd @ Bankside Dr", "polyline": {"points": "mi`tDj_|eQcAl@KFQFYJKDODK@K@Q?s@@@lA?dB?|AF@BBB@@@?@@F@J@d@@|@?JAXUA@zC@R@P@NBPBRDVF\\BFFf@@T@P@T@R?XXAH?"}, "start_location": {"lat": 29.6618263, "lng": -95.5034187}, "steps": [{"distance": {"text": "482 ft", "value": 147}, "duration": {"text": "2 mins", "value": 106}, "end_location": {"lat": 29.663057, "lng": -95.50388099999999}, "html_instructions": "Head <b>northwest</b> on <b>Sandpiper Dr</b> toward <b>Bankside Dr</b>", "polyline": {"points": "mi`tDj_|eQcAl@KFQFYJKDODK@K@Q?s@@"}, "start_location": {"lat": 29.6618263, "lng": -95.5034187}, "travel_mode": "WALKING"}, {"distance": {"text": "433 ft", "value": 132}, "duration": {"text": "2 mins", "value": 99}, "end_location": {"lat": 29.6630459, "lng": -95.5052522}, "html_instructions": "Turn <b>left</b> onto <b>Bankside Dr</b>", "maneuver": "turn-left", "polyline": {"points": "cq`tDfb|eQ@lA?dB?|A"}, "start_location": {"lat": 29.663057, "lng": -95.50388099999999}, "travel_mode": "WALKING"}, {"distance": {"text": "292 ft", "value": 89}, "duration": {"text": "1 min", "value": 65}, "end_location": {"lat": 29.6629338, "lng": -95.50610209999999}, "html_instructions": "Turn <b>left</b> toward <b>Bankside Dr</b>", "maneuver": "turn-left", "polyline": {"points": "aq`tDxj|eQF@BBB@@@?@@F@J@d@@|@?JAX"}, "start_location": {"lat": 29.6630459, "lng": -95.5052522}, "travel_mode": "WALKING"}, {"distance": {"text": "39 ft", "value": 12}, "duration": {"text": "1 min", "value": 9}, "end_location": {"lat": 29.6630383, "lng": -95.5060924}, "html_instructions": "Turn <b>right</b> toward <b>Bankside Dr</b>", "maneuver": "turn-right", "polyline": {"points": "ip`tDbp|eQUA"}, "start_location": {"lat": 29.6629338, "lng": -95.50610209999999}, "travel_mode": "WALKING"}, {"distance": {"text": "0.1 mi", "value": 228}, "duration": {"text": "3 mins", "value": 169}, "end_location": {"lat": 29.6627883, "lng": -95.50837949999999}, "html_instructions": "Turn <b>left</b> onto <b>Bankside Dr</b>", "maneuver": "turn-left", "polyline": {"points": "_q`tD`p|eQ@zC@R@P@NBPBRDVF\\BFFf@@T@P@T@R?X"}, "start_location": {"lat": 29.6630383, "lng": -95.5060924}, "travel_mode": "WALKING"}, {"distance": {"text": "66 ft", "value": 20}, "duration": {"text": "1 min", "value": 15}, "end_location": {"lat": 29.6626102, "lng": -95.50837059999999}, "html_instructions": "Turn <b>left</b> onto <b>Fondren Rd</b>", "maneuver": "turn-left", "polyline": {"points": "mo`tDj~|eQXAH?"}, "start_location": {"lat": 29.6627883, "lng": -95.50837949999999}, "travel_mode": "WALKING"}], "travel_mode": "WALKING"}, {"distance": {"text": "1.7 mi", "value": 2684}, "duration": {"text": "8 mins", "value": 468}, "end_location": {"lat": 29.686624, "lng": -95.508606}, "html_instructions": "Bus towards Westheimer Rd", "polyline": {"points": "in`tDh~|eQ?FI?Y@yA@y@DW?mACcAAm@?aB@K?}A?aABwBBkB?S?wBAyBAw@BoB@]?cA?y@?cB@[@g@AeEBo@?g@@}D@]As@@aB@mA?_@@g@@q@@qA?[?o@A]?Q?W?aB@kC?_D@sA@kE@sB?m@@O?G?_D@_@?aD@Y?g@?_C@Y@iC?[?W@mB@}B?I@eB@Q?Y?c@??Q"}, "start_location": {"lat": 29.66261, "lng": -95.508369}, "transit_details": {"arrival_stop": {"location": {"lat": 29.686624, "lng": -95.508606}, "name": "Fondren Rd @ Bissonnet St"}, "arrival_time": {"text": "3:19pm", "time_zone": "America/Chicago", "value": 1642022340}, "departure_stop": {"location": {"lat": 29.66261, "lng": -95.508369}, "name": "Fondren Rd @ Bankside Dr"}, "departure_time": {"text": "3:11pm", "time_zone": "America/Chicago", "value": 1642021872}, "headsign": "Westheimer Rd", "line": {"agencies": [{"name": "Metropolitan Transit Authority of Harris County", "phone": "1 (713) 635-4000", "url": "http://www.ridemetro.org/"}], "color": "#004080", "name": "Fondren", "short_name": "63", "text_color": "#ffffff", "url": "https://www.ridemetro.org/MetroPDFs/Schedules/BusSchedules/n063-Fondren.pdf", "vehicle": {"icon": "//maps.gstatic.com/mapfiles/transit/iw2/6/bus2.png", "name": "Bus", "type": "BUS"}}, "num_stops": 9, "trip_short_name": "FONDREN"}, "travel_mode": "TRANSIT"}, {"distance": {"text": "285 ft", "value": 87}, "duration": {"text": "1 min", "value": 84}, "end_location": {"lat": 29.6866274, "lng": -95.50888909999999}, "html_instructions": "Walk to Bissonnet St @ Fondren Rd", "polyline": {"points": "gdetDb_}eQRFDDBD?Jy@?FPDJFN"}, "start_location": {"lat": 29.6865967, "lng": -95.50850469999999}, "steps": [{"distance": {"text": "95 ft", "value": 29}, "duration": {"text": "1 min", "value": 21}, "end_location": {"lat": 29.6864469, "lng": -95.5086608}, "html_instructions": "Head <b>south</b> toward <b>Fondren Rd</b>", "polyline": {"points": "gdetDb_}eQRFDDBD?J"}, "start_location": {"lat": 29.6865967, "lng": -95.50850469999999}, "travel_mode": "WALKING"}, {"distance": {"text": "115 ft", "value": 35}, "duration": {"text": "1 min", "value": 26}, "end_location": {"lat": 29.6866951, "lng": -95.5087466}, "html_instructions": "Turn <b>right</b> onto <b>Fondren Rd</b>", "maneuver": "turn-right", "polyline": {"points": "icetDb`}eQy@?FP"}, "start_location": {"lat": 29.6864469, "lng": -95.5086608}, "travel_mode": "WALKING"}, {"distance": {"text": "75 ft", "value": 23}, "duration": {"text": "1 min", "value": 37}, "end_location": {"lat": 29.6866274, "lng": -95.50888909999999}, "html_instructions": "Cross the road", "polyline": {"points": "{detDt`}eQDJFN"}, "start_location": {"lat": 29.6866951, "lng": -95.5087466}, "travel_mode": "WALKING"}], "travel_mode": "WALKING"}, {"distance": {"text": "6.8 mi", "value": 10878}, "duration": {"text": "30 mins", "value": 1800}, "end_location": {"lat": 29.7254958, "lng": -95.41073010000001}, "html_instructions": "Bus towards Wheeler TC", "polyline": {"points": "mdetDfa}eQIDACEOGMmAyCM]Ui@ISO_@qA{CgAoCm@wAw@kBi@oAWo@Qc@Qa@M_@MWOc@KWEI[u@OYAEc@aAACq@eBk@uAQa@e@mAYq@O_@GM[w@M[IQOa@Qa@Sg@Ug@O]Sg@O[o@gBQ]Uk@q@aBQ_@Sg@gAoCKUk@wA?AMWe@mAYq@KYiAmCIOMY[o@CGSk@IQOa@Mc@Wo@q@aBk@sAIQ}@qBc@iAEKs@iBQa@Si@aAwBMWe@gAYs@k@uAM[[u@_A}BCEWu@EIWo@m@yAk@sA]w@IUIS?AGQGMUk@KU}@yB}@{B]y@GMGQEGEM[u@MYQe@c@cA[y@ISo@}Aa@aAWm@q@aBm@{Am@wA_@}@O_@Wo@EIQa@k@{AKWgAkCUi@[s@IUWq@Se@]y@Yu@Ug@CG]y@GOYo@Sg@M]MYCECECEMOIOKYa@cAKYc@eAO_@Wo@c@gA?q@?m@?q@?kA?Q?iAC{B?k@@IM_@OYCMAu@EmA\\G\\U@w@@]S?eA@g@?q@?K?S?yA?q@@q@?_@?]w@Qc@MYa@aAMW]y@Sg@GOUi@Um@Sg@Ui@GOw@kBIUWo@m@wAKYc@gAqA}CWm@CIQ_@i@wA]u@O[Qi@EUCICKQa@Uu@Wi@?AEG?AAE_AwBa@eA[u@CEOQiAkC?AIS_@{@CIcBaEaAcCO]EKKWYq@o@{AIQoCyGQe@]y@e@iAM][w@GMWo@KYO_@Qc@MWk@sAKYg@kAeAkCUg@M[c@gAMYEMO]M[CGWk@aAcCEIi@sAQc@wBiFg@qA]y@M[g@mA_@}@wAmDUi@EKEKCQEW_A}BUe@AEc@aAGCCACGMUAEGQEMCEHAGSm@uAQc@a@cAUm@a@cAc@gAGQk@qAWk@]u@k@uAYs@IWKUKWIQEMM[ACc@gA_@}@Qc@Yq@{BqFmAuCWi@KYGQI[CSC[?SAY?gA?K@WC}B?_B?Q?s@?q@AK?iA?OAgCA{ACkC?_A?U?_@A{E?i@CkH?KC}FCuDAsA?UA}CAaC?KAuDA}A?m@?k@Ag@G]?cAAO?K?a@?W?a@?cAAk@?a@?_AAsAAyA?yAAOAyA?_@AiB?cAAuB?E?_@E{KN?"}, "start_location": {"lat": 29.686633, "lng": -95.50883900000001}, "transit_details": {"arrival_stop": {"location": {"lat": 29.7254958, "lng": -95.41073010000001}, "name": "Bissonnet St @ S Shepherd Dr"}, "arrival_time": {"text": "3:59pm", "time_zone": "America/Chicago", "value": 1642024740}, "departure_stop": {"location": {"lat": 29.686633, "lng": -95.50883900000001}, "name": "Bissonnet St @ Fondren Rd"}, "departure_time": {"text": "3:29pm", "time_zone": "America/Chicago", "value": 1642022940}, "headsign": "Wheeler TC", "line": {"agencies": [{"name": "Metropolitan Transit Authority of Harris County", "phone": "1 (713) 635-4000", "url": "http://www.ridemetro.org/"}], "color": "#004080", "name": "Bissonnet", "short_name": "65", "text_color": "#ffffff", "url": "https://www.ridemetro.org/MetroPDFs/Schedules/BusSchedules/n065-Bissonnet.pdf", "vehicle": {"icon": "//maps.gstatic.com/mapfiles/transit/iw2/6/bus2.png", "name": "Bus", "type": "BUS"}}, "num_stops": 41, "trip_short_name": "BISSONNET"}, "travel_mode": "TRANSIT"}, {"distance": {"text": "164 ft", "value": 50}, "duration": {"text": "1 min", "value": 45}, "end_location": {"lat": 29.7253171, "lng": -95.41048599999999}, "html_instructions": "Walk to S Shepherd Dr @ Bissonnet St", "polyline": {"points": "swltD`|ieQA_@?Ol@?"}, "start_location": {"lat": 29.72554409999999, "lng": -95.41073209999999}, "steps": [{"distance": {"text": "66 ft", "value": 20}, "duration": {"text": "1 min", "value": 14}, "end_location": {"lat": 29.7255475, "lng": -95.41048649999999}, "html_instructions": "Head <b>east</b> on <b>Bissonnet St</b> toward <b>S Shepherd Dr</b>", "polyline": {"points": "swltD`|ieQA_@?O"}, "start_location": {"lat": 29.72554409999999, "lng": -95.41073209999999}, "travel_mode": "WALKING"}, {"distance": {"text": "98 ft", "value": 30}, "duration": {"text": "1 min", "value": 31}, "end_location": {"lat": 29.7253171, "lng": -95.41048599999999}, "html_instructions": "Turn <b>right</b> onto <b>S Shepherd Dr</b>", "maneuver": "turn-right", "polyline": {"points": "uwltDpzieQl@?"}, "start_location": {"lat": 29.7255475, "lng": -95.41048649999999}, "travel_mode": "WALKING"}], "travel_mode": "WALKING"}, {"distance": {"text": "5.5 mi", "value": 8876}, "duration": {"text": "22 mins", "value": 1320}, "end_location": {"lat": 29.803613, "lng": -95.41008699999999}, "html_instructions": "Bus towards N Shepherd P&R", "polyline": {"points": "gvltDjzieQ?Ls@?iD@yB?S?c@@gB?oCBU@eB@e@?]?eA?S?O?U?aA?i@@A?[?A?Y@k@?]?m@?W?iD@c@@aA@eADcAAQ?aA?S@c@?U@y@Ao@AgB?cA@sA?cA@Q?iD@wA?u@@e@?c@?M?_A@]?y@?y@@Y?K?y@@O?s@?y@?eB@cA?y@@O?K?W?I?c@?E?}ABE?q@?gA?]Aa@G[GSCg@AS@M?Y?a@?m@?_A?c@@S?sC@gA@iA?kD?iB?_@?[?Y?q@@gB?{@?Y@qA?eA?I?uD@i@@_A?Q?O?{@?m@?M?g@@y@@g@@Q?[?{@?OGEAGCEEGCECECGEY[OYEKCECGEQ_AuCAEEIQe@IQCEACGIEGEGGIIIEEOKGEQKMEk@Oo@@M?{@?WIgB?KEC?SAYAU?IA]?SAeA?S?g@AcA@EBIFKFA@CBIHCDGHGXQ@aAJa@Da@DC?}AL]D]DK@KEA?A?I?G?M?MAAAA?C?AAE?CAA?OCC?AAM?WA[FE@E@c@HG@YD_@HeAPKBw@TgABW?C?W?k@@_A@K?[@SBe@Dc@@SBa@?eA@[?M?eA@c@?e@?]?_@@Y?k@?M?qCBg@?Q?M@U?e@?M?qCB]?w@@_@?E@W?e@?mB@gA?k@@]?qB@c@@a@CE@e@@m@?S@kA?cA@aCBM?oC@eA@oA@Y?[?O?a@Bm@?U?o@?e@@I?A?A?y@?M@YAS@O?_@@w@@y@?]?M?YAMAMCOEYIIAa@Kc@Ku@QGACAm@MAAOCIAK?OAM?M?A?I?O?S@M@IBc@Jq@P}@Vg@Jk@Ji@Hc@Be@DE?c@Bs@ByABA?oCBYA}B@I?A?q@@K?E?k@?C?O@u@?S?k@@w@@K?a@?O?[@U?U?U?k@@k@?Y@C?I?S?kC@y@@K?W@[?S?A?W?G?U@S?c@?e@@O?E?[?mCBeA@U?Y?S?U@A?S?aA@_@?e@@Q?S?U?s@?C?W?qB@sB@eBBg@?oBBaGBq@@w@?aB@i@@W@_B@yA@aB@Q?qD@U@gB?eB@eBA_A@?K"}, "start_location": {"lat": 29.7253163, "lng": -95.4104565}, "transit_details": {"arrival_stop": {"location": {"lat": 29.803613, "lng": -95.41008699999999}, "name": "N Shepherd Dr @ W 20th St"}, "arrival_time": {"text": "4:29pm", "time_zone": "America/Chicago", "value": 1642026540}, "departure_stop": {"location": {"lat": 29.7253163, "lng": -95.4104565}, "name": "S Shepherd Dr @ Bissonnet St"}, "departure_time": {"text": "4:07pm", "time_zone": "America/Chicago", "value": 1642025220}, "headsign": "N Shepherd P&R", "line": {"agencies": [{"name": "Metropolitan Transit Authority of Harris County", "phone": "1 (713) 635-4000", "url": "http://www.ridemetro.org/"}], "color": "#004080", "name": "Shepherd", "short_name": "27", "text_color": "#ffffff", "url": "https://www.ridemetro.org/MetroPDFs/Schedules/BusSchedules/n027-Shepherd.pdf", "vehicle": {"icon": "//maps.gstatic.com/mapfiles/transit/iw2/6/bus2.png", "name": "Bus", "type": "BUS"}}, "num_stops": 38, "trip_short_name": "SHEPHERD"}, "travel_mode": "TRANSIT"}, {"distance": {"text": "112 ft", "value": 34}, "duration": {"text": "1 min", "value": 34}, "end_location": {"lat": 29.803842, "lng": -95.41002979999999}, "html_instructions": "Walk to W 20th St @ N Shepherd Dr", "polyline": {"points": "q_|tDdxieQ_@@M??Q"}, "start_location": {"lat": 29.8036121, "lng": -95.410111}, "steps": [{"distance": {"text": "69 ft", "value": 21}, "duration": {"text": "1 min", "value": 15}, "end_location": {"lat": 29.8038391, "lng": -95.4101207}, "html_instructions": "Head <b>north</b> on <b>N Shepherd Dr</b> toward <b>W 20th St</b>", "polyline": {"points": "q_|tDdxieQ_@@M?"}, "start_location": {"lat": 29.8036121, "lng": -95.410111}, "travel_mode": "WALKING"}, {"distance": {"text": "43 ft", "value": 13}, "duration": {"text": "1 min", "value": 19}, "end_location": {"lat": 29.803842, "lng": -95.41002979999999}, "html_instructions": "Turn <b>right</b> onto <b>W 20th St</b>", "maneuver": "turn-right", "polyline": {"points": "_a|tDfxieQ?Q"}, "start_location": {"lat": 29.8038391, "lng": -95.4101207}, "travel_mode": "WALKING"}], "travel_mode": "WALKING"}, {"distance": {"text": "2.7 mi", "value": 4367}, "duration": {"text": "10 mins", "value": 582}, "end_location": {"lat": 29.80163, "lng": -95.454342}, "html_instructions": "Bus towards Memorial City", "polyline": {"points": "ea|tDvwieQJ?@V?fA@`ABfE?tABtJ?pB@rA?r@?H?|@?jB?@?j@@h@AL?\\?J@f@?|B?h@?|@?n@?N?|G?J@tE?d@@dC?p@AL@J?V@P@H?B?D@F@HBH@JDPDLDLDHDJDJHLFHFHLL?@TVTVn@v@NRh@h@NPVX^f@BJBFBFf@v@P`@DZDVBT@F?D@F?H?P@P?X?N?F?j@@pAIpB@f@?V?fA?j@?V@h@AjA?h@@~@?b@@^Af@@d@?X?bA?jA?b@@nC?J?d@Aj@?v@?P@dB?jA?bC?`A?\\@dH?`D?dC@fE?jD?T@`F@vB?jD?vC?X?`E@V@zCAb@?fAAX@fB@fA?T@|B?l@A~A?x@?XAzB?`A?dB?l@?P?F?H@^?Z?@?H?@?Z?h@?f@?j@?^?t@@j@BnAAV@|@@fB?bBG?"}, "start_location": {"lat": 29.803869, "lng": -95.410039}, "transit_details": {"arrival_stop": {"location": {"lat": 29.80163, "lng": -95.454342}, "name": "W 18th St @ Northwest Fwy"}, "arrival_time": {"text": "4:48pm", "time_zone": "America/Chicago", "value": 1642027720}, "departure_stop": {"location": {"lat": 29.803869, "lng": -95.410039}, "name": "W 20th St @ N Shepherd Dr"}, "departure_time": {"text": "4:38pm", "time_zone": "America/Chicago", "value": 1642027138}, "headsign": "Memorial City", "line": {"agencies": [{"name": "Metropolitan Transit Authority of Harris County", "phone": "1 (713) 635-4000", "url": "http://www.ridemetro.org/"}], "color": "#004080", "name": "Long Point / Cavalcade", "short_name": "26", "text_color": "#ffffff", "url": "https://www.ridemetro.org/MetroPDFs/Schedules/BusSchedules/n026-Long-Point-Cavalcade.pdf", "vehicle": {"icon": "//maps.gstatic.com/mapfiles/transit/iw2/6/bus2.png", "name": "Bus", "type": "BUS"}}, "num_stops": 14, "trip_short_name": "LONGPOINT"}, "travel_mode": "TRANSIT"}, {"distance": {"text": "322 ft", "value": 98}, "duration": {"text": "1 min", "value": 77}, "end_location": {"lat": 29.8019199, "lng": -95.45428179999999}, "html_instructions": "Walk to 4400 W 18th St, Houston, TX 77092, USA", "polyline": {"points": "es{tDrlreQ?z@YEc@E?G@Q@a@"}, "start_location": {"lat": 29.8016264, "lng": -95.454342}, "steps": [{"distance": {"text": "95 ft", "value": 29}, "duration": {"text": "1 min", "value": 22}, "end_location": {"lat": 29.8016252, "lng": -95.45463819999999}, "html_instructions": "Head <b>west</b> on <b>W 18th St</b>/<wbr/><b>NW Mall</b>", "polyline": {"points": "es{tDrlreQ?z@"}, "start_location": {"lat": 29.8016264, "lng": -95.454342}, "travel_mode": "WALKING"}, {"distance": {"text": "131 ft", "value": 40}, "duration": {"text": "1 min", "value": 33}, "end_location": {"lat": 29.8019405, "lng": -95.4545788}, "html_instructions": "Turn <b>right</b><div style=\"font-size:0.9em\">Restricted usage road</div>", "maneuver": "turn-right", "polyline": {"points": "es{tDnnreQYEc@E"}, "start_location": {"lat": 29.8016252, "lng": -95.45463819999999}, "travel_mode": "WALKING"}, {"distance": {"text": "95 ft", "value": 29}, "duration": {"text": "1 min", "value": 22}, "end_location": {"lat": 29.8019199, "lng": -95.45428179999999}, "html_instructions": "Turn <b>right</b><div style=\"font-size:0.9em\">Restricted usage road</div><div style=\"font-size:0.9em\">Destination will be on the left</div>", "maneuver": "turn-right", "polyline": {"points": "cu{tDbnreQ?G@Q@a@"}, "start_location": {"lat": 29.8019405, "lng": -95.4545788}, "travel_mode": "WALKING"}], "travel_mode": "WALKING"}], "traffic_speed_entry": [], "via_waypoint": []}], "overview_polyline": {"points": "mi`tDj_|eQoAt@k@Rs@NeA@@rD?|AF@FDDVBbBAd@UA@zCBd@NlATbBDtAb@A?Fc@@yA@y@DeBCqBAmGDcFBkCA_IB}FBmF@wA@qJBgED{DAwG@yWHcQDcMFBg@XLBPy@?FPLZ?IIDGSuAgD}@{B_GoN}CyHs@_BcCaG}CuHkAsCcBiE_GqNmAyCmBqE}@uB]eAiAqCwCaH_BaEoCkGuCeH{DqJwDmJuBeFsG}OeEeKcC_GcBgEiCiGYa@cAgCoB}E?}ECcG@IM_@Sg@GcC\\G\\UBuAyA@yB?}E@gDaIwDkJgGgOm@qAQi@EUGUg@wA]u@_CyFSWiAmCqC{GgI_SkDwIkJcUoIwSuDcJKWCQEW_A}BWk@c@aAGCGI]{@CEHAu@iBkByEoBwEmBwEg@mAsAeDuF}Mc@cAQm@Go@Am@AiF?wEIkPEqQIsOGoTAg@G]AsA?gBGiNK_ZN?G?Ao@l@??E?Ls@?cH@w@@sJFoH@qD@gHDiCBsA?gC@oH?eNDgUHqCB}CA}@O{@E}A@wRDoLBcNB_D@oCB{@?OGMEYQa@a@Ue@mAuDc@gAS[]a@WQ_@Qk@Oo@@iA?WIgB?OEmAEkCAkB?OJ[VKNGXQ@cBPe@DeDZYEc@AAASC{@GsEx@cAX_BBgCBaBJw@DgB@sC@}B@oIDyIF_GB}D@wOJaIFkDB{FBu@GuA]eBa@iAUw@Ao@@WDuA\\eBb@uATsBLmCFqCBcD?oB@mEDmOJ{NHyEDeMFoSLuRJkE?_A@?K?B_@@M??QE@J?@~AHtU@zM@nJB|W@bABZLp@Vp@^l@x@~@hBtBf@j@^f@BJFNf@v@P`@Jr@D\\@h@@bA@|BIpB@f@?~A?bA?tB@hB@pC?zLBdWDvd@@jKA`HDbIA`F?tK?bEDpE@`HG??z@YEc@E?GBs@"}, "summary": "", "warnings": ["Walking directions are in beta. Use caution \u2013 This route may be missing sidewalks or pedestrian paths."], "waypoint_order": []}, {"bounds": {"northeast": {"lat": 29.803817, "lng": -95.45426839999999}, "southwest": {"lat": 29.6567869, "lng": -95.5034187}}, "copyrights": "Map data \u00a92022", "legs": [{"arrival_time": {"text": "4:51pm", "time_zone": "America/Chicago", "value": 1642027884}, "departure_time": {"text": "3:05pm", "time_zone": "America/Chicago", "value": 1642021547}, "distance": {"text": "15.0 mi", "value": 24125}, "duration": {"text": "1 hour 46 mins", "value": 6337}, "end_address": "4400 W 18th St, Houston, TX 77092, USA", "end_location": {"lat": 29.8019199, "lng": -95.45428179999999}, "start_address": "10901 Sandpiper Dr, Houston, TX 77096, USA", "start_location": {"lat": 29.6618263, "lng": -95.5034187}, "steps": [{"distance": {"text": "1.0 mi", "value": 1682}, "duration": {"text": "21 mins", "value": 1273}, "end_location": {"lat": 29.6568218, "lng": -95.4919182}, "html_instructions": "Walk to Hillcroft Ave @ Bellfort Ave", "polyline": {"points": "mi`tDj_|eQHEPKPGRIZGRG\\E\\Cf@ATAFEBC@EBM?]?mAAaCAyBjCATAnF?H?t@AR?nAAz@Ab@?NAPALCJCLCLEFC[yAGUCMG[E[K}@E[Io@AWAc@G_B?U?iA?k@?mA?eBA{CA{AAo@?uB?uA?W?{CEuG?O?U?QP?P?P?X@D?L?"}, "start_location": {"lat": 29.6618263, "lng": -95.5034187}, "steps": [{"distance": {"text": "466 ft", "value": 142}, "duration": {"text": "2 mins", "value": 101}, "end_location": {"lat": 29.6606073, "lng": -95.50305619999999}, "html_instructions": "Head <b>southeast</b> on <b>Sandpiper Dr</b> toward <b>Portal Dr</b>", "polyline": {"points": "mi`tDj_|eQHEPKPGRIZGRG\\E\\Cf@ATAFE"}, "start_location": {"lat": 29.6618263, "lng": -95.5034187}, "travel_mode": "WALKING"}, {"distance": {"text": "0.1 mi", "value": 186}, "duration": {"text": "2 mins", "value": 135}, "end_location": {"lat": 29.66057799999999, "lng": -95.50114119999999}, "html_instructions": "<b>Sandpiper Dr</b> turns <b>left</b> and becomes <b>Portal Dr</b>", "polyline": {"points": "ya`tDb}{eQBC@EBM?]?mAAaCAyB"}, "start_location": {"lat": 29.6606073, "lng": -95.50305619999999}, "travel_mode": "WALKING"}, {"distance": {"text": "0.3 mi", "value": 428}, "duration": {"text": "5 mins", "value": 314}, "end_location": {"lat": 29.6567869, "lng": -95.50096309999999}, "html_instructions": "Turn <b>right</b> onto <b>Bob White Dr</b>", "maneuver": "turn-right", "polyline": {"points": "sa`tDbq{eQjCATAnF?H?t@AR?nAAz@Ab@?NAPALCJCLCLEFC"}, "start_location": {"lat": 29.66057799999999, "lng": -95.50114119999999}, "travel_mode": "WALKING"}, {"distance": {"text": "0.5 mi", "value": 876}, "duration": {"text": "11 mins", "value": 655}, "end_location": {"lat": 29.6572296, "lng": -95.4919123}, "html_instructions": "Turn <b>left</b> onto <b>W Bellfort Ave</b>", "maneuver": "turn-left", "polyline": {"points": "}i_tD~o{eQ[yAGUCMG[E[K}@E[Io@AWAc@G_B?U?iA?k@?mA?eBA{CA{AAo@?uB?uA?W?{CEuG?O?U?QP?"}, "start_location": {"lat": 29.6567869, "lng": -95.50096309999999}, "travel_mode": "WALKING"}, {"distance": {"text": "164 ft", "value": 50}, "duration": {"text": "1 min", "value": 68}, "end_location": {"lat": 29.6568218, "lng": -95.4919182}, "html_instructions": "Turn <b>right</b> onto <b>Hillcroft Ave</b>", "maneuver": "turn-right", "polyline": {"points": "ul_tDlwyeQP?P?X@D?L?"}, "start_location": {"lat": 29.6572296, "lng": -95.4919123}, "travel_mode": "WALKING"}], "travel_mode": "WALKING"}, {"distance": {"text": "11.4 mi", "value": 18419}, "duration": {"text": "57 mins", "value": 3420}, "end_location": {"lat": 29.783077, "lng": -95.455467}, "html_instructions": "Bus towards Northwest TC", "polyline": {"points": "cj_tDfwyeQ?NM?E?c@?a@AY?W?]?eB?{AAc@?G?E?c@@G?a@?Y?uBAm@@]?UAKAK?O@K@I@Y?q@?eA@u@?q@?qB@aA@A?G?M?o@@{@?Y@e@?mJBS?O?}@@S?yA?e@@Q?w@BsBLc@?C?Y?a@@[@cD@qC@S?m@@sCDgAHcAHUDWDu@N{@TuAj@IBy@^E@}@`@e@Na@L_@L_APc@HKBUDa@DqBJY?G?Q?e@Ag@AS?OAa@E]EC?KAKAQCe@I[GWGOGMEMIy@Wa@KiA[QGYI]GWCQCYEA?QAq@AaBAiC?a@?yA?k@?U@iD?}CDkC?S?kB@s@EcAK[Gc@GC?WC_@Ki@I]ESAg@Ec@Aa@AqA?gA@Y?S@e@?Y?w@?s@Bs@F}@HeAT_AR]Dm@JUBO@o@BW@gABQ@A?O?gB?mB@Q@yB@}@?w@@mA@g@?g@AK?U@u@AY?Q?_AAi@CUAo@CK?UAM?y@CWAa@?e@A}@@aB?U?mA@Q@I?_A?m@?Y@uC?O?oC@Q?cC@K?K?I?qA@kB?oCBO?iA@]?O?q@@qA@[@m@@U?_@@{AAsA@oBBU@O?UAm@A_A@eA?e@@M?M?c@@u@@C?G?MAi@AM@yA@q@@C?]BoALYFSDu@PeA^EBs@\\_@ROJSLIFQLIFa@\\UTmAxAs@x@]\\KLQR?@ONCD_@h@WZe@l@KNSTUXQPMNMPWXOTIJ_@b@iArAKNQRKLg@l@_@\\YVWVc@j@IJIJQRMPKJABQRABA?A@GHEFCBWZ[\\SV[^q@x@MN_@X[PMHULSJYJUFkAVMDUDQDs@FY@S@uAD_C?mABaA?mA?mBB_A?S?A?g@?cDBaB?M?Y@{A?c@?gA@a@@c@?qA?u@?i@?o@@m@?wA@mA@o@?A?s@@w@?_B@kBB_A?q@@_@?eA@i@?]?m@@[?a@?s@@aA@aAAeABS?y@@i@Ag@AG?QAu@CKAKA_@GMCSEKCk@IKCUAIAKAKAI?a@EMAGCC?KAO?MAa@?S?{@@C?i@@cA?_@@m@?a@?eB?}@?I?WAgA@Y@aAA{ABcA?I?sC@]?kA@_@?E?C?K?yABo@?MAkCBw@@g@?a@?YA]?M?i@@]?O@q@?I?m@?gA@{BBiE?iBB{A@eE?}ADG?yABW?WA_@@a@?sA?kA?gBAk@@sA@]@y@@o@?k@?GIAAC?MEGAEAMEICSIKEGEQK[Oa@m@CC[e@IMS[?AEIEIKWWy@WsAe@aCUoAES_@qBGYKk@o@mDQ}@GUCOY{AScAI]y@qE]gBY{A]kBUgAG_@i@uCk@{CKg@ACGe@G[Gi@?CGo@AOASc@iFC_@WuCG}@CUC[AWW{CEc@Ku@I[GSISIQOYQW[c@iAmAwAiBc@i@{@{@QSm@o@gAsACE_@c@SYyAaBi@k@IKs@w@s@y@KM]a@WYq@_AKQGKAAO[O]Qs@CEEYCSC_@C_@Aa@?S?Q?y@Ay@?uA?ICcEAcD?]AaFC}DCY@Y@O?S@G?G@IB[Fc@F[Nk@JYLa@FQNc@Ja@He@Ho@B]B_@@S@Y?Y?g@?Y?aB@W@SFw@F_@?AH_@Tu@Tg@b@w@LW@?Pc@FQJUFUHWBMFYBS@E@G@Q?IBS?Q@M?OAq@?i@?]AoAAwB?AAY?KAEA]?CAICOE[Kc@Ma@CGGOGQEGIOEISYUYCCYYa@g@QS?AOQIMMYA?Wk@I[IYIc@?CEWCUCQCe@KyAI{@CQEQEOKYUs@Ue@}AiDUi@KW_@y@QLSBY@c@?u@@m@@eCB}DDsCAK?U?}B@_A@yA@wEBeBBU?e@AW?cDBI?K?k@?U@?o@?WAO?qAA_@?UY@oA?]?A?A?G?G?SAEAWAO?Y?c@?c@@gA@a@?kB@c@@aB@m@@}@?kB?c@??RiA?eBDcB?kA@sA@A??@gA?gFDkHBQ?i@Sw@CSKISGOB_B?yA?i@BeCX?V?\\A^?\\?@?b@?BXQ^?f@?j@?d@W?"}, "start_location": {"lat": 29.65682, "lng": -95.49188199999999}, "transit_details": {"arrival_stop": {"location": {"lat": 29.783077, "lng": -95.455467}, "name": "Northwest Transit Center - South Platform"}, "arrival_time": {"text": "4:24pm", "time_zone": "America/Chicago", "value": 1642026240}, "departure_stop": {"location": {"lat": 29.65682, "lng": -95.49188199999999}, "name": "Hillcroft Ave @ Bellfort Ave"}, "departure_time": {"text": "3:27pm", "time_zone": "America/Chicago", "value": 1642022820}, "headsign": "Northwest TC", "line": {"agencies": [{"name": "Metropolitan Transit Authority of Harris County", "phone": "1 (713) 635-4000", "url": "http://www.ridemetro.org/"}], "color": "#004080", "name": "Hillcroft", "short_name": "47", "text_color": "#ffffff", "url": "https://www.ridemetro.org/MetroPDFs/Schedules/BusSchedules/n047-Hillcroft.pdf", "vehicle": {"icon": "//maps.gstatic.com/mapfiles/transit/iw2/6/bus2.png", "name": "Bus", "type": "BUS"}}, "num_stops": 58, "trip_short_name": "HILLCROFT"}, "travel_mode": "TRANSIT"}, {"distance": {"text": "0.2 mi", "value": 263}, "duration": {"text": "3 mins", "value": 192}, "end_location": {"lat": 29.7837801, "lng": -95.4554653}, "html_instructions": "Walk to Northwest Transit Center - North Platform", "polyline": {"points": "_}wtDtqreQDUBODIK@]MMMECOKICKAK@E?U?E?_@@m@?AxAAX?f@"}, "start_location": {"lat": 29.7827161, "lng": -95.4551537}, "steps": [{"distance": {"text": "121 ft", "value": 37}, "duration": {"text": "1 min", "value": 26}, "end_location": {"lat": 29.78264219999999, "lng": -95.4549134}, "html_instructions": "Head <b>east</b>", "polyline": {"points": "_}wtDtqreQDUBODI"}, "start_location": {"lat": 29.7827161, "lng": -95.4551537}, "travel_mode": "WALKING"}, {"distance": {"text": "482 ft", "value": 147}, "duration": {"text": "2 mins", "value": 109}, "end_location": {"lat": 29.7837613, "lng": -95.45468609999999}, "html_instructions": "Sharp <b>left</b> toward <b>Old Katy Rd</b>", "maneuver": "turn-sharp-left", "polyline": {"points": "o|wtDdpreQK@]MMMECOKICKAK@E?U?E?_@@m@?"}, "start_location": {"lat": 29.78264219999999, "lng": -95.4549134}, "travel_mode": "WALKING"}, {"distance": {"text": "259 ft", "value": 79}, "duration": {"text": "1 min", "value": 57}, "end_location": {"lat": 29.7837801, "lng": -95.4554653}, "html_instructions": "Turn <b>left</b> onto <b>Old Katy Rd</b>", "maneuver": "turn-left", "polyline": {"points": "ocxtDxnreQAxAAX?f@"}, "start_location": {"lat": 29.7837613, "lng": -95.45468609999999}, "travel_mode": "WALKING"}], "travel_mode": "WALKING"}, {"distance": {"text": "2.0 mi", "value": 3143}, "duration": {"text": "9 mins", "value": 523}, "end_location": {"lat": 29.803817, "lng": -95.458625}, "html_instructions": "Bus towards Dacoma Shuttle", "polyline": {"points": "w~wtDvwreQRwAF@D?DABA@CDIDSB[@g@BUBM@AN]FGJY@K?MCUCKCCA?OGQAGAE?E@GDQJOPMD[BY@W?aAAY@c@?AVAzAAb@?f@?L?ZAn@?`B?R?f@sBNO@Q@Y?W?K@wA@y@@K?u@?wA@U?O?}@@I?Y?_@?_@@oA@oD@eABM?A?a@?c@?qA@W?w@?cA@s@?c@@_@?uA@a@?OAY?q@@c@?_@?[@cA@a@?U?G?C?E?]@S?S@]@c@?}@@M?w@@]?mA@_B@W?E?e@Aa@EQEWG[OUM[QIG_@Ui@i@e@_@OQQQOMCCc@a@MR{A|BU\\W`@sBtCg@z@a@L{@vA]b@Sd@w@lAYh@OVk@r@Yj@EsB?]@aAAU?a@[@uEDaA@gAD_A@e@??I"}, "start_location": {"lat": 29.7830001, "lng": -95.4561157}, "transit_details": {"arrival_stop": {"location": {"lat": 29.803817, "lng": -95.458625}, "name": "Mangum Rd @ W 20th St"}, "arrival_time": {"text": "4:43pm", "time_zone": "America/Chicago", "value": 1642027423}, "departure_stop": {"location": {"lat": 29.7830001, "lng": -95.4561157}, "name": "Northwest Transit Center - North Platform"}, "departure_time": {"text": "4:35pm", "time_zone": "America/Chicago", "value": 1642026900}, "headsign": "Dacoma Shuttle", "line": {"agencies": [{"name": "Metropolitan Transit Authority of Harris County", "phone": "1 (713) 635-4000", "url": "http://www.ridemetro.org/"}], "color": "#004080", "name": "Dacoma", "short_name": "89", "text_color": "#ffffff", "url": "https://www.ridemetro.org/MetroPDFs/Schedules/BusSchedules/n089-Dacoma.pdf", "vehicle": {"icon": "//maps.gstatic.com/mapfiles/transit/iw2/6/bus2.png", "name": "Bus", "type": "BUS"}}, "num_stops": 9, "trip_short_name": "DACOMA"}, "travel_mode": "TRANSIT"}, {"distance": {"text": "0.4 mi", "value": 618}, "duration": {"text": "8 mins", "value": 461}, "end_location": {"lat": 29.8019199, "lng": -95.45428179999999}, "html_instructions": "Walk to 4400 W 18th St, Houston, TX 77092, USA", "polyline": {"points": "{`|tDlgseQd@A~@AdACbAA@[Ae@?g@ASDKP]d@}@Xq@B]QOIIOMEKKAQUGGEIAE?C?A@C@EBEV_@KMNWHMJSRa@Ts@R}@Jy@Hy@?G@Q@a@"}, "start_location": {"lat": 29.8038169, "lng": -95.458628}, "steps": [{"distance": {"text": "436 ft", "value": 133}, "duration": {"text": "2 mins", "value": 96}, "end_location": {"lat": 29.80261729999999, "lng": -95.45858140000001}, "html_instructions": "Head <b>south</b> on <b>Mangum Rd</b>", "polyline": {"points": "{`|tDlgseQd@A~@AdACbAA"}, "start_location": {"lat": 29.8038169, "lng": -95.458628}, "travel_mode": "WALKING"}, {"distance": {"text": "0.1 mi", "value": 168}, "duration": {"text": "2 mins", "value": 133}, "end_location": {"lat": 29.8021725, "lng": -95.45703209999999}, "html_instructions": "Turn <b>left</b>", "maneuver": "turn-left", "polyline": {"points": "ky{tDbgseQ@[Ae@?g@ASDKP]d@}@Xq@B]"}, "start_location": {"lat": 29.80261729999999, "lng": -95.45858140000001}, "travel_mode": "WALKING"}, {"distance": {"text": "348 ft", "value": 106}, "duration": {"text": "1 min", "value": 80}, "end_location": {"lat": 29.8024852, "lng": -95.4562641}, "html_instructions": "Turn <b>left</b><div style=\"font-size:0.9em\">Partial restricted usage road</div>", "maneuver": "turn-left", "polyline": {"points": "qv{tDl}reQQOIIOMEKKAQUGGEIAE?C?A@C@EBEV_@"}, "start_location": {"lat": 29.8021725, "lng": -95.45703209999999}, "travel_mode": "WALKING"}, {"distance": {"text": "33 ft", "value": 10}, "duration": {"text": "1 min", "value": 8}, "end_location": {"lat": 29.8025494, "lng": -95.456192}, "html_instructions": "Turn <b>left</b><div style=\"font-size:0.9em\">Restricted usage road</div>", "maneuver": "turn-left", "polyline": {"points": "qx{tDrxreQKM"}, "start_location": {"lat": 29.8024852, "lng": -95.4562641}, "travel_mode": "WALKING"}, {"distance": {"text": "0.1 mi", "value": 201}, "duration": {"text": "2 mins", "value": 144}, "end_location": {"lat": 29.8019199, "lng": -95.45428179999999}, "html_instructions": "Turn <b>right</b><div style=\"font-size:0.9em\">Restricted usage road</div><div style=\"font-size:0.9em\">Destination will be on the left</div>", "maneuver": "turn-right", "polyline": {"points": "}x{tDdxreQNWHMJSRa@Ts@R}@Jy@Hy@?G@Q@a@"}, "start_location": {"lat": 29.8025494, "lng": -95.456192}, "travel_mode": "WALKING"}], "travel_mode": "WALKING"}], "traffic_speed_entry": [], "via_waypoint": []}], "overview_polyline": {"points": "mi`tDj_|eQ`Ac@n@Oz@I|@CJIDS?kBC{F`DCbIA~DEx@MTIc@oBKi@QyAOkAC{@GuB?uBCkLAsGEwM?QP?b@?^@L??G?NM?i@?qBAmFAoH@a@C[@aBByJDkDBoMDeD@kDPg@?{FDgJHkCRm@Ju@N{@T_Bn@_A`@cBp@aAZcBZa@HsCPyAAmBIy@IkB]eBo@wCy@aBUgDEqH?iNF_C@s@EcAK_AO[CiAUq@GkAGsBA{CBqA?gBJ}@HeAT}AXcAN_ADsBFuPHqB?aDCqFQgF?uBByMBcOF{IH{B?cEDe@@cACyDBkBBmAAmDFiBTiAVkAb@sAp@_An@aAz@qEjFiBbCiApAgEhFs@z@y@t@oAzAeAnAgD`Em@h@i@Zi@Xo@RaCh@mAHiBF}IBcEB}OFmLDwNHkID}FDmA@qAC{AGmASyASk@E{@KkACqHDeEAaBB}C@_G@uB@cD@mGDoB?iB@{LDeEDeE?}ADaBBo@AaF@sC?qBBiB@k@?GIEAUGq@UaAg@kAeB_@q@c@qA}@uEcAoFuAmHkEoUqCgOsAaPQgC]_EUqAQg@Yk@m@{@aDwD_BeB_AcA_CwCwHuIgA_B_@y@Uy@Im@G_AAu@?kAE}IGaRAs@@c@Fu@N_AZeAp@yBRuAF}@BoBBgDNwAHa@Tu@Tg@p@oAf@kA\\uAHs@D}@AiCEcFCs@WyAa@kAi@{@uA_Bk@u@OYa@gAYyAWgDMmAKa@a@mAsBoEa@aA_@y@QLm@DyA@sDD}DDsCAa@?}DBmLHkF@w@?U@?o@Ag@AqB?UY@mB?S?aAEiDBsGD{F@?RiA?iED_DBA@mRHi@Sw@CSKISGOB_B?cCBeCX?t@AbB?BXQ^?rA?d@W?fA_ADUHYK@]MSQYOs@?e@@m@?AxAA`AzC`CRwAL@HCFMHo@D}@DOVe@Le@Cc@GOQGYCK@YPOPMDu@DwC?E~DAzD?z@cCPoABsEB_HDsIFyC@cKDaHBkCDkKFk@As@Ks@Wq@_@i@]oAiAu@u@c@a@MRqBzCkCvDg@z@a@L{@vA]b@Sd@w@lAi@`Ak@r@Yj@EqC?wA?a@[@wGFgCFe@??Id@?dCEbAA@[AmAB_@v@{AXq@B][YUYKAQUMQAIFQV_@KMXe@^u@Ts@^wBHaABs@"}, "summary": "", "warnings": ["Walking directions are in beta. Use caution \u2013 This route may be missing sidewalks or pedestrian paths."], "waypoint_order": []}, {"bounds": {"northeast": {"lat": 29.8026444, "lng": -95.45426839999999}, "southwest": {"lat": 29.6567869, "lng": -95.5034187}}, "copyrights": "Map data \u00a92022", "legs": [{"arrival_time": {"text": "4:49pm", "time_zone": "America/Chicago", "value": 1642027775}, "departure_time": {"text": "3:05pm", "time_zone": "America/Chicago", "value": 1642021547}, "distance": {"text": "14.8 mi", "value": 23780}, "duration": {"text": "1 hour 44 mins", "value": 6228}, "end_address": "4400 W 18th St, Houston, TX 77092, USA", "end_location": {"lat": 29.8019199, "lng": -95.45428179999999}, "start_address": "10901 Sandpiper Dr, Houston, TX 77096, USA", "start_location": {"lat": 29.6618263, "lng": -95.5034187}, "steps": [{"distance": {"text": "1.0 mi", "value": 1682}, "duration": {"text": "21 mins", "value": 1273}, "end_location": {"lat": 29.6568218, "lng": -95.4919182}, "html_instructions": "Walk to Hillcroft Ave @ Bellfort Ave", "polyline": {"points": "mi`tDj_|eQHEPKPGRIZGRG\\E\\Cf@ATAFEBC@EBM?]?mAAaCAyBjCATAnF?H?t@AR?nAAz@Ab@?NAPALCJCLCLEFC[yAGUCMG[E[K}@E[Io@AWAc@G_B?U?iA?k@?mA?eBA{CA{AAo@?uB?uA?W?{CEuG?O?U?QP?P?P?X@D?L?"}, "start_location": {"lat": 29.6618263, "lng": -95.5034187}, "steps": [{"distance": {"text": "466 ft", "value": 142}, "duration": {"text": "2 mins", "value": 101}, "end_location": {"lat": 29.6606073, "lng": -95.50305619999999}, "html_instructions": "Head <b>southeast</b> on <b>Sandpiper Dr</b> toward <b>Portal Dr</b>", "polyline": {"points": "mi`tDj_|eQHEPKPGRIZGRG\\E\\Cf@ATAFE"}, "start_location": {"lat": 29.6618263, "lng": -95.5034187}, "travel_mode": "WALKING"}, {"distance": {"text": "0.1 mi", "value": 186}, "duration": {"text": "2 mins", "value": 135}, "end_location": {"lat": 29.66057799999999, "lng": -95.50114119999999}, "html_instructions": "<b>Sandpiper Dr</b> turns <b>left</b> and becomes <b>Portal Dr</b>", "polyline": {"points": "ya`tDb}{eQBC@EBM?]?mAAaCAyB"}, "start_location": {"lat": 29.6606073, "lng": -95.50305619999999}, "travel_mode": "WALKING"}, {"distance": {"text": "0.3 mi", "value": 428}, "duration": {"text": "5 mins", "value": 314}, "end_location": {"lat": 29.6567869, "lng": -95.50096309999999}, "html_instructions": "Turn <b>right</b> onto <b>Bob White Dr</b>", "maneuver": "turn-right", "polyline": {"points": "sa`tDbq{eQjCATAnF?H?t@AR?nAAz@Ab@?NAPALCJCLCLEFC"}, "start_location": {"lat": 29.66057799999999, "lng": -95.50114119999999}, "travel_mode": "WALKING"}, {"distance": {"text": "0.5 mi", "value": 876}, "duration": {"text": "11 mins", "value": 655}, "end_location": {"lat": 29.6572296, "lng": -95.4919123}, "html_instructions": "Turn <b>left</b> onto <b>W Bellfort Ave</b>", "maneuver": "turn-left", "polyline": {"points": "}i_tD~o{eQ[yAGUCMG[E[K}@E[Io@AWAc@G_B?U?iA?k@?mA?eBA{CA{AAo@?uB?uA?W?{CEuG?O?U?QP?"}, "start_location": {"lat": 29.6567869, "lng": -95.50096309999999}, "travel_mode": "WALKING"}, {"distance": {"text": "164 ft", "value": 50}, "duration": {"text": "1 min", "value": 68}, "end_location": {"lat": 29.6568218, "lng": -95.4919182}, "html_instructions": "Turn <b>right</b> onto <b>Hillcroft Ave</b>", "maneuver": "turn-right", "polyline": {"points": "ul_tDlwyeQP?P?X@D?L?"}, "start_location": {"lat": 29.6572296, "lng": -95.4919123}, "travel_mode": "WALKING"}], "travel_mode": "WALKING"}, {"distance": {"text": "11.4 mi", "value": 18419}, "duration": {"text": "57 mins", "value": 3420}, "end_location": {"lat": 29.783077, "lng": -95.455467}, "html_instructions": "Bus towards Northwest TC", "polyline": {"points": "cj_tDfwyeQ?NM?E?c@?a@AY?W?]?eB?{AAc@?G?E?c@@G?a@?Y?uBAm@@]?UAKAK?O@K@I@Y?q@?eA@u@?q@?qB@aA@A?G?M?o@@{@?Y@e@?mJBS?O?}@@S?yA?e@@Q?w@BsBLc@?C?Y?a@@[@cD@qC@S?m@@sCDgAHcAHUDWDu@N{@TuAj@IBy@^E@}@`@e@Na@L_@L_APc@HKBUDa@DqBJY?G?Q?e@Ag@AS?OAa@E]EC?KAKAQCe@I[GWGOGMEMIy@Wa@KiA[QGYI]GWCQCYEA?QAq@AaBAiC?a@?yA?k@?U@iD?}CDkC?S?kB@s@EcAK[Gc@GC?WC_@Ki@I]ESAg@Ec@Aa@AqA?gA@Y?S@e@?Y?w@?s@Bs@F}@HeAT_AR]Dm@JUBO@o@BW@gABQ@A?O?gB?mB@Q@yB@}@?w@@mA@g@?g@AK?U@u@AY?Q?_AAi@CUAo@CK?UAM?y@CWAa@?e@A}@@aB?U?mA@Q@I?_A?m@?Y@uC?O?oC@Q?cC@K?K?I?qA@kB?oCBO?iA@]?O?q@@qA@[@m@@U?_@@{AAsA@oBBU@O?UAm@A_A@eA?e@@M?M?c@@u@@C?G?MAi@AM@yA@q@@C?]BoALYFSDu@PeA^EBs@\\_@ROJSLIFQLIFa@\\UTmAxAs@x@]\\KLQR?@ONCD_@h@WZe@l@KNSTUXQPMNMPWXOTIJ_@b@iArAKNQRKLg@l@_@\\YVWVc@j@IJIJQRMPKJABQRABA?A@GHEFCBWZ[\\SV[^q@x@MN_@X[PMHULSJYJUFkAVMDUDQDs@FY@S@uAD_C?mABaA?mA?mBB_A?S?A?g@?cDBaB?M?Y@{A?c@?gA@a@@c@?qA?u@?i@?o@@m@?wA@mA@o@?A?s@@w@?_B@kBB_A?q@@_@?eA@i@?]?m@@[?a@?s@@aA@aAAeABS?y@@i@Ag@AG?QAu@CKAKA_@GMCSEKCk@IKCUAIAKAKAI?a@EMAGCC?KAO?MAa@?S?{@@C?i@@cA?_@@m@?a@?eB?}@?I?WAgA@Y@aAA{ABcA?I?sC@]?kA@_@?E?C?K?yABo@?MAkCBw@@g@?a@?YA]?M?i@@]?O@q@?I?m@?gA@{BBiE?iBB{A@eE?}ADG?yABW?WA_@@a@?sA?kA?gBAk@@sA@]@y@@o@?k@?GIAAC?MEGAEAMEICSIKEGEQK[Oa@m@CC[e@IMS[?AEIEIKWWy@WsAe@aCUoAES_@qBGYKk@o@mDQ}@GUCOY{AScAI]y@qE]gBY{A]kBUgAG_@i@uCk@{CKg@ACGe@G[Gi@?CGo@AOASc@iFC_@WuCG}@CUC[AWW{CEc@Ku@I[GSISIQOYQW[c@iAmAwAiBc@i@{@{@QSm@o@gAsACE_@c@SYyAaBi@k@IKs@w@s@y@KM]a@WYq@_AKQGKAAO[O]Qs@CEEYCSC_@C_@Aa@?S?Q?y@Ay@?uA?ICcEAcD?]AaFC}DCY@Y@O?S@G?G@IB[Fc@F[Nk@JYLa@FQNc@Ja@He@Ho@B]B_@@S@Y?Y?g@?Y?aB@W@SFw@F_@?AH_@Tu@Tg@b@w@LW@?Pc@FQJUFUHWBMFYBS@E@G@Q?IBS?Q@M?OAq@?i@?]AoAAwB?AAY?KAEA]?CAICOE[Kc@Ma@CGGOGQEGIOEISYUYCCYYa@g@QS?AOQIMMYA?Wk@I[IYIc@?CEWCUCQCe@KyAI{@CQEQEOKYUs@Ue@}AiDUi@KW_@y@QLSBY@c@?u@@m@@eCB}DDsCAK?U?}B@_A@yA@wEBeBBU?e@AW?cDBI?K?k@?U@?o@?WAO?qAA_@?UY@oA?]?A?A?G?G?SAEAWAO?Y?c@?c@@gA@a@?kB@c@@aB@m@@}@?kB?c@??RiA?eBDcB?kA@sA@A??@gA?gFDkHBQ?i@Sw@CSKISGOB_B?yA?i@BeCX?V?\\A^?\\?@?b@?BXQ^?f@?j@?d@W?"}, "start_location": {"lat": 29.65682, "lng": -95.49188199999999}, "transit_details": {"arrival_stop": {"location": {"lat": 29.783077, "lng": -95.455467}, "name": "Northwest Transit Center - South Platform"}, "arrival_time": {"text": "4:24pm", "time_zone": "America/Chicago", "value": 1642026240}, "departure_stop": {"location": {"lat": 29.65682, "lng": -95.49188199999999}, "name": "Hillcroft Ave @ Bellfort Ave"}, "departure_time": {"text": "3:27pm", "time_zone": "America/Chicago", "value": 1642022820}, "headsign": "Northwest TC", "line": {"agencies": [{"name": "Metropolitan Transit Authority of Harris County", "phone": "1 (713) 635-4000", "url": "http://www.ridemetro.org/"}], "color": "#004080", "name": "Hillcroft", "short_name": "47", "text_color": "#ffffff", "url": "https://www.ridemetro.org/MetroPDFs/Schedules/BusSchedules/n047-Hillcroft.pdf", "vehicle": {"icon": "//maps.gstatic.com/mapfiles/transit/iw2/6/bus2.png", "name": "Bus", "type": "BUS"}}, "num_stops": 58, "trip_short_name": "HILLCROFT"}, "travel_mode": "TRANSIT"}, {"distance": {"text": "0.2 mi", "value": 263}, "duration": {"text": "3 mins", "value": 192}, "end_location": {"lat": 29.7837801, "lng": -95.4554653}, "html_instructions": "Walk to Northwest Transit Center - North Platform", "polyline": {"points": "_}wtDtqreQDUBODIK@]MMMECOKICKAK@E?U?E?_@@m@?AxAAX?f@"}, "start_location": {"lat": 29.7827161, "lng": -95.4551537}, "steps": [{"distance": {"text": "121 ft", "value": 37}, "duration": {"text": "1 min", "value": 26}, "end_location": {"lat": 29.78264219999999, "lng": -95.4549134}, "html_instructions": "Head <b>east</b>", "polyline": {"points": "_}wtDtqreQDUBODI"}, "start_location": {"lat": 29.7827161, "lng": -95.4551537}, "travel_mode": "WALKING"}, {"distance": {"text": "482 ft", "value": 147}, "duration": {"text": "2 mins", "value": 109}, "end_location": {"lat": 29.7837613, "lng": -95.45468609999999}, "html_instructions": "Sharp <b>left</b> toward <b>Old Katy Rd</b>", "maneuver": "turn-sharp-left", "polyline": {"points": "o|wtDdpreQK@]MMMECOKICKAK@E?U?E?_@@m@?"}, "start_location": {"lat": 29.78264219999999, "lng": -95.4549134}, "travel_mode": "WALKING"}, {"distance": {"text": "259 ft", "value": 79}, "duration": {"text": "1 min", "value": 57}, "end_location": {"lat": 29.7837801, "lng": -95.4554653}, "html_instructions": "Turn <b>left</b> onto <b>Old Katy Rd</b>", "maneuver": "turn-left", "polyline": {"points": "ocxtDxnreQAxAAX?f@"}, "start_location": {"lat": 29.7837613, "lng": -95.45468609999999}, "travel_mode": "WALKING"}], "travel_mode": "WALKING"}, {"distance": {"text": "1.7 mi", "value": 2678}, "duration": {"text": "7 mins", "value": 408}, "end_location": {"lat": 29.801027, "lng": -95.45922999999999}, "html_instructions": "Bus towards Greenspoint TC", "polyline": {"points": "w~wtDvwreQRwAF@D?DABA@CDIDSB[@g@BUBM@AN]FGJY@K?MCUCKCCA?OGQAGAE?E@GDQJOPMD[BY@W?aAAY@c@?AVAzAAb@?f@?L?ZAn@?`B?R?f@sBNO@Q@Y?W?K@wA@y@@K?u@?wA@U?O?}@@I?Y?_@?_@@oA@oD@eABM?A?a@?c@?qA@W?w@?cA@s@?c@@_@?uA@a@?OAY?q@@c@?_@?[@cA@a@?U?G?C?E?]@S?S@]@c@?}@@M?w@@]?mA@_B@W?E?e@Aa@EQEWG[OUM[QIG_@Ui@i@e@_@OQQQOMCCc@a@MR{A|BU\\W`@sBtCg@z@a@L{@vA]b@Sd@w@lAYh@OQ"}, "start_location": {"lat": 29.7830001, "lng": -95.4561157}, "transit_details": {"arrival_stop": {"location": {"lat": 29.801027, "lng": -95.45922999999999}, "name": "Hempstead Rd @ W 18th St"}, "arrival_time": {"text": "4:39pm", "time_zone": "America/Chicago", "value": 1642027188}, "departure_stop": {"location": {"lat": 29.7830001, "lng": -95.4561157}, "name": "Northwest Transit Center - North Platform"}, "departure_time": {"text": "4:33pm", "time_zone": "America/Chicago", "value": 1642026780}, "headsign": "Greenspoint TC", "line": {"agencies": [{"name": "Metropolitan Transit Authority of Harris County", "phone": "1 (713) 635-4000", "url": "http://www.ridemetro.org/"}], "color": "#004080", "name": "Antoine / Washington", "short_name": "85", "text_color": "#ffffff", "url": "https://www.ridemetro.org/MetroPDFs/Schedules/BusSchedules/n085-Antoine-Washington.pdf", "vehicle": {"icon": "//maps.gstatic.com/mapfiles/transit/iw2/6/bus2.png", "name": "Bus", "type": "BUS"}}, "num_stops": 8, "trip_short_name": "ANTOINWAS"}, "travel_mode": "TRANSIT"}, {"distance": {"text": "0.5 mi", "value": 738}, "duration": {"text": "10 mins", "value": 587}, "end_location": {"lat": 29.8019199, "lng": -95.45428179999999}, "html_instructions": "Walk to 4400 W 18th St, Houston, TX 77092, USA", "polyline": {"points": "mo{tDdkseQKPKKKAK?I@IB?Q?aA?M?QAO?OM?M@M?mED@[Ae@?g@ASDKP]d@}@Xq@B]QOIIOMEKKAQUGGEIAE?C?A@C@EBEV_@KMNWHMJSRa@Ts@R}@Jy@Hy@?G@Q@a@"}, "start_location": {"lat": 29.8010254, "lng": -95.4592253}, "steps": [{"distance": {"text": "49 ft", "value": 15}, "duration": {"text": "1 min", "value": 11}, "end_location": {"lat": 29.8011512, "lng": -95.4592626}, "html_instructions": "Head <b>northwest</b>", "polyline": {"points": "mo{tDdkseQKPKK"}, "start_location": {"lat": 29.8010254, "lng": -95.4592253}, "travel_mode": "WALKING"}, {"distance": {"text": "102 ft", "value": 31}, "duration": {"text": "1 min", "value": 23}, "end_location": {"lat": 29.8013705, "lng": -95.4592806}, "html_instructions": "Turn <b>right</b> toward <b>W 18th St</b>", "maneuver": "turn-right", "polyline": {"points": "ep{tDjkseQKAK?I@IB"}, "start_location": {"lat": 29.8011512, "lng": -95.4592626}, "travel_mode": "WALKING"}, {"distance": {"text": "240 ft", "value": 73}, "duration": {"text": "1 min", "value": 61}, "end_location": {"lat": 29.8014508, "lng": -95.4585436}, "html_instructions": "Turn <b>right</b> onto <b>W 18th St</b>", "maneuver": "turn-right", "polyline": {"points": "qq{tDnkseQ?Q?aA?M?QAO?OM?"}, "start_location": {"lat": 29.8013705, "lng": -95.4592806}, "travel_mode": "WALKING"}, {"distance": {"text": "440 ft", "value": 134}, "duration": {"text": "2 mins", "value": 127}, "end_location": {"lat": 29.80261729999999, "lng": -95.45858140000001}, "html_instructions": "Turn <b>left</b> onto <b>Mangum Rd</b>", "maneuver": "turn-left", "polyline": {"points": "ar{tDzfseQM@M?mED"}, "start_location": {"lat": 29.8014508, "lng": -95.4585436}, "travel_mode": "WALKING"}, {"distance": {"text": "0.1 mi", "value": 168}, "duration": {"text": "2 mins", "value": 133}, "end_location": {"lat": 29.8021725, "lng": -95.45703209999999}, "html_instructions": "Turn <b>right</b>", "maneuver": "turn-right", "polyline": {"points": "ky{tDbgseQ@[Ae@?g@ASDKP]d@}@Xq@B]"}, "start_location": {"lat": 29.80261729999999, "lng": -95.45858140000001}, "travel_mode": "WALKING"}, {"distance": {"text": "348 ft", "value": 106}, "duration": {"text": "1 min", "value": 80}, "end_location": {"lat": 29.8024852, "lng": -95.4562641}, "html_instructions": "Turn <b>left</b><div style=\"font-size:0.9em\">Partial restricted usage road</div>", "maneuver": "turn-left", "polyline": {"points": "qv{tDl}reQQOIIOMEKKAQUGGEIAE?C?A@C@EBEV_@"}, "start_location": {"lat": 29.8021725, "lng": -95.45703209999999}, "travel_mode": "WALKING"}, {"distance": {"text": "33 ft", "value": 10}, "duration": {"text": "1 min", "value": 8}, "end_location": {"lat": 29.8025494, "lng": -95.456192}, "html_instructions": "Turn <b>left</b><div style=\"font-size:0.9em\">Restricted usage road</div>", "maneuver": "turn-left", "polyline": {"points": "qx{tDrxreQKM"}, "start_location": {"lat": 29.8024852, "lng": -95.4562641}, "travel_mode": "WALKING"}, {"distance": {"text": "0.1 mi", "value": 201}, "duration": {"text": "2 mins", "value": 144}, "end_location": {"lat": 29.8019199, "lng": -95.45428179999999}, "html_instructions": "Turn <b>right</b><div style=\"font-size:0.9em\">Restricted usage road</div><div style=\"font-size:0.9em\">Destination will be on the left</div>", "maneuver": "turn-right", "polyline": {"points": "}x{tDdxreQNWHMJSRa@Ts@R}@Jy@Hy@?G@Q@a@"}, "start_location": {"lat": 29.8025494, "lng": -95.456192}, "travel_mode": "WALKING"}], "travel_mode": "WALKING"}], "traffic_speed_entry": [], "via_waypoint": []}], "overview_polyline": {"points": "mi`tDj_|eQ`Ac@n@Oz@I|@CJIDS?kBC{F`DCbIA~DEx@MTIc@oBKi@QyAOkAC{@GuB?uBCkLAsGEwM?QP?b@?^@L??G?NM?i@?qBAmFAoH@a@C[@aBByJDkDBoMDeD@kDPg@?{FDgJHkCRm@Ju@N{@T_Bn@_A`@cBp@aAZcBZa@HsCPyAAmBIy@IkB]eBo@wCy@aBUgDEqH?iNF_C@s@EcAK_AO[CiAUq@GkAGsBA{CBqA?gBJ}@HeAT}AXcAN_ADsBFuPHqB?aDCqFQgF?uBByMBcOF{IH{B?cEDe@@cACyDBkBBmAAmDFiBTiAVkAb@sAp@_An@aAz@qEjFiBbCiApAgEhFs@z@y@t@oAzAeAnAgD`Em@h@i@Zi@Xo@RaCh@mAHiBF}IBcEB}OFmLDwNHkID}FDmA@qAC{AGmASyASk@E{@KkACqHDeEAaBB}C@_G@uB@cD@mGDoB?iB@{LDeEDeE?}ADaBBo@AaF@sC?qBBiB@k@?GIEAUGq@UaAg@kAeB_@q@c@qA}@uEcAoFuAmHkEoUqCgOsAaPQgC]_EUqAQg@Yk@m@{@aDwD_BeB_AcA_CwCwHuIgA_B_@y@Uy@Im@G_AAu@?kAE}IGaRAs@@c@Fu@N_AZeAp@yBRuAF}@BoBBgDNwAHa@Tu@Tg@p@oAf@kA\\uAHs@D}@AiCEcFCs@WyAa@kAi@{@uA_Bk@u@OYa@gAYyAWgDMmAKa@a@mAsBoEa@aA_@y@QLm@DyA@sDD}DDsCAa@?}DBmLHkF@w@?U@?o@Ag@AqB?UY@mB?S?aAEiDBsGD{F@?RiA?iED_DBA@mRHi@Sw@CSKISGOB_B?cCBeCX?t@AbB?BXQ^?rA?d@W?fA_ADUHYK@]MSQYOs@?e@@m@?AxAA`AzC`CRwAL@HCFMHo@D}@DOVe@Le@Cc@GOQGYCK@YPOPMDu@DwC?E~DAzD?z@cCPoABsEB_HDsIFyC@cKDaHBkCDkKFk@As@Ks@Wq@_@i@]oAiAu@u@c@a@MRqBzCkCvDg@z@a@L{@vA]b@Sd@w@lAYh@OQKPKKKAU@IB?Q?oAAa@?OM?[@mED@[AmAB_@v@{AXq@B][YUYKAQUMQ?ODKV_@KMXe@^u@Ts@^wBHaABs@"}, "summary": "", "warnings": ["Walking directions are in beta. Use caution \u2013 This route may be missing sidewalks or pedestrian paths."], "waypoint_order": []}, {"bounds": {"northeast": {"lat": 29.803869, "lng": -95.40828479999999}, "southwest": {"lat": 29.6618263, "lng": -95.50480960000002}}, "copyrights": "Map data \u00a92022", "legs": [{"arrival_time": {"text": "5:04pm", "time_zone": "America/Chicago", "value": 1642028697}, "departure_time": {"text": "3:21pm", "time_zone": "America/Chicago", "value": 1642022462}, "distance": {"text": "18.8 mi", "value": 30287}, "duration": {"text": "1 hour 44 mins", "value": 6235}, "end_address": "4400 W 18th St, Houston, TX 77092, USA", "end_location": {"lat": 29.8019199, "lng": -95.45428179999999}, "start_address": "10901 Sandpiper Dr, Houston, TX 77096, USA", "start_location": {"lat": 29.6618263, "lng": -95.5034187}, "steps": [{"distance": {"text": "0.4 mi", "value": 721}, "duration": {"text": "9 mins", "value": 538}, "end_location": {"lat": 29.666903, "lng": -95.50442629999999}, "html_instructions": "Walk to Sandpiper Dr @ Willowbend Blvd", "polyline": {"points": "mi`tDj_|eQcAl@KFQFYJKDODK@K@Q?s@@@lA?dBgD?uA?yJBcA@M?CgBo@?CZ"}, "start_location": {"lat": 29.6618263, "lng": -95.5034187}, "steps": [{"distance": {"text": "482 ft", "value": 147}, "duration": {"text": "2 mins", "value": 106}, "end_location": {"lat": 29.663057, "lng": -95.50388099999999}, "html_instructions": "Head <b>northwest</b> on <b>Sandpiper Dr</b> toward <b>Bankside Dr</b>", "polyline": {"points": "mi`tDj_|eQcAl@KFQFYJKDODK@K@Q?s@@"}, "start_location": {"lat": 29.6618263, "lng": -95.5034187}, "travel_mode": "WALKING"}, {"distance": {"text": "285 ft", "value": 87}, "duration": {"text": "1 min", "value": 65}, "end_location": {"lat": 29.66304749999999, "lng": -95.5047802}, "html_instructions": "Turn <b>left</b> onto <b>Bankside Dr</b>", "maneuver": "turn-left", "polyline": {"points": "cq`tDfb|eQ@lA?dB"}, "start_location": {"lat": 29.663057, "lng": -95.50388099999999}, "travel_mode": "WALKING"}, {"distance": {"text": "0.2 mi", "value": 393}, "duration": {"text": "5 mins", "value": 288}, "end_location": {"lat": 29.66662, "lng": -95.50480960000002}, "html_instructions": "Turn <b>right</b> onto <b>Sandpiper Dr</b>", "maneuver": "turn-right", "polyline": {"points": "aq`tDzg|eQgD?uA?yJBcA@M?"}, "start_location": {"lat": 29.66304749999999, "lng": -95.5047802}, "travel_mode": "WALKING"}, {"distance": {"text": "164 ft", "value": 50}, "duration": {"text": "1 min", "value": 46}, "end_location": {"lat": 29.666639, "lng": -95.5042939}, "html_instructions": "Turn <b>right</b> onto <b>Willowbend Blvd</b>", "maneuver": "turn-right", "polyline": {"points": "kgatD`h|eQCgB"}, "start_location": {"lat": 29.66662, "lng": -95.50480960000002}, "travel_mode": "WALKING"}, {"distance": {"text": "102 ft", "value": 31}, "duration": {"text": "1 min", "value": 22}, "end_location": {"lat": 29.666878, "lng": -95.50429299999999}, "html_instructions": "Turn <b>left</b> onto <b>Sandpiper Dr</b>", "maneuver": "turn-left", "polyline": {"points": "ogatDxd|eQo@?"}, "start_location": {"lat": 29.666639, "lng": -95.5042939}, "travel_mode": "WALKING"}, {"distance": {"text": "43 ft", "value": 13}, "duration": {"text": "1 min", "value": 11}, "end_location": {"lat": 29.666903, "lng": -95.50442629999999}, "html_instructions": "Turn <b>left</b><div style=\"font-size:0.9em\">Restricted usage road</div><div style=\"font-size:0.9em\">Destination will be on the right</div>", "maneuver": "turn-left", "polyline": {"points": "_iatDxd|eQCZ"}, "start_location": {"lat": 29.666878, "lng": -95.50429299999999}, "travel_mode": "WALKING"}], "travel_mode": "WALKING"}, {"distance": {"text": "8.5 mi", "value": 13686}, "duration": {"text": "28 mins", "value": 1655}, "end_location": {"lat": 29.70607099999999, "lng": -95.41219199999999}, "html_instructions": "Bus towards TMC TC", "polyline": {"points": "uiatDne|eQ?UT?v@?CgBCqBMqC?SGoFAeCAuD?u@?E?mB?S@K?C@E@IBEBEDIDGBCBCHEHCLC\\AAoD?S?]Ak@?yBAsD?UCaEA}D?gBAg@?[?Q?a@?_@A{B?Q?O?W?MAK?O?e@?K?e@AwA?W?E?OCuIAqACkI?iAAaA?g@?i@?i@AaAAgG?e@AuBAaBAcH?SCeDAeE?gEAq@?_AAi@Am@?gBAkB?c@AkCA{E?SAiH?yBB]BYLw@Nq@NYVm@NYN]BCJSLOBGTWXYt@_ATa@b@u@Vk@Pc@`@cAHURy@No@F_@F_@Hg@D]B[D_@@O@Q@[BY@e@As@?A@KC_@?QAU?Q?O?C?[?kA@]?g@?{@?m@A]?mBAI?e@CcH?U?cA?UAsE?UCcGAkD?WAq@?W?yF?mACiDEmDGSAGCUCWD?H?A_GAoFAcF?Y?e@Ao@Ak@Ag@?C?W@_@C{BAsAAi@?E?C@WAO?MAMAMAQCUCK?EEYCWAMAYCg@?Q?C?y@?_@AsAA{@Ai@?KEi@Ck@C_@AEC[ACGk@Ik@CWAKEa@AYA]Ce@A]CaE?qB?e@S@aB@}A?eA?y@@u@?w@@oA?cA@M?eD@wB?]?M?o@?uBB_A?G?cA?W?eD@_B@uB@[AmA@wDDmA?a@?eB?_A?i@?U?Y?e@?g@@a@?a@@U?u@@_A@S?I@U@s@@G?cA?a@?m@AG?W?[?IAa@@c@?_@@_@?gD?U?s@@c@@Q?]@eCAsB?g@?W?Q@eA?s@?u@?m@@W?qE@m@?a@?uA@mA@wA?_@?eAA]@[?sC@M@c@B_@?a@?O?c@AA?YAc@?c@@G@Q@[@c@?YAe@?SAI@U@a@@YCk@?mB?M?_A?O?yA?_A@kB?qC@W?iD@oC@Y?iD?mC@C?G@Q?kD@m@?gB@Q?kD?k@?o@?y@@Y?s@@[?sA?_B@_A?Y?}A@kA?cB@oB?[?]??aB?i@AgB?yA?YAoC?[?s@AwDAsA?y@?}@AoC?kA?W?[?SA]A{B?kE?gB?Y?u@?g@AgCAwA?O?cA?S?yBAwB?e@?a@?o@?cBAcBAgB?eB?c@?eC?Q?sD?y@?_@?c@?{@A]?yBCeG?yA?EASA_C@iAAU?eB@[Ae@?y@AiECoH?{@?[?_A?W?]AeE?WAU?kA?oAJ?"}, "start_location": {"lat": 29.666993, "lng": -95.504404}, "transit_details": {"arrival_stop": {"location": {"lat": 29.70607099999999, "lng": -95.41219199999999}, "name": "Holcombe Blvd @ Greenbriar Dr"}, "arrival_time": {"text": "3:57pm", "time_zone": "America/Chicago", "value": 1642024655}, "departure_stop": {"location": {"lat": 29.666993, "lng": -95.504404}, "name": "Sandpiper Dr @ Willowbend Blvd"}, "departure_time": {"text": "3:30pm", "time_zone": "America/Chicago", "value": 1642023000}, "headsign": "TMC TC", "line": {"agencies": [{"name": "Metropolitan Transit Authority of Harris County", "phone": "1 (713) 635-4000", "url": "http://www.ridemetro.org/"}], "color": "#004080", "name": "Willowbend", "short_name": "10", "text_color": "#ffffff", "url": "https://www.ridemetro.org/MetroPDFs/Schedules/BusSchedules/n010-Willowbend.pdf", "vehicle": {"icon": "//maps.gstatic.com/mapfiles/transit/iw2/6/bus2.png", "name": "Bus", "type": "BUS"}}, "num_stops": 54, "trip_short_name": "WILLOWBEND"}, "travel_mode": "TRANSIT"}, {"distance": {"text": "246 ft", "value": 75}, "duration": {"text": "1 min", "value": 74}, "end_location": {"lat": 29.70630959999999, "lng": -95.4123718}, "html_instructions": "Walk to Holcombe Blvd @ Greenbriar Dr", "polyline": {"points": "a~htDdejeQ?fAMAO?M??a@"}, "start_location": {"lat": 29.7060936, "lng": -95.4121923}, "steps": [{"distance": {"text": "125 ft", "value": 38}, "duration": {"text": "1 min", "value": 27}, "end_location": {"lat": 29.706163, "lng": -95.412545}, "html_instructions": "Head <b>west</b> on <b>W Holcombe Blvd</b> toward <b>Greenbriar Dr</b>", "polyline": {"points": "a~htDdejeQ?fAMA"}, "start_location": {"lat": 29.7060936, "lng": -95.4121923}, "travel_mode": "WALKING"}, {"distance": {"text": "52 ft", "value": 16}, "duration": {"text": "1 min", "value": 22}, "end_location": {"lat": 29.7063085, "lng": -95.41254409999999}, "html_instructions": "Turn <b>right</b> onto <b>Greenbriar Dr</b>", "maneuver": "turn-right", "polyline": {"points": "o~htDjgjeQO?M?"}, "start_location": {"lat": 29.706163, "lng": -95.412545}, "travel_mode": "WALKING"}, {"distance": {"text": "69 ft", "value": 21}, "duration": {"text": "1 min", "value": 25}, "end_location": {"lat": 29.70630959999999, "lng": -95.4123718}, "html_instructions": "Turn <b>right</b> onto <b>W Holcombe Blvd</b>", "maneuver": "turn-right", "polyline": {"points": "m_itDjgjeQ?a@"}, "start_location": {"lat": 29.7063085, "lng": -95.41254409999999}, "travel_mode": "WALKING"}], "travel_mode": "WALKING"}, {"distance": {"text": "7.0 mi", "value": 11306}, "duration": {"text": "30 mins", "value": 1782}, "end_location": {"lat": 29.803613, "lng": -95.41008699999999}, "html_instructions": "Bus towards N Shepherd P&R", "polyline": {"points": "s_itDjfjeQL??h@oA?[?_@?WAsBBQ?Q?eD@uB@S?Y?yAA{@@yC@kC@K?gD?cDB_D@}A?oA@_B@c@?cE@w@@}AAAc@?g@AQCYCg@Iq@E[Gc@Km@Os@Me@IUSu@GUw@oCMc@Uw@cBp@IDkAb@kAf@{@^SHy@ZEBSF_@JKBi@LA@SDWDa@FI@a@F]DWBYBQ@o@DA?M@w@@W@M?K?oA?gA?K?sA@uA@K@iB?s@?iD@yB?S?c@@gB?oCBU@eB@e@?]?eA?S?O?U?aA?i@@A?[?A?Y@k@?]?m@?W?iD@c@@aA@eADcAAQ?aA?S@c@?U@y@Ao@AgB?cA@sA?cA@Q?iD@wA?u@@e@?c@?M?_A@]?y@?y@@Y?K?y@@O?s@?y@?eB@cA?y@@O?K?W?I?c@?E?}ABE?q@?gA?]Aa@G[GSCg@AS@M?Y?a@?m@?_A?c@@S?sC@gA@iA?kD?iB?_@?[?Y?q@@gB?{@?Y@qA?eA?I?uD@i@@_A?Q?O?{@?m@?M?g@@y@@g@@Q?[?{@?OGEAGCEEGCECECGEY[OYEKCECGEQ_AuCAEEIQe@IQCEACGIEGEGGIIIEEOKGEQKMEk@Oo@@M?{@?WIgB?KEC?SAYAU?IA]?SAeA?S?g@AcA@EBIFKFA@CBIHCDGHGXQ@aAJa@Da@DC?}AL]D]DK@KEA?A?I?G?M?MAAAA?C?AAE?CAA?OCC?AAM?WA[FE@E@c@HG@YD_@HeAPKBw@TgABW?C?W?k@@_A@K?[@SBe@Dc@@SBa@?eA@[?M?eA@c@?e@?]?_@@Y?k@?M?qCBg@?Q?M@U?e@?M?qCB]?w@@_@?E@W?e@?mB@gA?k@@]?qB@c@@a@CE@e@@m@?S@kA?cA@aCBM?oC@eA@oA@Y?[?O?a@Bm@?U?o@?e@@I?A?A?y@?M@YAS@O?_@@w@@y@?]?M?YAMAMCOEYIIAa@Kc@Ku@QGACAm@MAAOCIAK?OAM?M?A?I?O?S@M@IBc@Jq@P}@Vg@Jk@Ji@Hc@Be@DE?c@Bs@ByABA?oCBYA}B@I?A?q@@K?E?k@?C?O@u@?S?k@@w@@K?a@?O?[@U?U?U?k@@k@?Y@C?I?S?kC@y@@K?W@[?S?A?W?G?U@S?c@?e@@O?E?[?mCBeA@U?Y?S?U@A?S?aA@_@?e@@Q?S?U?s@?C?W?qB@sB@eBBg@?oBBaGBq@@w@?aB@i@@W@_B@yA@aB@Q?qD@U@gB?eB@eBA_A@?K"}, "start_location": {"lat": 29.7063417, "lng": -95.41237609999999}, "transit_details": {"arrival_stop": {"location": {"lat": 29.803613, "lng": -95.41008699999999}, "name": "N Shepherd Dr @ W 20th St"}, "arrival_time": {"text": "4:44pm", "time_zone": "America/Chicago", "value": 1642027440}, "departure_stop": {"location": {"lat": 29.7063417, "lng": -95.41237609999999}, "name": "Holcombe Blvd @ Greenbriar Dr"}, "departure_time": {"text": "4:14pm", "time_zone": "America/Chicago", "value": 1642025658}, "headsign": "N Shepherd P&R", "line": {"agencies": [{"name": "Metropolitan Transit Authority of Harris County", "phone": "1 (713) 635-4000", "url": "http://www.ridemetro.org/"}], "color": "#004080", "name": "Shepherd", "short_name": "27", "text_color": "#ffffff", "url": "https://www.ridemetro.org/MetroPDFs/Schedules/BusSchedules/n027-Shepherd.pdf", "vehicle": {"icon": "//maps.gstatic.com/mapfiles/transit/iw2/6/bus2.png", "name": "Bus", "type": "BUS"}}, "num_stops": 48, "trip_short_name": "SHEPHERD"}, "travel_mode": "TRANSIT"}, {"distance": {"text": "112 ft", "value": 34}, "duration": {"text": "1 min", "value": 34}, "end_location": {"lat": 29.803842, "lng": -95.41002979999999}, "html_instructions": "Walk to W 20th St @ N Shepherd Dr", "polyline": {"points": "q_|tDdxieQ_@@M??Q"}, "start_location": {"lat": 29.8036121, "lng": -95.410111}, "steps": [{"distance": {"text": "69 ft", "value": 21}, "duration": {"text": "1 min", "value": 15}, "end_location": {"lat": 29.8038391, "lng": -95.4101207}, "html_instructions": "Head <b>north</b> on <b>N Shepherd Dr</b> toward <b>W 20th St</b>", "polyline": {"points": "q_|tDdxieQ_@@M?"}, "start_location": {"lat": 29.8036121, "lng": -95.410111}, "travel_mode": "WALKING"}, {"distance": {"text": "43 ft", "value": 13}, "duration": {"text": "1 min", "value": 19}, "end_location": {"lat": 29.803842, "lng": -95.41002979999999}, "html_instructions": "Turn <b>right</b> onto <b>W 20th St</b>", "maneuver": "turn-right", "polyline": {"points": "_a|tDfxieQ?Q"}, "start_location": {"lat": 29.8038391, "lng": -95.4101207}, "travel_mode": "WALKING"}], "travel_mode": "WALKING"}, {"distance": {"text": "2.7 mi", "value": 4367}, "duration": {"text": "10 mins", "value": 582}, "end_location": {"lat": 29.80163, "lng": -95.454342}, "html_instructions": "Bus towards Memorial City", "polyline": {"points": "ea|tDvwieQJ?@V?fA@`ABfE?tABtJ?pB@rA?r@?H?|@?jB?@?j@@h@AL?\\?J@f@?|B?h@?|@?n@?N?|G?J@tE?d@@dC?p@AL@J?V@P@H?B?D@F@HBH@JDPDLDLDHDJDJHLFHFHLL?@TVTVn@v@NRh@h@NPVX^f@BJBFBFf@v@P`@DZDVBT@F?D@F?H?P@P?X?N?F?j@@pAIpB@f@?V?fA?j@?V@h@AjA?h@@~@?b@@^Af@@d@?X?bA?jA?b@@nC?J?d@Aj@?v@?P@dB?jA?bC?`A?\\@dH?`D?dC@fE?jD?T@`F@vB?jD?vC?X?`E@V@zCAb@?fAAX@fB@fA?T@|B?l@A~A?x@?XAzB?`A?dB?l@?P?F?H@^?Z?@?H?@?Z?h@?f@?j@?^?t@@j@BnAAV@|@@fB?bBG?"}, "start_location": {"lat": 29.803869, "lng": -95.410039}, "transit_details": {"arrival_stop": {"location": {"lat": 29.80163, "lng": -95.454342}, "name": "W 18th St @ Northwest Fwy"}, "arrival_time": {"text": "5:03pm", "time_zone": "America/Chicago", "value": 1642028620}, "departure_stop": {"location": {"lat": 29.803869, "lng": -95.410039}, "name": "W 20th St @ N Shepherd Dr"}, "departure_time": {"text": "4:53pm", "time_zone": "America/Chicago", "value": 1642028038}, "headsign": "Memorial City", "line": {"agencies": [{"name": "Metropolitan Transit Authority of Harris County", "phone": "1 (713) 635-4000", "url": "http://www.ridemetro.org/"}], "color": "#004080", "name": "Long Point / Cavalcade", "short_name": "26", "text_color": "#ffffff", "url": "https://www.ridemetro.org/MetroPDFs/Schedules/BusSchedules/n026-Long-Point-Cavalcade.pdf", "vehicle": {"icon": "//maps.gstatic.com/mapfiles/transit/iw2/6/bus2.png", "name": "Bus", "type": "BUS"}}, "num_stops": 14, "trip_short_name": "LONGPOINT"}, "travel_mode": "TRANSIT"}, {"distance": {"text": "322 ft", "value": 98}, "duration": {"text": "1 min", "value": 77}, "end_location": {"lat": 29.8019199, "lng": -95.45428179999999}, "html_instructions": "Walk to 4400 W 18th St, Houston, TX 77092, USA", "polyline": {"points": "es{tDrlreQ?z@YEc@E?G@Q@a@"}, "start_location": {"lat": 29.8016264, "lng": -95.454342}, "steps": [{"distance": {"text": "95 ft", "value": 29}, "duration": {"text": "1 min", "value": 22}, "end_location": {"lat": 29.8016252, "lng": -95.45463819999999}, "html_instructions": "Head <b>west</b> on <b>W 18th St</b>/<wbr/><b>NW Mall</b>", "polyline": {"points": "es{tDrlreQ?z@"}, "start_location": {"lat": 29.8016264, "lng": -95.454342}, "travel_mode": "WALKING"}, {"distance": {"text": "131 ft", "value": 40}, "duration": {"text": "1 min", "value": 33}, "end_location": {"lat": 29.8019405, "lng": -95.4545788}, "html_instructions": "Turn <b>right</b><div style=\"font-size:0.9em\">Restricted usage road</div>", "maneuver": "turn-right", "polyline": {"points": "es{tDnnreQYEc@E"}, "start_location": {"lat": 29.8016252, "lng": -95.45463819999999}, "travel_mode": "WALKING"}, {"distance": {"text": "95 ft", "value": 29}, "duration": {"text": "1 min", "value": 22}, "end_location": {"lat": 29.8019199, "lng": -95.45428179999999}, "html_instructions": "Turn <b>right</b><div style=\"font-size:0.9em\">Restricted usage road</div><div style=\"font-size:0.9em\">Destination will be on the left</div>", "maneuver": "turn-right", "polyline": {"points": "cu{tDbnreQ?G@Q@a@"}, "start_location": {"lat": 29.8019405, "lng": -95.4545788}, "travel_mode": "WALKING"}], "travel_mode": "WALKING"}], "traffic_speed_entry": [], "via_waypoint": []}], "overview_polyline": {"points": "mi`tDj_|eQoAt@k@Rs@NeA@@rD{TDM?CgBo@?CZQE?UlA?GyEMeDIuJAkF@sCFYR[LIVG\\AAoD?q@CoJG_SKeZUg_AImQCsSFw@\\iBfA_C`@o@n@q@jAaBz@aBr@gB\\oAVoAZaCJ}ABuBCuC@iB?cBCcEIg\\CmG?gIIwII[Gm@N?CoNCsICoBEkIE{@MaAEe@EaA?oBEeEO{BWwBM_BEcAE_F?wCuBBsG@yEBwPDaJBqC?eGFuG?_C?aCBsCDuCBoBAsI@_CB_I?qNDoMBoD@q@DuBAcB?YB_A@}AAw@BeACkE?wKBkJBcIBmRBqLD}JBy@??kCCkJC{ICyLEgWAqMCeWEqTCaLEaWC_I?oAJ?C??fA]AM??a@E@L??h@oA?{@?kC@_IBcE?yMBqNF_KD}AAAc@Ay@WoCSqA]yA}AqFc@{AmBv@gFtBsBr@kAXeBVaBNwBHaC@}FBsIByG@qHFkG@gE@mEBgCFkD?cDAcIBaNDqSFmCByB?_AIo@K{@?wB?sTDwKBmMB}CBqC@c@S[QY[OYIQkAuDe@gAU]g@e@YQy@U}@@{@?WIgB?KEWAwACuCCcA@EBUNSTOb@sALeDX{@JK@KEC?Q?[ACAQCSCOAWA[FKBk@JkCd@w@TgAB[?oCByBLu@BaB@}C@cC@qHDyLHcGBeAAk@BqEBeJFuC@uCBuC@{BD_CAk@KiBc@oBc@g@Gm@A{@Bm@NoBh@sAVmALcCLeGD}FBkFDgOJsNHyEDqLFgTNcUJeD??K?Bm@@?QE@J?@V@hCFdWBrK?tJ@zVD~@BZPt@Vn@f@n@zAhBhAnAv@`AFRj@~@V|@Jz@BrC@pAIpB@~@@tDAtB@bB@fC?xMBnZ@nOBxI?bIBnKAlFBhGCnH@tH?fEBhEBdD?bBG??z@}@KB{@"}, "summary": "", "warnings": ["Walking directions are in beta. Use caution \u2013 This route may be missing sidewalks or pedestrian paths."], "waypoint_order": []}], "status": "OK"}