{"geocoded_waypoints": [{"geocoder_status": "OK", "place_id": "ChIJ56y3B5LBQIYR_hQlzkh72k4", "types": ["establishment", "point_of_interest", "primary_school", "school"]}, {"geocoder_status": "OK", "place_id": "ChIJ9_tphxzHQIYRIMyPy_d3VZU", "types": ["establishment", "point_of_interest"]}], "routes": [{"bounds": {"northeast": {"lat": 29.803869, "lng": -95.40828909999999}, "southwest": {"lat": 29.7028653, "lng": -95.4688334}}, "copyrights": "Map data \u00a92022", "legs": [{"arrival_time": {"text": "4:19pm", "time_zone": "America/Chicago", "value": 1642025997}, "departure_time": {"text": "3:05pm", "time_zone": "America/Chicago", "value": 1642021526}, "distance": {"text": "12.6 mi", "value": 20295}, "duration": {"text": "1 hour 15 mins", "value": 4471}, "end_address": "4400 W 18th St, Houston, TX 77092, USA", "end_location": {"lat": 29.8019199, "lng": -95.45428179999999}, "start_address": "7000 S 3rd St, Bellaire, TX 77401, USA", "start_location": {"lat": 29.7028772, "lng": -95.4672404}, "steps": [{"distance": {"text": "0.3 mi", "value": 437}, "duration": {"text": "6 mins", "value": 333}, "end_location": {"lat": 29.7054641, "lng": -95.46877099999999}, "html_instructions": "Walk to Bellaire Transit Center", "polyline": {"points": "_jhtDf}teQ@D?j@?R?NG?Bd@yB@?NU?q@?q@?MHe@@M@o@?g@@M?cA@B^?nBe@@"}, "start_location": {"lat": 29.7028772, "lng": -95.4672404}, "steps": [{"distance": {"text": "125 ft", "value": 38}, "duration": {"text": "1 min", "value": 27}, "end_location": {"lat": 29.7028653, "lng": -95.46767039999999}, "html_instructions": "Head <b>west</b>", "polyline": {"points": "_jhtDf}teQ@D?j@?R?N"}, "start_location": {"lat": 29.7028772, "lng": -95.4672404}, "travel_mode": "WALKING"}, {"distance": {"text": "16 ft", "value": 5}, "duration": {"text": "1 min", "value": 6}, "end_location": {"lat": 29.7029082, "lng": -95.4676714}, "html_instructions": "Turn <b>right</b> toward <b>S Rice Ave</b>", "maneuver": "turn-right", "polyline": {"points": "}ihtD|_ueQG?"}, "start_location": {"lat": 29.7028653, "lng": -95.46767039999999}, "travel_mode": "WALKING"}, {"distance": {"text": "85 ft", "value": 26}, "duration": {"text": "1 min", "value": 19}, "end_location": {"lat": 29.7028941, "lng": -95.467856}, "html_instructions": "Turn <b>left</b> toward <b>S Rice Ave</b>", "maneuver": "turn-left", "polyline": {"points": "ejhtD|_ueQBd@"}, "start_location": {"lat": 29.7029082, "lng": -95.4676714}, "travel_mode": "WALKING"}, {"distance": {"text": "0.2 mi", "value": 269}, "duration": {"text": "3 mins", "value": 208}, "end_location": {"lat": 29.705287, "lng": -95.4680435}, "html_instructions": "Turn <b>right</b> onto <b>S Rice Ave</b>", "maneuver": "turn-right", "polyline": {"points": "ajhtDbaueQyB@?NU?q@?q@?MHe@@M@o@?g@@M?cA@"}, "start_location": {"lat": 29.7028941, "lng": -95.467856}, "travel_mode": "WALKING"}, {"distance": {"text": "240 ft", "value": 73}, "duration": {"text": "1 min", "value": 54}, "end_location": {"lat": 29.705271, "lng": -95.468757}, "html_instructions": "Turn <b>left</b>", "maneuver": "turn-left", "polyline": {"points": "ayhtDfbueQB^?nB"}, "start_location": {"lat": 29.705287, "lng": -95.4680435}, "travel_mode": "WALKING"}, {"distance": {"text": "85 ft", "value": 26}, "duration": {"text": "1 min", "value": 19}, "end_location": {"lat": 29.7054641, "lng": -95.46877099999999}, "html_instructions": "Turn <b>right</b>", "maneuver": "turn-right", "polyline": {"points": "}xhtDvfueQe@@"}, "start_location": {"lat": 29.705271, "lng": -95.468757}, "travel_mode": "WALKING"}], "travel_mode": "WALKING"}, {"distance": {"text": "4.0 mi", "value": 6433}, "duration": {"text": "17 mins", "value": 1020}, "end_location": {"lat": 29.7254958, "lng": -95.41073010000001}, "html_instructions": "Bus towards Wheeler TC", "polyline": {"points": "u{htDdgueQK?EmA\\G\\U@w@@]S?eA@g@?q@?K?S?yA?q@@q@?_@?]w@Qc@MYa@aAMW]y@Sg@GOUi@Um@Sg@Ui@GOw@kBIUWo@m@wAKYc@gAqA}CWm@CIQ_@i@wA]u@O[Qi@EUCICKQa@Uu@Wi@?AEG?AAE_AwBa@eA[u@CEOQiAkC?AIS_@{@CIcBaEaAcCO]EKKWYq@o@{AIQoCyGQe@]y@e@iAM][w@GMWo@KYO_@Qc@MWk@sAKYg@kAeAkCUg@M[c@gAMYEMO]M[CGWk@aAcCEIi@sAQc@wBiFg@qA]y@M[g@mA_@}@wAmDUi@EKEKCQEW_A}BUe@AEc@aAGCCACGMUAEGQEMCEHAGSm@uAQc@a@cAUm@a@cAc@gAGQk@qAWk@]u@k@uAYs@IWKUKWIQEMM[ACc@gA_@}@Qc@Yq@{BqFmAuCWi@KYGQI[CSC[?SAY?gA?K@WC}B?_B?Q?s@?q@AK?iA?OAgCA{ACkC?_A?U?_@A{E?i@CkH?KC}FCuDAsA?UA}CAaC?KAuDA}A?m@?k@Ag@G]?cAAO?K?a@?W?a@?cAAk@?a@?_AAsAAyA?yAAOAyA?_@AiB?cAAuB?E?_@E{KN?"}, "start_location": {"lat": 29.705711, "lng": -95.468828}, "transit_details": {"arrival_stop": {"location": {"lat": 29.7254958, "lng": -95.41073010000001}, "name": "Bissonnet St @ S Shepherd Dr"}, "arrival_time": {"text": "3:28pm", "time_zone": "America/Chicago", "value": 1642022880}, "departure_stop": {"location": {"lat": 29.705711, "lng": -95.468828}, "name": "Bellaire Transit Center"}, "departure_time": {"text": "3:11pm", "time_zone": "America/Chicago", "value": 1642021860}, "headsign": "Wheeler TC", "line": {"agencies": [{"name": "Metropolitan Transit Authority of Harris County", "phone": "1 (713) 635-4000", "url": "http://www.ridemetro.org/"}], "color": "#004080", "name": "Bissonnet", "short_name": "65", "text_color": "#ffffff", "url": "https://www.ridemetro.org/MetroPDFs/Schedules/BusSchedules/n065-Bissonnet.pdf", "vehicle": {"icon": "//maps.gstatic.com/mapfiles/transit/iw2/6/bus2.png", "name": "Bus", "type": "BUS"}}, "num_stops": 24, "trip_short_name": "BISSONNET"}, "travel_mode": "TRANSIT"}, {"distance": {"text": "164 ft", "value": 50}, "duration": {"text": "1 min", "value": 45}, "end_location": {"lat": 29.7253171, "lng": -95.41048599999999}, "html_instructions": "Walk to S Shepherd Dr @ Bissonnet St", "polyline": {"points": "swltD`|ieQA_@?Ol@?"}, "start_location": {"lat": 29.72554409999999, "lng": -95.41073209999999}, "steps": [{"distance": {"text": "66 ft", "value": 20}, "duration": {"text": "1 min", "value": 14}, "end_location": {"lat": 29.7255475, "lng": -95.41048649999999}, "html_instructions": "Head <b>east</b> on <b>Bissonnet St</b> toward <b>S Shepherd Dr</b>", "polyline": {"points": "swltD`|ieQA_@?O"}, "start_location": {"lat": 29.72554409999999, "lng": -95.41073209999999}, "travel_mode": "WALKING"}, {"distance": {"text": "98 ft", "value": 30}, "duration": {"text": "1 min", "value": 31}, "end_location": {"lat": 29.7253171, "lng": -95.41048599999999}, "html_instructions": "Turn <b>right</b> onto <b>S Shepherd Dr</b>", "maneuver": "turn-right", "polyline": {"points": "uwltDpzieQl@?"}, "start_location": {"lat": 29.7255475, "lng": -95.41048649999999}, "travel_mode": "WALKING"}], "travel_mode": "WALKING"}, {"distance": {"text": "5.5 mi", "value": 8876}, "duration": {"text": "22 mins", "value": 1320}, "end_location": {"lat": 29.803613, "lng": -95.41008699999999}, "html_instructions": "Bus towards N Shepherd P&R", "polyline": {"points": "gvltDjzieQ?Ls@?iD@yB?S?c@@gB?oCBU@eB@e@?]?eA?S?O?U?aA?i@@A?[?A?Y@k@?]?m@?W?iD@c@@aA@eADcAAQ?aA?S@c@?U@y@Ao@AgB?cA@sA?cA@Q?iD@wA?u@@e@?c@?M?_A@]?y@?y@@Y?K?y@@O?s@?y@?eB@cA?y@@O?K?W?I?c@?E?}ABE?q@?gA?]Aa@G[GSCg@AS@M?Y?a@?m@?_A?c@@S?sC@gA@iA?kD?iB?_@?[?Y?q@@gB?{@?Y@qA?eA?I?uD@i@@_A?Q?O?{@?m@?M?g@@y@@g@@Q?[?{@?OGEAGCEEGCECECGEY[OYEKCECGEQ_AuCAEEIQe@IQCEACGIEGEGGIIIEEOKGEQKMEk@Oo@@M?{@?WIgB?KEC?SAYAU?IA]?SAeA?S?g@AcA@EBIFKFA@CBIHCDGHGXQ@aAJa@Da@DC?}AL]D]DK@KEA?A?I?G?M?MAAAA?C?AAE?CAA?OCC?AAM?WA[FE@E@c@HG@YD_@HeAPKBw@TgABW?C?W?k@@_A@K?[@SBe@Dc@@SBa@?eA@[?M?eA@c@?e@?]?_@@Y?k@?M?qCBg@?Q?M@U?e@?M?qCB]?w@@_@?E@W?e@?mB@gA?k@@]?qB@c@@a@CE@e@@m@?S@kA?cA@aCBM?oC@eA@oA@Y?[?O?a@Bm@?U?o@?e@@I?A?A?y@?M@YAS@O?_@@w@@y@?]?M?YAMAMCOEYIIAa@Kc@Ku@QGACAm@MAAOCIAK?OAM?M?A?I?O?S@M@IBc@Jq@P}@Vg@Jk@Ji@Hc@Be@DE?c@Bs@ByABA?oCBYA}B@I?A?q@@K?E?k@?C?O@u@?S?k@@w@@K?a@?O?[@U?U?U?k@@k@?Y@C?I?S?kC@y@@K?W@[?S?A?W?G?U@S?c@?e@@O?E?[?mCBeA@U?Y?S?U@A?S?aA@_@?e@@Q?S?U?s@?C?W?qB@sB@eBBg@?oBBaGBq@@w@?aB@i@@W@_B@yA@aB@Q?qD@U@gB?eB@eBA_A@?K"}, "start_location": {"lat": 29.7253163, "lng": -95.4104565}, "transit_details": {"arrival_stop": {"location": {"lat": 29.803613, "lng": -95.41008699999999}, "name": "N Shepherd Dr @ W 20th St"}, "arrival_time": {"text": "3:59pm", "time_zone": "America/Chicago", "value": 1642024740}, "departure_stop": {"location": {"lat": 29.7253163, "lng": -95.4104565}, "name": "S Shepherd Dr @ Bissonnet St"}, "departure_time": {"text": "3:37pm", "time_zone": "America/Chicago", "value": 1642023420}, "headsign": "N Shepherd P&R", "line": {"agencies": [{"name": "Metropolitan Transit Authority of Harris County", "phone": "1 (713) 635-4000", "url": "http://www.ridemetro.org/"}], "color": "#004080", "name": "Shepherd", "short_name": "27", "text_color": "#ffffff", "url": "https://www.ridemetro.org/MetroPDFs/Schedules/BusSchedules/n027-Shepherd.pdf", "vehicle": {"icon": "//maps.gstatic.com/mapfiles/transit/iw2/6/bus2.png", "name": "Bus", "type": "BUS"}}, "num_stops": 38, "trip_short_name": "SHEPHERD"}, "travel_mode": "TRANSIT"}, {"distance": {"text": "112 ft", "value": 34}, "duration": {"text": "1 min", "value": 34}, "end_location": {"lat": 29.803842, "lng": -95.41002979999999}, "html_instructions": "Walk to W 20th St @ N Shepherd Dr", "polyline": {"points": "q_|tDdxieQ_@@M??Q"}, "start_location": {"lat": 29.8036121, "lng": -95.410111}, "steps": [{"distance": {"text": "69 ft", "value": 21}, "duration": {"text": "1 min", "value": 15}, "end_location": {"lat": 29.8038391, "lng": -95.4101207}, "html_instructions": "Head <b>north</b> on <b>N Shepherd Dr</b> toward <b>W 20th St</b>", "polyline": {"points": "q_|tDdxieQ_@@M?"}, "start_location": {"lat": 29.8036121, "lng": -95.410111}, "travel_mode": "WALKING"}, {"distance": {"text": "43 ft", "value": 13}, "duration": {"text": "1 min", "value": 19}, "end_location": {"lat": 29.803842, "lng": -95.41002979999999}, "html_instructions": "Turn <b>right</b> onto <b>W 20th St</b>", "maneuver": "turn-right", "polyline": {"points": "_a|tDfxieQ?Q"}, "start_location": {"lat": 29.8038391, "lng": -95.4101207}, "travel_mode": "WALKING"}], "travel_mode": "WALKING"}, {"distance": {"text": "2.7 mi", "value": 4367}, "duration": {"text": "10 mins", "value": 582}, "end_location": {"lat": 29.80163, "lng": -95.454342}, "html_instructions": "Bus towards Memorial City", "polyline": {"points": "ea|tDvwieQJ?@V?fA@`ABfE?tABtJ?pB@rA?r@?H?|@?jB?@?j@@h@AL?\\?J@f@?|B?h@?|@?n@?N?|G?J@tE?d@@dC?p@AL@J?V@P@H?B?D@F@HBH@JDPDLDLDHDJDJHLFHFHLL?@TVTVn@v@NRh@h@NPVX^f@BJBFBFf@v@P`@DZDVBT@F?D@F?H?P@P?X?N?F?j@@pAIpB@f@?V?fA?j@?V@h@AjA?h@@~@?b@@^Af@@d@?X?bA?jA?b@@nC?J?d@Aj@?v@?P@dB?jA?bC?`A?\\@dH?`D?dC@fE?jD?T@`F@vB?jD?vC?X?`E@V@zCAb@?fAAX@fB@fA?T@|B?l@A~A?x@?XAzB?`A?dB?l@?P?F?H@^?Z?@?H?@?Z?h@?f@?j@?^?t@@j@BnAAV@|@@fB?bBG?"}, "start_location": {"lat": 29.803869, "lng": -95.410039}, "transit_details": {"arrival_stop": {"location": {"lat": 29.80163, "lng": -95.454342}, "name": "W 18th St @ Northwest Fwy"}, "arrival_time": {"text": "4:18pm", "time_zone": "America/Chicago", "value": 1642025920}, "departure_stop": {"location": {"lat": 29.803869, "lng": -95.410039}, "name": "W 20th St @ N Shepherd Dr"}, "departure_time": {"text": "4:08pm", "time_zone": "America/Chicago", "value": 1642025338}, "headsign": "Memorial City", "line": {"agencies": [{"name": "Metropolitan Transit Authority of Harris County", "phone": "1 (713) 635-4000", "url": "http://www.ridemetro.org/"}], "color": "#004080", "name": "Long Point / Cavalcade", "short_name": "26", "text_color": "#ffffff", "url": "https://www.ridemetro.org/MetroPDFs/Schedules/BusSchedules/n026-Long-Point-Cavalcade.pdf", "vehicle": {"icon": "//maps.gstatic.com/mapfiles/transit/iw2/6/bus2.png", "name": "Bus", "type": "BUS"}}, "num_stops": 14, "trip_short_name": "LONGPOINT"}, "travel_mode": "TRANSIT"}, {"distance": {"text": "322 ft", "value": 98}, "duration": {"text": "1 min", "value": 77}, "end_location": {"lat": 29.8019199, "lng": -95.45428179999999}, "html_instructions": "Walk to 4400 W 18th St, Houston, TX 77092, USA", "polyline": {"points": "es{tDrlreQ?z@YEc@E?G@Q@a@"}, "start_location": {"lat": 29.8016264, "lng": -95.454342}, "steps": [{"distance": {"text": "95 ft", "value": 29}, "duration": {"text": "1 min", "value": 22}, "end_location": {"lat": 29.8016252, "lng": -95.45463819999999}, "html_instructions": "Head <b>west</b> on <b>W 18th St</b>/<wbr/><b>NW Mall</b>", "polyline": {"points": "es{tDrlreQ?z@"}, "start_location": {"lat": 29.8016264, "lng": -95.454342}, "travel_mode": "WALKING"}, {"distance": {"text": "131 ft", "value": 40}, "duration": {"text": "1 min", "value": 33}, "end_location": {"lat": 29.8019405, "lng": -95.4545788}, "html_instructions": "Turn <b>right</b><div style=\"font-size:0.9em\">Restricted usage road</div>", "maneuver": "turn-right", "polyline": {"points": "es{tDnnreQYEc@E"}, "start_location": {"lat": 29.8016252, "lng": -95.45463819999999}, "travel_mode": "WALKING"}, {"distance": {"text": "95 ft", "value": 29}, "duration": {"text": "1 min", "value": 22}, "end_location": {"lat": 29.8019199, "lng": -95.45428179999999}, "html_instructions": "Turn <b>right</b><div style=\"font-size:0.9em\">Restricted usage road</div><div style=\"font-size:0.9em\">Destination will be on the left</div>", "maneuver": "turn-right", "polyline": {"points": "cu{tDbnreQ?G@Q@a@"}, "start_location": {"lat": 29.8019405, "lng": -95.4545788}, "travel_mode": "WALKING"}], "travel_mode": "WALKING"}], "traffic_speed_entry": [], "via_waypoint": []}], "overview_polyline": {"points": "_jhtDf}teQ@tAG?Bd@yB@?NgA?q@?MHs@BwA@qA@B^?nBe@@q@JK?EmA\\G\\UBuAsD@kD@qA?o@{A{AmDgAoCeEeK{FgNQi@EUGUg@wAWk@gAgC}@{BSWsB}EyDmJeH}P}C{H{FiNuCcHoIuSyBoFCQEW_A}BWk@c@aAGCGIO[M_@CEHAu@iBs@gBcBkEmCiG{AyDoB{EmFkMQm@Go@AaCCcMIqUO}_@EaL?yAAg@G]AsA?m@AiDGsNCiHE{LN?G?Ao@l@??E?Ls@?cH@oHD_EBiG@gA@mG@eBBiCBkC@gFAmFBmNDqIBeIB{CBeBA}@O{@Ea@@iD?sSDsZFwCDm@?{@?OGMEMIKGa@a@]s@mAwDa@aA[c@g@a@_@Qk@Oo@@iA?WIgB?OEm@CqACeE?]TY\\GXQ@cBPaDXi@FMEa@?QCQCUEe@Aa@HkAReBZcAX{BBsCDqBNqC@aHBuLHoJD_FDg@AsA@eHFsHDaGDcC@aDBsAC}D_A{@Su@Gg@?{@F{D`AuATiAHi@BmCFiHBoCB_MHg_@TcMF_VP_KDiI@_A@?K?B_@@M??QE@J?@~ADhGDpS?lI@nE?fDBvVBv@F`@Rx@Zn@xBjC`BhB^f@BJFNf@v@P`@Jr@Fj@B|EIpB@f@?~A?xDBxIBjk@D`a@@xK@pG@rCAlCApG@tF?zFDpE@jEG??z@YEc@E?GBs@"}, "summary": "", "warnings": ["Walking directions are in beta. Use caution \u2013 This route may be missing sidewalks or pedestrian paths."], "waypoint_order": []}, {"bounds": {"northeast": {"lat": 29.8026444, "lng": -95.45426839999999}, "southwest": {"lat": 29.7028653, "lng": -95.4688334}}, "copyrights": "Map data \u00a92022", "legs": [{"arrival_time": {"text": "4:16pm", "time_zone": "America/Chicago", "value": 1642025799}, "departure_time": {"text": "3:00pm", "time_zone": "America/Chicago", "value": 1642021226}, "distance": {"text": "9.2 mi", "value": 14739}, "duration": {"text": "1 hour 16 mins", "value": 4573}, "end_address": "4400 W 18th St, Houston, TX 77092, USA", "end_location": {"lat": 29.8019199, "lng": -95.45428179999999}, "start_address": "7000 S 3rd St, Bellaire, TX 77401, USA", "start_location": {"lat": 29.7028772, "lng": -95.4672404}, "steps": [{"distance": {"text": "0.3 mi", "value": 437}, "duration": {"text": "6 mins", "value": 333}, "end_location": {"lat": 29.7054641, "lng": -95.46877099999999}, "html_instructions": "Walk to Bellaire Transit Center", "polyline": {"points": "_jhtDf}teQ@D?j@?R?NG?Bd@yB@?NU?q@?q@?MHe@@M@o@?g@@M?cA@B^?nBe@@"}, "start_location": {"lat": 29.7028772, "lng": -95.4672404}, "steps": [{"distance": {"text": "125 ft", "value": 38}, "duration": {"text": "1 min", "value": 27}, "end_location": {"lat": 29.7028653, "lng": -95.46767039999999}, "html_instructions": "Head <b>west</b>", "polyline": {"points": "_jhtDf}teQ@D?j@?R?N"}, "start_location": {"lat": 29.7028772, "lng": -95.4672404}, "travel_mode": "WALKING"}, {"distance": {"text": "16 ft", "value": 5}, "duration": {"text": "1 min", "value": 6}, "end_location": {"lat": 29.7029082, "lng": -95.4676714}, "html_instructions": "Turn <b>right</b> toward <b>S Rice Ave</b>", "maneuver": "turn-right", "polyline": {"points": "}ihtD|_ueQG?"}, "start_location": {"lat": 29.7028653, "lng": -95.46767039999999}, "travel_mode": "WALKING"}, {"distance": {"text": "85 ft", "value": 26}, "duration": {"text": "1 min", "value": 19}, "end_location": {"lat": 29.7028941, "lng": -95.467856}, "html_instructions": "Turn <b>left</b> toward <b>S Rice Ave</b>", "maneuver": "turn-left", "polyline": {"points": "ejhtD|_ueQBd@"}, "start_location": {"lat": 29.7029082, "lng": -95.4676714}, "travel_mode": "WALKING"}, {"distance": {"text": "0.2 mi", "value": 269}, "duration": {"text": "3 mins", "value": 208}, "end_location": {"lat": 29.705287, "lng": -95.4680435}, "html_instructions": "Turn <b>right</b> onto <b>S Rice Ave</b>", "maneuver": "turn-right", "polyline": {"points": "ajhtDbaueQyB@?NU?q@?q@?MHe@@M@o@?g@@M?cA@"}, "start_location": {"lat": 29.7028941, "lng": -95.467856}, "travel_mode": "WALKING"}, {"distance": {"text": "240 ft", "value": 73}, "duration": {"text": "1 min", "value": 54}, "end_location": {"lat": 29.705271, "lng": -95.468757}, "html_instructions": "Turn <b>left</b>", "maneuver": "turn-left", "polyline": {"points": "ayhtDfbueQB^?nB"}, "start_location": {"lat": 29.705287, "lng": -95.4680435}, "travel_mode": "WALKING"}, {"distance": {"text": "85 ft", "value": 26}, "duration": {"text": "1 min", "value": 19}, "end_location": {"lat": 29.7054641, "lng": -95.46877099999999}, "html_instructions": "Turn <b>right</b>", "maneuver": "turn-right", "polyline": {"points": "}xhtDvfueQe@@"}, "start_location": {"lat": 29.705271, "lng": -95.468757}, "travel_mode": "WALKING"}], "travel_mode": "WALKING"}, {"distance": {"text": "1.7 mi", "value": 2751}, "duration": {"text": "10 mins", "value": 600}, "end_location": {"lat": 29.725155, "lng": -95.46466799999999}, "html_instructions": "Bus towards Magnolia Park TC", "polyline": {"points": "u{htDdgueQK?EmA\\G\\U@w@@]S?eA@g@?q@?K?S?yA?q@@q@?_@?s@@c@@oCBU?QFmC@_D@S?eEBI?M?w@@mD@O?wB@g@?a@?[@]?oB@C?kBA}@@y@?Y@_@?]?_@?S?yB@UAW@K?U?oA@k@?O?U?g@@O?Q?W?U?w@@[?U?U?gA?C?Y?cB@g@@S?E?_@?u@?cCB[?oA?u@@I?[?_B@I?E?}A?e@?[@MEGAC?SAs@?g@?@LK?k@B_@@ASCcAEiAEoAz@IXq@NkAHkI?AA@"}, "start_location": {"lat": 29.705711, "lng": -95.468828}, "transit_details": {"arrival_stop": {"location": {"lat": 29.725155, "lng": -95.46466799999999}, "name": "Westpark/Lower Uptown Transit Center"}, "arrival_time": {"text": "3:16pm", "time_zone": "America/Chicago", "value": 1642022160}, "departure_stop": {"location": {"lat": 29.705711, "lng": -95.468828}, "name": "Bellaire Transit Center"}, "departure_time": {"text": "3:06pm", "time_zone": "America/Chicago", "value": 1642021560}, "headsign": "Magnolia Park TC", "line": {"agencies": [{"name": "Metropolitan Transit Authority of Harris County", "phone": "1 (713) 635-4000", "url": "http://www.ridemetro.org/"}], "color": "#004080", "name": "Canal / Memorial", "short_name": "20", "text_color": "#ffffff", "url": "https://www.ridemetro.org/MetroPDFs/Schedules/BusSchedules/n020-Canal-Memorial.pdf", "vehicle": {"icon": "//maps.gstatic.com/mapfiles/transit/iw2/6/bus2.png", "name": "Bus", "type": "BUS"}}, "num_stops": 9, "trip_short_name": "CANALMEM"}, "travel_mode": "TRANSIT"}, {"distance": {"text": "417 ft", "value": 127}, "duration": {"text": "2 mins", "value": 91}, "end_location": {"lat": 29.7253541, "lng": -95.46407669999999}, "html_instructions": "Walk to Westpark/Lower Uptown Transit Center", "polyline": {"points": "isltDjmteQ@{@@S?G@e@iB@"}, "start_location": {"lat": 29.7248461, "lng": -95.4646963}, "steps": [{"distance": {"text": "121 ft", "value": 37}, "duration": {"text": "1 min", "value": 26}, "end_location": {"lat": 29.7248261, "lng": -95.46429529999999}, "html_instructions": "Head <b>east</b> toward <b>Terminal St</b><div style=\"font-size:0.9em\">Restricted usage road</div>", "polyline": {"points": "isltDjmteQ@{@@S"}, "start_location": {"lat": 29.7248461, "lng": -95.4646963}, "travel_mode": "WALKING"}, {"distance": {"text": "85 ft", "value": 26}, "duration": {"text": "1 min", "value": 18}, "end_location": {"lat": 29.7248162, "lng": -95.4640694}, "html_instructions": "Continue onto <b>Terminal St</b><div style=\"font-size:0.9em\">Restricted usage road</div>", "polyline": {"points": "esltDzjteQ?G@e@"}, "start_location": {"lat": 29.7248261, "lng": -95.46429529999999}, "travel_mode": "WALKING"}, {"distance": {"text": "210 ft", "value": 64}, "duration": {"text": "1 min", "value": 47}, "end_location": {"lat": 29.7253541, "lng": -95.46407669999999}, "html_instructions": "Turn <b>left</b> onto <b>Anderson St</b>", "maneuver": "turn-left", "polyline": {"points": "csltDliteQiB@"}, "start_location": {"lat": 29.7248162, "lng": -95.4640694}, "travel_mode": "WALKING"}], "travel_mode": "WALKING"}, {"distance": {"text": "4.9 mi", "value": 7874}, "duration": {"text": "27 mins", "value": 1620}, "end_location": {"lat": 29.783398, "lng": -95.454597}, "html_instructions": "Bus towards Northwest TC", "polyline": {"points": "mvltD~jteQN@?XQ?KAPtHq@dB]B_@gKCe@I}Ck@yN{C^iB?_GrAeANkA?_AG{@k@oIuCWIoAM?Ce@K_@EGAoBMmAB{@@M@mAA_B?iADK@}@D{@Fc@Do@?[?[?}A@K?a@Ac@A[BE?W?[AwA@e@Ay@C]AqACcABW?S?c@AO?E@WBqA`@[H_@H[FWDWBE@Q@Q@m@AeA@k@?Q?yA?w@@w@?y@B}@@Q@m@?_@?w@@eB@@TuCDoBD}@@wBBoCBO?CA{ENm@?q@AY?[Ic@GUEs@KSEg@Ow@[WEe@Yg@]YSWSe@c@W]SSAEUYCEMUS]OWSe@IWSk@iAwDIU@[Qi@[gAMe@GYKg@GgA?W?SP??u@AC?C?OQGIAG?A?S@G?I?_A@kBBK?kB@uC@W?gB?g@?}B?Q?wA?u@Be@Bg@JwAXo@J{@@yA@sB?S@}@@iAFu@B{@@kBFyADcCJeCJkFN_CHeCBG?gA@eADY@U@mD@_ABcBDI?qA@c@@}@@A?qA?kADi@D_A?y@@C?oACaA?aA@mA@o@Bu@FK?i@@s@BS?G?}@AC?oA?yA?mBA_C?S?iA?eBDcB?kA@sA@sA@yADC?wA@s@@O?M?O?w@?s@?e@@{@@i@@o@@y@Bs@?@SDoA@oA@Q?gA@e@?Y@cBv@@J?FAD?AG"}, "start_location": {"lat": 29.725351, "lng": -95.464325}, "transit_details": {"arrival_stop": {"location": {"lat": 29.783398, "lng": -95.454597}, "name": "Northwest Transit Center - METRORapid Platform"}, "arrival_time": {"text": "3:51pm", "time_zone": "America/Chicago", "value": 1642024260}, "departure_stop": {"location": {"lat": 29.725351, "lng": -95.464325}, "name": "Westpark/Lower Uptown Transit Center"}, "departure_time": {"text": "3:24pm", "time_zone": "America/Chicago", "value": 1642022640}, "headsign": "Northwest TC", "line": {"agencies": [{"name": "Metropolitan Transit Authority of Harris County", "phone": "1 (713) 635-4000", "url": "http://www.ridemetro.org/"}], "color": "#000000", "name": "METRORapid Silver Line", "short_name": "Silver", "text_color": "#ffffff", "url": "https://www.ridemetro.org/MetroPDFs/Schedules/BusSchedules/433-Silver-Line.pdf", "vehicle": {"icon": "//maps.gstatic.com/mapfiles/transit/iw2/6/bus2.png", "name": "Bus", "type": "BUS"}}, "num_stops": 9, "trip_short_name": "SILVER LINE"}, "travel_mode": "TRANSIT"}, {"distance": {"text": "456 ft", "value": 139}, "duration": {"text": "2 mins", "value": 102}, "end_location": {"lat": 29.7827161, "lng": -95.4551537}, "html_instructions": "Walk to Northwest Transit Center - South Platform", "polyline": {"points": "gaxtDfnreQD?BAV?D?J?N@LDBBELNJLL\\LJAEHCNET"}, "start_location": {"lat": 29.7833985, "lng": -95.4546003}, "steps": [{"distance": {"text": "335 ft", "value": 102}, "duration": {"text": "1 min", "value": 76}, "end_location": {"lat": 29.78264219999999, "lng": -95.4549134}, "html_instructions": "Head <b>south</b>", "polyline": {"points": "gaxtDfnreQD?BAV?D?J?N@LDBBELNJLL\\LJA"}, "start_location": {"lat": 29.7833985, "lng": -95.4546003}, "travel_mode": "WALKING"}, {"distance": {"text": "121 ft", "value": 37}, "duration": {"text": "1 min", "value": 26}, "end_location": {"lat": 29.7827161, "lng": -95.4551537}, "html_instructions": "Sharp <b>right</b>", "maneuver": "turn-sharp-right", "polyline": {"points": "o|wtDdpreQEHCNET"}, "start_location": {"lat": 29.78264219999999, "lng": -95.4549134}, "travel_mode": "WALKING"}], "travel_mode": "WALKING"}, {"distance": {"text": "1.7 mi", "value": 2673}, "duration": {"text": "7 mins", "value": 412}, "end_location": {"lat": 29.801027, "lng": -95.45922999999999}, "html_instructions": "Bus towards West Belt", "polyline": {"points": "g_xtDtsreQT??`@HDB@F@D?DABA@CDIDSB[@g@BUBM@AN]FGJY@K?MCUCKCCA?OGQAGAE?E@GDQJOPMD[BY@W?aAAY@c@?AVAzAAb@?f@?L?ZAn@?`B?R?f@sBNO@Q@Y?W?K@wA@y@@K?u@?wA@U?O?}@@I?Y?_@?_@@oA@oD@eABM?A?a@?c@?qA@W?w@?cA@s@?c@@_@?uA@a@?OAY?q@@c@?_@?[@cA@a@?U?G?C?E?]@S?S@]@c@?}@@M?w@@]?mA@_B@W?E?e@Aa@EQEWG[OUM[QIG_@Ui@i@e@_@OQQQOMCCc@a@MR{A|BU\\W`@sBtCg@z@a@L{@vA]b@Sd@w@lAYh@OQ"}, "start_location": {"lat": 29.783077, "lng": -95.455467}, "transit_details": {"arrival_stop": {"location": {"lat": 29.801027, "lng": -95.45922999999999}, "name": "Hempstead Rd @ W 18th St"}, "arrival_time": {"text": "4:06pm", "time_zone": "America/Chicago", "value": 1642025212}, "departure_stop": {"location": {"lat": 29.783077, "lng": -95.455467}, "name": "Northwest Transit Center - South Platform"}, "departure_time": {"text": "4:00pm", "time_zone": "America/Chicago", "value": 1642024800}, "headsign": "West Belt", "line": {"agencies": [{"name": "Metropolitan Transit Authority of Harris County", "phone": "1 (713) 635-4000", "url": "http://www.ridemetro.org/"}], "color": "#004080", "name": "Hammerly", "short_name": "58", "text_color": "#ffffff", "url": "https://www.ridemetro.org/MetroPDFs/Schedules/BusSchedules/n058-Hammerly.pdf", "vehicle": {"icon": "//maps.gstatic.com/mapfiles/transit/iw2/6/bus2.png", "name": "Bus", "type": "BUS"}}, "num_stops": 8, "trip_short_name": "HAMMERLY"}, "travel_mode": "TRANSIT"}, {"distance": {"text": "0.5 mi", "value": 738}, "duration": {"text": "10 mins", "value": 587}, "end_location": {"lat": 29.8019199, "lng": -95.45428179999999}, "html_instructions": "Walk to 4400 W 18th St, Houston, TX 77092, USA", "polyline": {"points": "mo{tDdkseQKPKKKAK?I@IB?Q?aA?M?QAO?OM?M@M?mED@[Ae@?g@ASDKP]d@}@Xq@B]QOIIOMEKKAQUGGEIAE?C?A@C@EBEV_@KMNWHMJSRa@Ts@R}@Jy@Hy@?G@Q@a@"}, "start_location": {"lat": 29.8010254, "lng": -95.4592253}, "steps": [{"distance": {"text": "49 ft", "value": 15}, "duration": {"text": "1 min", "value": 11}, "end_location": {"lat": 29.8011512, "lng": -95.4592626}, "html_instructions": "Head <b>northwest</b>", "polyline": {"points": "mo{tDdkseQKPKK"}, "start_location": {"lat": 29.8010254, "lng": -95.4592253}, "travel_mode": "WALKING"}, {"distance": {"text": "102 ft", "value": 31}, "duration": {"text": "1 min", "value": 23}, "end_location": {"lat": 29.8013705, "lng": -95.4592806}, "html_instructions": "Turn <b>right</b> toward <b>W 18th St</b>", "maneuver": "turn-right", "polyline": {"points": "ep{tDjkseQKAK?I@IB"}, "start_location": {"lat": 29.8011512, "lng": -95.4592626}, "travel_mode": "WALKING"}, {"distance": {"text": "240 ft", "value": 73}, "duration": {"text": "1 min", "value": 61}, "end_location": {"lat": 29.8014508, "lng": -95.4585436}, "html_instructions": "Turn <b>right</b> onto <b>W 18th St</b>", "maneuver": "turn-right", "polyline": {"points": "qq{tDnkseQ?Q?aA?M?QAO?OM?"}, "start_location": {"lat": 29.8013705, "lng": -95.4592806}, "travel_mode": "WALKING"}, {"distance": {"text": "440 ft", "value": 134}, "duration": {"text": "2 mins", "value": 127}, "end_location": {"lat": 29.80261729999999, "lng": -95.45858140000001}, "html_instructions": "Turn <b>left</b> onto <b>Mangum Rd</b>", "maneuver": "turn-left", "polyline": {"points": "ar{tDzfseQM@M?mED"}, "start_location": {"lat": 29.8014508, "lng": -95.4585436}, "travel_mode": "WALKING"}, {"distance": {"text": "0.1 mi", "value": 168}, "duration": {"text": "2 mins", "value": 133}, "end_location": {"lat": 29.8021725, "lng": -95.45703209999999}, "html_instructions": "Turn <b>right</b>", "maneuver": "turn-right", "polyline": {"points": "ky{tDbgseQ@[Ae@?g@ASDKP]d@}@Xq@B]"}, "start_location": {"lat": 29.80261729999999, "lng": -95.45858140000001}, "travel_mode": "WALKING"}, {"distance": {"text": "348 ft", "value": 106}, "duration": {"text": "1 min", "value": 80}, "end_location": {"lat": 29.8024852, "lng": -95.4562641}, "html_instructions": "Turn <b>left</b><div style=\"font-size:0.9em\">Partial restricted usage road</div>", "maneuver": "turn-left", "polyline": {"points": "qv{tDl}reQQOIIOMEKKAQUGGEIAE?C?A@C@EBEV_@"}, "start_location": {"lat": 29.8021725, "lng": -95.45703209999999}, "travel_mode": "WALKING"}, {"distance": {"text": "33 ft", "value": 10}, "duration": {"text": "1 min", "value": 8}, "end_location": {"lat": 29.8025494, "lng": -95.456192}, "html_instructions": "Turn <b>left</b><div style=\"font-size:0.9em\">Restricted usage road</div>", "maneuver": "turn-left", "polyline": {"points": "qx{tDrxreQKM"}, "start_location": {"lat": 29.8024852, "lng": -95.4562641}, "travel_mode": "WALKING"}, {"distance": {"text": "0.1 mi", "value": 201}, "duration": {"text": "2 mins", "value": 144}, "end_location": {"lat": 29.8019199, "lng": -95.45428179999999}, "html_instructions": "Turn <b>right</b><div style=\"font-size:0.9em\">Restricted usage road</div><div style=\"font-size:0.9em\">Destination will be on the left</div>", "maneuver": "turn-right", "polyline": {"points": "}x{tDdxreQNWHMJSRa@Ts@R}@Jy@Hy@?G@Q@a@"}, "start_location": {"lat": 29.8025494, "lng": -95.456192}, "travel_mode": "WALKING"}], "travel_mode": "WALKING"}], "traffic_speed_entry": [], "via_waypoint": []}], "overview_polyline": {"points": "_jhtDf}teQ@tAG?Bd@yB@?NgA?q@?MHs@BwA@qA@B^?nBe@@q@JK?EmA\\G\\UBuAsD@uIDeDBQFmC@sD@oEBcGB}EBoLB_PD{F@{KFyJBaA@UGsBA@LK?kADQqFz@IXq@NkAHkIA?z@D@{@@[@e@iB@?n@N@?XQ?KAPtHq@dB]Bc@mLu@wS{C^iB?_GrAeANkA?_AG{@k@oIuCWIoAMe@Og@GoBMmABiABmDAoETsADw@?oDAuA@}B?wAEqACcABk@?s@A]DmBj@{@Pu@JwCBoE@aEFkFB@TuCDmDFgGFSA{ENm@?kAAiCc@{@Uw@[WEmAw@q@g@e@c@W]UY{@sAc@}@]cAsAmE@[Qi@i@mBSaAG_B?SP?Ay@?C?OQGQAg@@cHF}H@oC?wA?u@Be@Bg@JgCd@}GDgCHqBDoMd@kJXmCB}DJmFDmBDuDDgGJ}@@qCCoCBeBJ}BDuNCoDDoD@eGHkIDoEHs@?@SF_DByC@cBv@@RAD?AGD?l@AN@LDBBEL\\X\\LJAIXETgA~@T??`@LFL@HCFMHo@D}@DOVe@Le@Cc@GOQGYCK@YPOPMDu@DwC?E~DAzD?z@cCPoABsEB_HDsIFyC@cKDaHBkCDkKFk@As@Ks@Wq@_@i@]oAiAu@u@c@a@MRqBzCkCvDg@z@a@L{@vA]b@Sd@w@lAYh@OQKPKKKAU@IB?Q?oAAa@?OM?[@mED@[AmAB_@v@{AXq@B][YUYKAQUMQ?ODKV_@KMXe@^u@Ts@^wBHaABs@"}, "summary": "", "warnings": ["Walking directions are in beta. Use caution \u2013 This route may be missing sidewalks or pedestrian paths."], "waypoint_order": []}, {"bounds": {"northeast": {"lat": 29.8026484, "lng": -95.45427269999999}, "southwest": {"lat": 29.7028653, "lng": -95.4688334}}, "copyrights": "Map data \u00a92022", "legs": [{"arrival_time": {"text": "4:19pm", "time_zone": "America/Chicago", "value": 1642025975}, "departure_time": {"text": "3:00pm", "time_zone": "America/Chicago", "value": 1642021226}, "distance": {"text": "9.2 mi", "value": 14729}, "duration": {"text": "1 hour 19 mins", "value": 4749}, "end_address": "4400 W 18th St, Houston, TX 77092, USA", "end_location": {"lat": 29.8019199, "lng": -95.45428179999999}, "start_address": "7000 S 3rd St, Bellaire, TX 77401, USA", "start_location": {"lat": 29.7028772, "lng": -95.4672404}, "steps": [{"distance": {"text": "0.3 mi", "value": 437}, "duration": {"text": "6 mins", "value": 333}, "end_location": {"lat": 29.7054641, "lng": -95.46877099999999}, "html_instructions": "Walk to Bellaire Transit Center", "polyline": {"points": "_jhtDf}teQ@D?j@?R?NG?Bd@yB@?NU?q@?q@?MHe@@M@o@?g@@M?cA@B^?nBe@@"}, "start_location": {"lat": 29.7028772, "lng": -95.4672404}, "steps": [{"distance": {"text": "125 ft", "value": 38}, "duration": {"text": "1 min", "value": 27}, "end_location": {"lat": 29.7028653, "lng": -95.46767039999999}, "html_instructions": "Head <b>west</b>", "polyline": {"points": "_jhtDf}teQ@D?j@?R?N"}, "start_location": {"lat": 29.7028772, "lng": -95.4672404}, "travel_mode": "WALKING"}, {"distance": {"text": "16 ft", "value": 5}, "duration": {"text": "1 min", "value": 6}, "end_location": {"lat": 29.7029082, "lng": -95.4676714}, "html_instructions": "Turn <b>right</b> toward <b>S Rice Ave</b>", "maneuver": "turn-right", "polyline": {"points": "}ihtD|_ueQG?"}, "start_location": {"lat": 29.7028653, "lng": -95.46767039999999}, "travel_mode": "WALKING"}, {"distance": {"text": "85 ft", "value": 26}, "duration": {"text": "1 min", "value": 19}, "end_location": {"lat": 29.7028941, "lng": -95.467856}, "html_instructions": "Turn <b>left</b> toward <b>S Rice Ave</b>", "maneuver": "turn-left", "polyline": {"points": "ejhtD|_ueQBd@"}, "start_location": {"lat": 29.7029082, "lng": -95.4676714}, "travel_mode": "WALKING"}, {"distance": {"text": "0.2 mi", "value": 269}, "duration": {"text": "3 mins", "value": 208}, "end_location": {"lat": 29.705287, "lng": -95.4680435}, "html_instructions": "Turn <b>right</b> onto <b>S Rice Ave</b>", "maneuver": "turn-right", "polyline": {"points": "ajhtDbaueQyB@?NU?q@?q@?MHe@@M@o@?g@@M?cA@"}, "start_location": {"lat": 29.7028941, "lng": -95.467856}, "travel_mode": "WALKING"}, {"distance": {"text": "240 ft", "value": 73}, "duration": {"text": "1 min", "value": 54}, "end_location": {"lat": 29.705271, "lng": -95.468757}, "html_instructions": "Turn <b>left</b>", "maneuver": "turn-left", "polyline": {"points": "ayhtDfbueQB^?nB"}, "start_location": {"lat": 29.705287, "lng": -95.4680435}, "travel_mode": "WALKING"}, {"distance": {"text": "85 ft", "value": 26}, "duration": {"text": "1 min", "value": 19}, "end_location": {"lat": 29.7054641, "lng": -95.46877099999999}, "html_instructions": "Turn <b>right</b>", "maneuver": "turn-right", "polyline": {"points": "}xhtDvfueQe@@"}, "start_location": {"lat": 29.705271, "lng": -95.468757}, "travel_mode": "WALKING"}], "travel_mode": "WALKING"}, {"distance": {"text": "1.7 mi", "value": 2751}, "duration": {"text": "10 mins", "value": 600}, "end_location": {"lat": 29.725155, "lng": -95.46466799999999}, "html_instructions": "Bus towards Magnolia Park TC", "polyline": {"points": "u{htDdgueQK?EmA\\G\\U@w@@]S?eA@g@?q@?K?S?yA?q@@q@?_@?s@@c@@oCBU?QFmC@_D@S?eEBI?M?w@@mD@O?wB@g@?a@?[@]?oB@C?kBA}@@y@?Y@_@?]?_@?S?yB@UAW@K?U?oA@k@?O?U?g@@O?Q?W?U?w@@[?U?U?gA?C?Y?cB@g@@S?E?_@?u@?cCB[?oA?u@@I?[?_B@I?E?}A?e@?[@MEGAC?SAs@?g@?@LK?k@B_@@ASCcAEiAEoAz@IXq@NkAHkI?AA@"}, "start_location": {"lat": 29.705711, "lng": -95.468828}, "transit_details": {"arrival_stop": {"location": {"lat": 29.725155, "lng": -95.46466799999999}, "name": "Westpark/Lower Uptown Transit Center"}, "arrival_time": {"text": "3:16pm", "time_zone": "America/Chicago", "value": 1642022160}, "departure_stop": {"location": {"lat": 29.705711, "lng": -95.468828}, "name": "Bellaire Transit Center"}, "departure_time": {"text": "3:06pm", "time_zone": "America/Chicago", "value": 1642021560}, "headsign": "Magnolia Park TC", "line": {"agencies": [{"name": "Metropolitan Transit Authority of Harris County", "phone": "1 (713) 635-4000", "url": "http://www.ridemetro.org/"}], "color": "#004080", "name": "Canal / Memorial", "short_name": "20", "text_color": "#ffffff", "url": "https://www.ridemetro.org/MetroPDFs/Schedules/BusSchedules/n020-Canal-Memorial.pdf", "vehicle": {"icon": "//maps.gstatic.com/mapfiles/transit/iw2/6/bus2.png", "name": "Bus", "type": "BUS"}}, "num_stops": 9, "trip_short_name": "CANALMEM"}, "travel_mode": "TRANSIT"}, {"distance": {"text": "417 ft", "value": 127}, "duration": {"text": "2 mins", "value": 91}, "end_location": {"lat": 29.7253541, "lng": -95.46407669999999}, "html_instructions": "Walk to Westpark/Lower Uptown Transit Center", "polyline": {"points": "isltDjmteQ@{@@S?G@e@iB@"}, "start_location": {"lat": 29.7248461, "lng": -95.4646963}, "steps": [{"distance": {"text": "121 ft", "value": 37}, "duration": {"text": "1 min", "value": 26}, "end_location": {"lat": 29.7248261, "lng": -95.46429529999999}, "html_instructions": "Head <b>east</b> toward <b>Terminal St</b><div style=\"font-size:0.9em\">Restricted usage road</div>", "polyline": {"points": "isltDjmteQ@{@@S"}, "start_location": {"lat": 29.7248461, "lng": -95.4646963}, "travel_mode": "WALKING"}, {"distance": {"text": "85 ft", "value": 26}, "duration": {"text": "1 min", "value": 18}, "end_location": {"lat": 29.7248162, "lng": -95.4640694}, "html_instructions": "Continue onto <b>Terminal St</b><div style=\"font-size:0.9em\">Restricted usage road</div>", "polyline": {"points": "esltDzjteQ?G@e@"}, "start_location": {"lat": 29.7248261, "lng": -95.46429529999999}, "travel_mode": "WALKING"}, {"distance": {"text": "210 ft", "value": 64}, "duration": {"text": "1 min", "value": 47}, "end_location": {"lat": 29.7253541, "lng": -95.46407669999999}, "html_instructions": "Turn <b>left</b> onto <b>Anderson St</b>", "maneuver": "turn-left", "polyline": {"points": "csltDliteQiB@"}, "start_location": {"lat": 29.7248162, "lng": -95.4640694}, "travel_mode": "WALKING"}], "travel_mode": "WALKING"}, {"distance": {"text": "4.9 mi", "value": 7874}, "duration": {"text": "27 mins", "value": 1620}, "end_location": {"lat": 29.783398, "lng": -95.454597}, "html_instructions": "Bus towards Northwest TC", "polyline": {"points": "mvltD~jteQN@?XQ?KAPtHq@dB]B_@gKCe@I}Ck@yN{C^iB?_GrAeANkA?_AG{@k@oIuCWIoAM?Ce@K_@EGAoBMmAB{@@M@mAA_B?iADK@}@D{@Fc@Do@?[?[?}A@K?a@Ac@A[BE?W?[AwA@e@Ay@C]AqACcABW?S?c@AO?E@WBqA`@[H_@H[FWDWBE@Q@Q@m@AeA@k@?Q?yA?w@@w@?y@B}@@Q@m@?_@?w@@eB@@TuCDoBD}@@wBBoCBO?CA{ENm@?q@AY?[Ic@GUEs@KSEg@Ow@[WEe@Yg@]YSWSe@c@W]SSAEUYCEMUS]OWSe@IWSk@iAwDIU@[Qi@[gAMe@GYKg@GgA?W?SP??u@AC?C?OQGIAG?A?S@G?I?_A@kBBK?kB@uC@W?gB?g@?}B?Q?wA?u@Be@Bg@JwAXo@J{@@yA@sB?S@}@@iAFu@B{@@kBFyADcCJeCJkFN_CHeCBG?gA@eADY@U@mD@_ABcBDI?qA@c@@}@@A?qA?kADi@D_A?y@@C?oACaA?aA@mA@o@Bu@FK?i@@s@BS?G?}@AC?oA?yA?mBA_C?S?iA?eBDcB?kA@sA@sA@yADC?wA@s@@O?M?O?w@?s@?e@@{@@i@@o@@y@Bs@?@SDoA@oA@Q?gA@e@?Y@cBv@@J?FAD?AG"}, "start_location": {"lat": 29.725351, "lng": -95.464325}, "transit_details": {"arrival_stop": {"location": {"lat": 29.783398, "lng": -95.454597}, "name": "Northwest Transit Center - METRORapid Platform"}, "arrival_time": {"text": "3:51pm", "time_zone": "America/Chicago", "value": 1642024260}, "departure_stop": {"location": {"lat": 29.725351, "lng": -95.464325}, "name": "Westpark/Lower Uptown Transit Center"}, "departure_time": {"text": "3:24pm", "time_zone": "America/Chicago", "value": 1642022640}, "headsign": "Northwest TC", "line": {"agencies": [{"name": "Metropolitan Transit Authority of Harris County", "phone": "1 (713) 635-4000", "url": "http://www.ridemetro.org/"}], "color": "#000000", "name": "METRORapid Silver Line", "short_name": "Silver", "text_color": "#ffffff", "url": "https://www.ridemetro.org/MetroPDFs/Schedules/BusSchedules/433-Silver-Line.pdf", "vehicle": {"icon": "//maps.gstatic.com/mapfiles/transit/iw2/6/bus2.png", "name": "Bus", "type": "BUS"}}, "num_stops": 9, "trip_short_name": "SILVER LINE"}, "travel_mode": "TRANSIT"}, {"distance": {"text": "407 ft", "value": 124}, "duration": {"text": "2 mins", "value": 91}, "end_location": {"lat": 29.7837801, "lng": -95.4554653}, "html_instructions": "Walk to Northwest Transit Center - North Platform", "polyline": {"points": "gaxtDfnreQE?E@MA?Pm@?AxAAX?f@"}, "start_location": {"lat": 29.7833985, "lng": -95.4546003}, "steps": [{"distance": {"text": "148 ft", "value": 45}, "duration": {"text": "1 min", "value": 34}, "end_location": {"lat": 29.7837613, "lng": -95.45468609999999}, "html_instructions": "Head <b>north</b> toward <b>Old Katy Rd</b>", "polyline": {"points": "gaxtDfnreQE?E@MA?Pm@?"}, "start_location": {"lat": 29.7833985, "lng": -95.4546003}, "travel_mode": "WALKING"}, {"distance": {"text": "259 ft", "value": 79}, "duration": {"text": "1 min", "value": 57}, "end_location": {"lat": 29.7837801, "lng": -95.4554653}, "html_instructions": "Turn <b>left</b> onto <b>Old Katy Rd</b>", "maneuver": "turn-left", "polyline": {"points": "ocxtDxnreQAxAAX?f@"}, "start_location": {"lat": 29.7837613, "lng": -95.45468609999999}, "travel_mode": "WALKING"}], "travel_mode": "WALKING"}, {"distance": {"text": "1.7 mi", "value": 2678}, "duration": {"text": "7 mins", "value": 408}, "end_location": {"lat": 29.801027, "lng": -95.45922999999999}, "html_instructions": "Bus towards Greenspoint TC", "polyline": {"points": "w~wtDvwreQRwAF@D?DABA@CDIDSB[@g@BUBM@AN]FGJY@K?MCUCKCCA?OGQAGAE?E@GDQJOPMD[BY@W?aAAY@c@?AVAzAAb@?f@?L?ZAn@?`B?R?f@sBNO@Q@Y?W?K@wA@y@@K?u@?wA@U?O?}@@I?Y?_@?_@@oA@oD@eABM?A?a@?c@?qA@W?w@?cA@s@?c@@_@?uA@a@?OAY?q@@c@?_@?[@cA@a@?U?G?C?E?]@S?S@]@c@?}@@M?w@@]?mA@_B@W?E?e@Aa@EQEWG[OUM[QIG_@Ui@i@e@_@OQQQOMCCc@a@MR{A|BU\\W`@sBtCg@z@a@L{@vA]b@Sd@w@lAYh@OQ"}, "start_location": {"lat": 29.7830001, "lng": -95.4561157}, "transit_details": {"arrival_stop": {"location": {"lat": 29.801027, "lng": -95.45922999999999}, "name": "Hempstead Rd @ W 18th St"}, "arrival_time": {"text": "4:09pm", "time_zone": "America/Chicago", "value": 1642025388}, "departure_stop": {"location": {"lat": 29.7830001, "lng": -95.4561157}, "name": "Northwest Transit Center - North Platform"}, "departure_time": {"text": "4:03pm", "time_zone": "America/Chicago", "value": 1642024980}, "headsign": "Greenspoint TC", "line": {"agencies": [{"name": "Metropolitan Transit Authority of Harris County", "phone": "1 (713) 635-4000", "url": "http://www.ridemetro.org/"}], "color": "#004080", "name": "Antoine / Washington", "short_name": "85", "text_color": "#ffffff", "url": "https://www.ridemetro.org/MetroPDFs/Schedules/BusSchedules/n085-Antoine-Washington.pdf", "vehicle": {"icon": "//maps.gstatic.com/mapfiles/transit/iw2/6/bus2.png", "name": "Bus", "type": "BUS"}}, "num_stops": 8, "trip_short_name": "ANTOINWAS"}, "travel_mode": "TRANSIT"}, {"distance": {"text": "0.5 mi", "value": 738}, "duration": {"text": "10 mins", "value": 587}, "end_location": {"lat": 29.8019199, "lng": -95.45428179999999}, "html_instructions": "Walk to 4400 W 18th St, Houston, TX 77092, USA", "polyline": {"points": "mo{tDdkseQKPKKKAK?I@IB?Q?aA?M?QAO?OM?M@M?mED@[Ae@?g@ASDKP]d@}@Xq@B]QOIIOMEKKAQUGGEIAE?C?A@C@EBEV_@KMNWHMJSRa@Ts@R}@Jy@Hy@?G@Q@a@"}, "start_location": {"lat": 29.8010254, "lng": -95.4592253}, "steps": [{"distance": {"text": "49 ft", "value": 15}, "duration": {"text": "1 min", "value": 11}, "end_location": {"lat": 29.8011512, "lng": -95.4592626}, "html_instructions": "Head <b>northwest</b>", "polyline": {"points": "mo{tDdkseQKPKK"}, "start_location": {"lat": 29.8010254, "lng": -95.4592253}, "travel_mode": "WALKING"}, {"distance": {"text": "102 ft", "value": 31}, "duration": {"text": "1 min", "value": 23}, "end_location": {"lat": 29.8013705, "lng": -95.4592806}, "html_instructions": "Turn <b>right</b> toward <b>W 18th St</b>", "maneuver": "turn-right", "polyline": {"points": "ep{tDjkseQKAK?I@IB"}, "start_location": {"lat": 29.8011512, "lng": -95.4592626}, "travel_mode": "WALKING"}, {"distance": {"text": "240 ft", "value": 73}, "duration": {"text": "1 min", "value": 61}, "end_location": {"lat": 29.8014508, "lng": -95.4585436}, "html_instructions": "Turn <b>right</b> onto <b>W 18th St</b>", "maneuver": "turn-right", "polyline": {"points": "qq{tDnkseQ?Q?aA?M?QAO?OM?"}, "start_location": {"lat": 29.8013705, "lng": -95.4592806}, "travel_mode": "WALKING"}, {"distance": {"text": "440 ft", "value": 134}, "duration": {"text": "2 mins", "value": 127}, "end_location": {"lat": 29.80261729999999, "lng": -95.45858140000001}, "html_instructions": "Turn <b>left</b> onto <b>Mangum Rd</b>", "maneuver": "turn-left", "polyline": {"points": "ar{tDzfseQM@M?mED"}, "start_location": {"lat": 29.8014508, "lng": -95.4585436}, "travel_mode": "WALKING"}, {"distance": {"text": "0.1 mi", "value": 168}, "duration": {"text": "2 mins", "value": 133}, "end_location": {"lat": 29.8021725, "lng": -95.45703209999999}, "html_instructions": "Turn <b>right</b>", "maneuver": "turn-right", "polyline": {"points": "ky{tDbgseQ@[Ae@?g@ASDKP]d@}@Xq@B]"}, "start_location": {"lat": 29.80261729999999, "lng": -95.45858140000001}, "travel_mode": "WALKING"}, {"distance": {"text": "348 ft", "value": 106}, "duration": {"text": "1 min", "value": 80}, "end_location": {"lat": 29.8024852, "lng": -95.4562641}, "html_instructions": "Turn <b>left</b><div style=\"font-size:0.9em\">Partial restricted usage road</div>", "maneuver": "turn-left", "polyline": {"points": "qv{tDl}reQQOIIOMEKKAQUGGEIAE?C?A@C@EBEV_@"}, "start_location": {"lat": 29.8021725, "lng": -95.45703209999999}, "travel_mode": "WALKING"}, {"distance": {"text": "33 ft", "value": 10}, "duration": {"text": "1 min", "value": 8}, "end_location": {"lat": 29.8025494, "lng": -95.456192}, "html_instructions": "Turn <b>left</b><div style=\"font-size:0.9em\">Restricted usage road</div>", "maneuver": "turn-left", "polyline": {"points": "qx{tDrxreQKM"}, "start_location": {"lat": 29.8024852, "lng": -95.4562641}, "travel_mode": "WALKING"}, {"distance": {"text": "0.1 mi", "value": 201}, "duration": {"text": "2 mins", "value": 144}, "end_location": {"lat": 29.8019199, "lng": -95.45428179999999}, "html_instructions": "Turn <b>right</b><div style=\"font-size:0.9em\">Restricted usage road</div><div style=\"font-size:0.9em\">Destination will be on the left</div>", "maneuver": "turn-right", "polyline": {"points": "}x{tDdxreQNWHMJSRa@Ts@R}@Jy@Hy@?G@Q@a@"}, "start_location": {"lat": 29.8025494, "lng": -95.456192}, "travel_mode": "WALKING"}], "travel_mode": "WALKING"}], "traffic_speed_entry": [], "via_waypoint": []}], "overview_polyline": {"points": "_jhtDf}teQ@tAG?Bd@yB@?NgA?q@?MHs@BwA@qA@B^?nBe@@q@JK?EmA\\G\\UBuAsD@uIDeDBQFmC@sD@oEBcGB}EBoLB_PD{F@{KFyJBaA@UGsBA@LK?kADQqFz@IXq@NkAHkIA?z@D@{@@[@e@iB@?n@N@?XQ?KAPtHq@dB]Bc@mLu@wS{C^iB?_GrAeANkA?_AG{@k@oIuCWIoAMe@Og@GoBMmABiABmDAoETsADw@?oDAuA@}B?wAEqACcABk@?s@A]DmBj@{@Pu@JwCBoE@aEFkFB@TuCDmDFgGFSA{ENm@?kAAiCc@{@Uw@[WEmAw@q@g@e@c@W]UY{@sAc@}@]cAsAmE@[Qi@i@mBSaAG_B?SP?Ay@?C?OQGQAg@@cHF}H@oC?wA?u@Be@Bg@JgCd@}GDgCHqBDoMd@kJXmCB}DJmFDmBDuDDgGJ}@@qCCoCBeBJ}BDuNCoDDoD@eGHkIDoEHs@?@SF_DByC@cBv@@RAD?AGE?S??Pm@?CrB?f@zC`CRwAF@JADEJ]DcAFc@d@aA@YGa@ECOGQAMAMFa@\\MD[Bq@@{A?c@?AVC~BA`C?tB?f@sBNa@Bq@?iDDsD@gNJ{HBmEB}B?gFBkABmCBcGD]?gAGi@Mq@]e@Y_@Ui@i@u@q@a@_@g@e@iBpCm@~@sBtCg@z@a@L{@vA]b@Sd@qAvBOQKPKKWASD?sAA_AwFFA}BVi@~@oBB]QOYWEKKAY]GU^o@KMNWTa@Ra@Ts@R}@TsB@Y@a@"}, "summary": "", "warnings": ["Walking directions are in beta. Use caution \u2013 This route may be missing sidewalks or pedestrian paths."], "waypoint_order": []}, {"bounds": {"northeast": {"lat": 29.8026478, "lng": -95.45427269999999}, "southwest": {"lat": 29.7028653, "lng": -95.48477319999999}}, "copyrights": "Map data \u00a92022", "legs": [{"arrival_time": {"text": "4:35pm", "time_zone": "America/Chicago", "value": 1642026935}, "departure_time": {"text": "3:26pm", "time_zone": "America/Chicago", "value": 1642022765}, "distance": {"text": "11.0 mi", "value": 17632}, "duration": {"text": "1 hour 10 mins", "value": 4170}, "end_address": "4400 W 18th St, Houston, TX 77092, USA", "end_location": {"lat": 29.8019199, "lng": -95.45428179999999}, "start_address": "7000 S 3rd St, Bellaire, TX 77401, USA", "start_location": {"lat": 29.7028772, "lng": -95.4672404}, "steps": [{"distance": {"text": "331 ft", "value": 101}, "duration": {"text": "1 min", "value": 76}, "end_location": {"lat": 29.7031826, "lng": -95.4678612}, "html_instructions": "Walk to S Rice Ave @ Laurel St", "polyline": {"points": "_jhtDf}teQ@D?j@?R?NG?Bd@y@?"}, "start_location": {"lat": 29.7028772, "lng": -95.4672404}, "steps": [{"distance": {"text": "125 ft", "value": 38}, "duration": {"text": "1 min", "value": 27}, "end_location": {"lat": 29.7028653, "lng": -95.46767039999999}, "html_instructions": "Head <b>west</b>", "polyline": {"points": "_jhtDf}teQ@D?j@?R?N"}, "start_location": {"lat": 29.7028772, "lng": -95.4672404}, "travel_mode": "WALKING"}, {"distance": {"text": "16 ft", "value": 5}, "duration": {"text": "1 min", "value": 6}, "end_location": {"lat": 29.7029082, "lng": -95.4676714}, "html_instructions": "Turn <b>right</b> toward <b>S Rice Ave</b>", "maneuver": "turn-right", "polyline": {"points": "}ihtD|_ueQG?"}, "start_location": {"lat": 29.7028653, "lng": -95.46767039999999}, "travel_mode": "WALKING"}, {"distance": {"text": "85 ft", "value": 26}, "duration": {"text": "1 min", "value": 19}, "end_location": {"lat": 29.7028941, "lng": -95.467856}, "html_instructions": "Turn <b>left</b> toward <b>S Rice Ave</b>", "maneuver": "turn-left", "polyline": {"points": "ejhtD|_ueQBd@"}, "start_location": {"lat": 29.7029082, "lng": -95.4676714}, "travel_mode": "WALKING"}, {"distance": {"text": "105 ft", "value": 32}, "duration": {"text": "1 min", "value": 24}, "end_location": {"lat": 29.7031826, "lng": -95.4678612}, "html_instructions": "Turn <b>right</b> onto <b>S Rice Ave</b><div style=\"font-size:0.9em\">Destination will be on the right</div>", "maneuver": "turn-right", "polyline": {"points": "ajhtDbaueQy@?"}, "start_location": {"lat": 29.7028941, "lng": -95.467856}, "travel_mode": "WALKING"}], "travel_mode": "WALKING"}, {"distance": {"text": "8.6 mi", "value": 13852}, "duration": {"text": "39 mins", "value": 2363}, "end_location": {"lat": 29.783077, "lng": -95.455467}, "html_instructions": "Bus towards Northwest TC", "polyline": {"points": "elhtDt`ueQ?Tu@@U?q@?s@?MIk@Ae@?Q?w@?eB@S?eA@?V?`ATV@?@?\\G?BA@?@@@?B@T@`@@L?^?ZGb@[b@@VD`A?|@?P@bA@\\@fDCv@@jA?h@@j@?dB?x@@tA@f@?~A?d@?b@?h@?\\?N?t@?b@@d@?ViA?U?mA@I?sA?M@g@?Y?mA@_@?_@?O?G?YAk@@[?Y?s@@Q?u@?[?g@?w@@kC?[@yD@mB@{@?W@qD?Q?cB?cA@kB@q@@wA@O?u@?e@@Q?uD@mA?aA?c@?m@?A?Q?{B?qA@sA@a@?kC@aA?iCDaB@}A?uB?Q?eA@m@?c@?YAO?GAG?C?KAC?A?A?QAs@Cq@Aq@CE?A?YAe@AEAS?A?SA{@@cB?_A@[@cA?mB@oA?iC@w@@M?kA@_@?q@@c@?W@yA?Y@[?Y?k@?uEBoC@O@gA?G@M?yA@o@?m@@I?U@U?{@?sA@e@?Y?oA@S?aA@oA@_@??R@t@?fA?R?Z@N?N@F?L@V?H?HArA@L?J?^?hCiA?I?[?M?}B@c@@Y?I?w@@u@?uA?qA?cA@I?uB@iA?c@?uC@e@?]?K@g@?K?{B@_A?w@?aB@_A?K?g@?K@y@?Y?_A@C?S?A?o@?O@{@?mA@{A@I?uA@c@?e@?c@@[?c@?YAeB@a@?e@@{A?Y?iA@_B@s@@o@?w@@a@?O?U?sB?w@@m@?q@?aC@E?OAm@@Q?eA@eA@c@?iAAm@@mA@S?c@@]?_A?U?kA@G?m@?Y?c@@iA?]?Y@_@?i@?kA@Q?E?M?i@?M?Q?C?Q?]@_B@iA?K?Y@I?ODq@_AKQGKAAO[O]Qs@CEEYCSC_@C_@Aa@?SO?Q?YBWDA?SB[Dk@H_@FSBc@B_@HW@mB?oA@sAB]?y@B]?oABg@@Y?m@@}@AMAG?EA]Ca@EA?EAMAQAa@?gA?eA@o@?U?U?g@@M@I?WBg@F]JSFOFUJYNWROJGBm@b@uBzAmAx@UNABMHq@b@WNSNWRSLMJe@^y@v@ED_@`@WZQRY\\m@z@QXS\\Wd@[h@m@dAKNSX_@f@[^CAA?A?C?A@A?GFIHYVMLOLMJEBUTYX[TOPQPQNMFMFOFODSD[F{@FoAFqAFgBFgADw@BSAoE?kB@}@?OAC?q@CWAI?eAAB_B@]?C?]@A@i@@k@@q@@q@DeALcBDo@FkBBeAFyD?G@_@?i@?S@mC?C?qA?Q?o@?w@?[AqA?W?]AeC?{@?S?w@Aa@AoAEaBAUQ{FIqCEgA_@wKCcACe@Ak@AQGaBAS?MAcB?YAk@?E?[AQ?Y?cB?m@?cAAkA?gA@iB?mA?mA?i@?C?G?]@wB?G?C@{A@i@?[Bg@@Y@Y@UB_@Do@De@A?De@RwB\\aCd@gCRu@Z{@j@cAr@cAtB{BPWH[Fe@kHBQ?i@Sw@CSKISGOB_B?yA?i@BeCX?V?\\A^?\\?@?b@?BXQ^?f@?j@?d@W?"}, "start_location": {"lat": 29.703227, "lng": -95.46779099999999}, "transit_details": {"arrival_stop": {"location": {"lat": 29.783077, "lng": -95.455467}, "name": "Northwest Transit Center - South Platform"}, "arrival_time": {"text": "4:08pm", "time_zone": "America/Chicago", "value": 1642025280}, "departure_stop": {"location": {"lat": 29.703227, "lng": -95.46779099999999}, "name": "S Rice Ave @ Laurel St"}, "departure_time": {"text": "3:28pm", "time_zone": "America/Chicago", "value": 1642022917}, "headsign": "Northwest TC", "line": {"agencies": [{"name": "Metropolitan Transit Authority of Harris County", "phone": "1 (713) 635-4000", "url": "http://www.ridemetro.org/"}], "color": "#004080", "name": "Chimney Rock / S Post Oak", "short_name": "49", "text_color": "#ffffff", "url": "https://www.ridemetro.org/MetroPDFs/Schedules/BusSchedules/n049-Chimney-Rock-S-Post-Oak.pdf", "vehicle": {"icon": "//maps.gstatic.com/mapfiles/transit/iw2/6/bus2.png", "name": "Bus", "type": "BUS"}}, "num_stops": 33, "trip_short_name": "CHIMROCPOS"}, "travel_mode": "TRANSIT"}, {"distance": {"text": "0.2 mi", "value": 263}, "duration": {"text": "3 mins", "value": 192}, "end_location": {"lat": 29.7837801, "lng": -95.4554653}, "html_instructions": "Walk to Northwest Transit Center - North Platform", "polyline": {"points": "_}wtDtqreQDUBODIK@]MMMECOKICKAK@E?U?E?_@@m@?AxAAX?f@"}, "start_location": {"lat": 29.7827161, "lng": -95.4551537}, "steps": [{"distance": {"text": "121 ft", "value": 37}, "duration": {"text": "1 min", "value": 26}, "end_location": {"lat": 29.78264219999999, "lng": -95.4549134}, "html_instructions": "Head <b>east</b>", "polyline": {"points": "_}wtDtqreQDUBODI"}, "start_location": {"lat": 29.7827161, "lng": -95.4551537}, "travel_mode": "WALKING"}, {"distance": {"text": "482 ft", "value": 147}, "duration": {"text": "2 mins", "value": 109}, "end_location": {"lat": 29.7837613, "lng": -95.45468609999999}, "html_instructions": "Sharp <b>left</b> toward <b>Old Katy Rd</b>", "maneuver": "turn-sharp-left", "polyline": {"points": "o|wtDdpreQK@]MMMECOKICKAK@E?U?E?_@@m@?"}, "start_location": {"lat": 29.78264219999999, "lng": -95.4549134}, "travel_mode": "WALKING"}, {"distance": {"text": "259 ft", "value": 79}, "duration": {"text": "1 min", "value": 57}, "end_location": {"lat": 29.7837801, "lng": -95.4554653}, "html_instructions": "Turn <b>left</b> onto <b>Old Katy Rd</b>", "maneuver": "turn-left", "polyline": {"points": "ocxtDxnreQAxAAX?f@"}, "start_location": {"lat": 29.7837613, "lng": -95.45468609999999}, "travel_mode": "WALKING"}], "travel_mode": "WALKING"}, {"distance": {"text": "1.7 mi", "value": 2678}, "duration": {"text": "7 mins", "value": 408}, "end_location": {"lat": 29.801027, "lng": -95.45922999999999}, "html_instructions": "Bus towards SH 249", "polyline": {"points": "w~wtDvwreQRwAF@D?DABA@CDIDSB[@g@BUBM@AN]FGJY@K?MCUCKCCA?OGQAGAE?E@GDQJOPMD[BY@W?aAAY@c@?AVAzAAb@?f@?L?ZAn@?`B?R?f@sBNO@Q@Y?W?K@wA@y@@K?u@?wA@U?O?}@@I?Y?_@?_@@oA@oD@eABM?A?a@?c@?qA@W?w@?cA@s@?c@@_@?uA@a@?OAY?q@@c@?_@?[@cA@a@?U?G?C?E?]@S?S@]@c@?}@@M?w@@]?mA@_B@W?E?e@Aa@EQEWG[OUM[QIG_@Ui@i@e@_@OQQQOMCCc@a@MR{A|BU\\W`@sBtCg@z@a@L{@vA]b@Sd@w@lAYh@OQ"}, "start_location": {"lat": 29.7830001, "lng": -95.4561157}, "transit_details": {"arrival_stop": {"location": {"lat": 29.801027, "lng": -95.45922999999999}, "name": "Hempstead Rd @ W 18th St"}, "arrival_time": {"text": "4:25pm", "time_zone": "America/Chicago", "value": 1642026348}, "departure_stop": {"location": {"lat": 29.7830001, "lng": -95.4561157}, "name": "Northwest Transit Center - North Platform"}, "departure_time": {"text": "4:19pm", "time_zone": "America/Chicago", "value": 1642025940}, "headsign": "SH 249", "line": {"agencies": [{"name": "Metropolitan Transit Authority of Harris County", "phone": "1 (713) 635-4000", "url": "http://www.ridemetro.org/"}], "color": "#004080", "name": "Antoine / Washington", "short_name": "85", "text_color": "#ffffff", "url": "https://www.ridemetro.org/MetroPDFs/Schedules/BusSchedules/n085-Antoine-Washington.pdf", "vehicle": {"icon": "//maps.gstatic.com/mapfiles/transit/iw2/6/bus2.png", "name": "Bus", "type": "BUS"}}, "num_stops": 8, "trip_short_name": "ANTOINWAS"}, "travel_mode": "TRANSIT"}, {"distance": {"text": "0.5 mi", "value": 738}, "duration": {"text": "10 mins", "value": 587}, "end_location": {"lat": 29.8019199, "lng": -95.45428179999999}, "html_instructions": "Walk to 4400 W 18th St, Houston, TX 77092, USA", "polyline": {"points": "mo{tDdkseQKPKKKAK?I@IB?Q?aA?M?QAO?OM?M@M?mED@[Ae@?g@ASDKP]d@}@Xq@B]QOIIOMEKKAQUGGEIAE?C?A@C@EBEV_@KMNWHMJSRa@Ts@R}@Jy@Hy@?G@Q@a@"}, "start_location": {"lat": 29.8010254, "lng": -95.4592253}, "steps": [{"distance": {"text": "49 ft", "value": 15}, "duration": {"text": "1 min", "value": 11}, "end_location": {"lat": 29.8011512, "lng": -95.4592626}, "html_instructions": "Head <b>northwest</b>", "polyline": {"points": "mo{tDdkseQKPKK"}, "start_location": {"lat": 29.8010254, "lng": -95.4592253}, "travel_mode": "WALKING"}, {"distance": {"text": "102 ft", "value": 31}, "duration": {"text": "1 min", "value": 23}, "end_location": {"lat": 29.8013705, "lng": -95.4592806}, "html_instructions": "Turn <b>right</b> toward <b>W 18th St</b>", "maneuver": "turn-right", "polyline": {"points": "ep{tDjkseQKAK?I@IB"}, "start_location": {"lat": 29.8011512, "lng": -95.4592626}, "travel_mode": "WALKING"}, {"distance": {"text": "240 ft", "value": 73}, "duration": {"text": "1 min", "value": 61}, "end_location": {"lat": 29.8014508, "lng": -95.4585436}, "html_instructions": "Turn <b>right</b> onto <b>W 18th St</b>", "maneuver": "turn-right", "polyline": {"points": "qq{tDnkseQ?Q?aA?M?QAO?OM?"}, "start_location": {"lat": 29.8013705, "lng": -95.4592806}, "travel_mode": "WALKING"}, {"distance": {"text": "440 ft", "value": 134}, "duration": {"text": "2 mins", "value": 127}, "end_location": {"lat": 29.80261729999999, "lng": -95.45858140000001}, "html_instructions": "Turn <b>left</b> onto <b>Mangum Rd</b>", "maneuver": "turn-left", "polyline": {"points": "ar{tDzfseQM@M?mED"}, "start_location": {"lat": 29.8014508, "lng": -95.4585436}, "travel_mode": "WALKING"}, {"distance": {"text": "0.1 mi", "value": 168}, "duration": {"text": "2 mins", "value": 133}, "end_location": {"lat": 29.8021725, "lng": -95.45703209999999}, "html_instructions": "Turn <b>right</b>", "maneuver": "turn-right", "polyline": {"points": "ky{tDbgseQ@[Ae@?g@ASDKP]d@}@Xq@B]"}, "start_location": {"lat": 29.80261729999999, "lng": -95.45858140000001}, "travel_mode": "WALKING"}, {"distance": {"text": "348 ft", "value": 106}, "duration": {"text": "1 min", "value": 80}, "end_location": {"lat": 29.8024852, "lng": -95.4562641}, "html_instructions": "Turn <b>left</b><div style=\"font-size:0.9em\">Partial restricted usage road</div>", "maneuver": "turn-left", "polyline": {"points": "qv{tDl}reQQOIIOMEKKAQUGGEIAE?C?A@C@EBEV_@"}, "start_location": {"lat": 29.8021725, "lng": -95.45703209999999}, "travel_mode": "WALKING"}, {"distance": {"text": "33 ft", "value": 10}, "duration": {"text": "1 min", "value": 8}, "end_location": {"lat": 29.8025494, "lng": -95.456192}, "html_instructions": "Turn <b>left</b><div style=\"font-size:0.9em\">Restricted usage road</div>", "maneuver": "turn-left", "polyline": {"points": "qx{tDrxreQKM"}, "start_location": {"lat": 29.8024852, "lng": -95.4562641}, "travel_mode": "WALKING"}, {"distance": {"text": "0.1 mi", "value": 201}, "duration": {"text": "2 mins", "value": 144}, "end_location": {"lat": 29.8019199, "lng": -95.45428179999999}, "html_instructions": "Turn <b>right</b><div style=\"font-size:0.9em\">Restricted usage road</div><div style=\"font-size:0.9em\">Destination will be on the left</div>", "maneuver": "turn-right", "polyline": {"points": "}x{tDdxreQNWHMJSRa@Ts@R}@Jy@Hy@?G@Q@a@"}, "start_location": {"lat": 29.8025494, "lng": -95.456192}, "travel_mode": "WALKING"}], "travel_mode": "WALKING"}], "traffic_speed_entry": [], "via_waypoint": []}], "overview_polyline": {"points": "_jhtDf}teQ@tAG?Bd@y@?IM?Tu@@gA?s@?MIqAAcE@eA@?V?`ATVB?\\G?HBz@@l@G~@[b@@VD~BDzGAlDB`H@~I@`BwD@aIBiB?uC@gG@_KD_I@yHFgNBqODkED_E@{F@qBEuDKeAEeB?cSH{IFwHBoFDwHDiLFDhF@fE?hCiA?e@?iEBcND}YHaTJ}J@mKFqMBaEByE@sHBmIDqC@oEBYD}@qAi@gAUy@Im@IuBa@?q@H}ARs@JcALiHFeEFaA@kB?y@Gw@IaE?cC@wALwAf@iAr@gGhEyA`AmA|@_BvAe@f@i@n@gAxAyAfCy@tAs@`A[^CAC?G@y@v@y@r@u@n@a@b@_@V]Nc@JwANqI\\w@BSA{H@cCEa@AeAAB_B@a@@_@FyDRiDL{CLgH@cJCqLIkGc@kNu@cUE{I?uPDsHFwBPkCBe@RwB\\aCd@gCRu@Z{@j@cAr@cAtB{BPWH[Fe@kHBQ?i@Sw@CSKQc@FiJnBA^?b@?BXQ^?f@?pAW?fA_AHe@DIK@]MMMUOUEm@@mA@CrB?f@zC`CRwAF@JADEJ]DcAFc@P_@Ra@@YGa@ECOGQAMAMFa@\\MD[Bq@@{A?c@?AVC~B?t@A`E?f@sBNa@BuCBaIDoLHcKDwH@gEDkGFkEBgAGi@MwAw@_@Ui@i@u@q@iAeAwCpEsBtCg@z@a@L{@vA]b@Sd@qAvBOQKPKKWASD?sBA_@[@{ED?aAA{@Vi@~@oBB]QOYWEKKAY]GOBOZe@KMNWTa@Ra@Ts@R}@TsBB{@"}, "summary": "", "warnings": ["Walking directions are in beta. Use caution \u2013 This route may be missing sidewalks or pedestrian paths."], "waypoint_order": []}], "status": "OK"}