{"geocoded_waypoints": [{"geocoder_status": "OK", "place_id": "ChIJkdhBD1u_QIYR1Kl24tVZ-og", "types": ["establishment", "point_of_interest", "school"]}, {"geocoder_status": "OK", "place_id": "ChIJ9_tphxzHQIYRIMyPy_d3VZU", "types": ["establishment", "point_of_interest"]}], "routes": [{"bounds": {"northeast": {"lat": 29.804029, "lng": -95.385485}, "southwest": {"lat": 29.7561606, "lng": -95.45463819999999}}, "copyrights": "Map data \u00a92022", "legs": [{"arrival_time": {"text": "4:34pm", "time_zone": "America/Chicago", "value": 1642026897}, "departure_time": {"text": "3:57pm", "time_zone": "America/Chicago", "value": 1642024649}, "distance": {"text": "7.7 mi", "value": 12323}, "duration": {"text": "37 mins", "value": 2248}, "end_address": "4400 W 18th St, Houston, TX 77092, USA", "end_location": {"lat": 29.8019199, "lng": -95.45428179999999}, "start_address": "1101 Taft St, Houston, TX 77019, USA", "start_location": {"lat": 29.7561606, "lng": -95.3856667}, "steps": [{"distance": {"text": "0.1 mi", "value": 184}, "duration": {"text": "2 mins", "value": 146}, "end_location": {"lat": 29.7576532, "lng": -95.3854862}, "html_instructions": "Walk to W Dallas St @ Taft St", "polyline": {"points": "_wrtDl_eeQM?cC@M?}@?Q?k@?M??e@"}, "start_location": {"lat": 29.7561606, "lng": -95.3856667}, "steps": [{"distance": {"text": "0.1 mi", "value": 161}, "duration": {"text": "2 mins", "value": 119}, "end_location": {"lat": 29.757649, "lng": -95.385682}, "html_instructions": "Head <b>north</b> on <b>Taft St</b> toward <b>W Polk St</b>", "polyline": {"points": "_wrtDl_eeQM?cC@M?}@?Q?k@?M?"}, "start_location": {"lat": 29.7561606, "lng": -95.3856667}, "travel_mode": "WALKING"}, {"distance": {"text": "75 ft", "value": 23}, "duration": {"text": "1 min", "value": 27}, "end_location": {"lat": 29.7576532, "lng": -95.3854862}, "html_instructions": "Turn <b>right</b> onto <b>W Dallas St</b>", "maneuver": "turn-right", "polyline": {"points": "i`stDn_eeQ?e@"}, "start_location": {"lat": 29.757649, "lng": -95.385682}, "travel_mode": "WALKING"}], "travel_mode": "WALKING"}, {"distance": {"text": "4.1 mi", "value": 6599}, "duration": {"text": "16 mins", "value": 960}, "end_location": {"lat": 29.804029, "lng": -95.398901}, "html_instructions": "Bus towards N Shepherd P&R", "polyline": {"points": "q`stDh~deQLA@n@@R?H?P@p@?~@@dA@h@?rA@F?^@rA@f@@|B?lA?p@@P?LB|D@`C@lB@P?@?F@\\?Z?dA@fA@vABjB@dA?`@?^@T?hB@p@@|B@^B|C@rA?R?V?r@_B@{ABk@@uA@yAAa@A{A?O?aC?Y?O?I?Y@[@A?G@E?G@UBMDMFOF}@^_A^QHSH]NQFC@MBEB[DWDW@Y@m@Em@GMCIACAOCEAMCe@QSISIUM_@Q[KGEWMCAUMCCAAWQ[UECSOYUOKGG[WSKSIYMKCKEqCm@c@E_ABq@@yB@O?k@Bc@BQJO@Q@MBWNB[y@?c@?[?o@?oA@qA@S?O@G?cA?{EDm@?{ABa@@C?eA?[?aB?YAmA@kA@S@C?O@g@?[?s@BG?C?U?M?E?s@A}@@}A@I?gJDI?sHD{@@eJDK?S?E?{@@m@@yEBO?_JFS?gIFW?M?yDB{C@Y?kFBsB@Q?aC@mB@iB@W?yB@c@@_E@S?cJHK?qHF]?O?O@iE?_EDK?{@?i@@cB?gBBs@@_@?Q??R?L@R?N?f@?h@@|@M?"}, "start_location": {"lat": 29.757689, "lng": -95.385487}, "transit_details": {"arrival_stop": {"location": {"lat": 29.804029, "lng": -95.398901}, "name": "W 20th St @ Yale St"}, "arrival_time": {"text": "4:16pm", "time_zone": "America/Chicago", "value": 1642025760}, "departure_stop": {"location": {"lat": 29.757689, "lng": -95.385487}, "name": "W Dallas St @ Taft St"}, "departure_time": {"text": "4:00pm", "time_zone": "America/Chicago", "value": 1642024800}, "headsign": "N Shepherd P&R", "line": {"agencies": [{"name": "Metropolitan Transit Authority of Harris County", "phone": "1 (713) 635-4000", "url": "http://www.ridemetro.org/"}], "color": "#004080", "name": "Telephone / Heights", "short_name": "40", "text_color": "#ffffff", "url": "https://www.ridemetro.org/MetroPDFs/Schedules/BusSchedules/n040-Telephone-Heights.pdf", "vehicle": {"icon": "//maps.gstatic.com/mapfiles/transit/iw2/6/bus2.png", "name": "Bus", "type": "BUS"}}, "num_stops": 30, "trip_short_name": "TELEHEIGHT"}, "travel_mode": "TRANSIT"}, {"distance": {"text": "3.4 mi", "value": 5442}, "duration": {"text": "12 mins", "value": 725}, "end_location": {"lat": 29.80163, "lng": -95.454342}, "html_instructions": "Bus towards Memorial City", "polyline": {"points": "eb|tDbrgeQL??\\?d@?b@@n@?pA@|B?d@?`@@t@?T?pA@v@@rA?v@@bD@~@?nA@H?tB@^@dC?P?j@@x@?x@?t@@P?dA@|A?\\?^@dC@zB?xA?N@V?fA@`ABfE?tABtJ?pB@rA?r@?H?|@?jB?@?j@@h@AL?\\?J@f@?|B?h@?|@?n@?N?|G?J@tE?d@@dC?p@AL@J?V@P@H?B?D@F@HBH@JDPDLDLDHDJDJHLFHFHLL?@TVTVn@v@NRh@h@NPVX^f@BJBFBFf@v@P`@DZDVBT@F?D@F?H?P@P?X?N?F?j@@pAIpB@f@?V?fA?j@?V@h@AjA?h@@~@?b@@^Af@@d@?X?bA?jA?b@@nC?J?d@Aj@?v@?P@dB?jA?bC?`A?\\@dH?`D?dC@fE?jD?T@`F@vB?jD?vC?X?`E@V@zCAb@?fAAX@fB@fA?T@|B?l@A~A?x@?XAzB?`A?dB?l@?P?F?H@^?Z?@?H?@?Z?h@?f@?j@?^?t@@j@BnAAV@|@@fB?bBG?"}, "start_location": {"lat": 29.804029, "lng": -95.398901}, "transit_details": {"arrival_stop": {"location": {"lat": 29.80163, "lng": -95.454342}, "name": "W 18th St @ Northwest Fwy"}, "arrival_time": {"text": "4:33pm", "time_zone": "America/Chicago", "value": 1642026820}, "departure_stop": {"location": {"lat": 29.804029, "lng": -95.398901}, "name": "W 20th St @ Yale St"}, "departure_time": {"text": "4:21pm", "time_zone": "America/Chicago", "value": 1642026095}, "headsign": "Memorial City", "line": {"agencies": [{"name": "Metropolitan Transit Authority of Harris County", "phone": "1 (713) 635-4000", "url": "http://www.ridemetro.org/"}], "color": "#004080", "name": "Long Point / Cavalcade", "short_name": "26", "text_color": "#ffffff", "url": "https://www.ridemetro.org/MetroPDFs/Schedules/BusSchedules/n026-Long-Point-Cavalcade.pdf", "vehicle": {"icon": "//maps.gstatic.com/mapfiles/transit/iw2/6/bus2.png", "name": "Bus", "type": "BUS"}}, "num_stops": 18, "trip_short_name": "LONGPOINT"}, "travel_mode": "TRANSIT"}, {"distance": {"text": "322 ft", "value": 98}, "duration": {"text": "1 min", "value": 77}, "end_location": {"lat": 29.8019199, "lng": -95.45428179999999}, "html_instructions": "Walk to 4400 W 18th St, Houston, TX 77092, USA", "polyline": {"points": "es{tDrlreQ?z@YEc@E?G@Q@a@"}, "start_location": {"lat": 29.8016264, "lng": -95.454342}, "steps": [{"distance": {"text": "95 ft", "value": 29}, "duration": {"text": "1 min", "value": 22}, "end_location": {"lat": 29.8016252, "lng": -95.45463819999999}, "html_instructions": "Head <b>west</b> on <b>W 18th St</b>/<wbr/><b>NW Mall</b>", "polyline": {"points": "es{tDrlreQ?z@"}, "start_location": {"lat": 29.8016264, "lng": -95.454342}, "travel_mode": "WALKING"}, {"distance": {"text": "131 ft", "value": 40}, "duration": {"text": "1 min", "value": 33}, "end_location": {"lat": 29.8019405, "lng": -95.4545788}, "html_instructions": "Turn <b>right</b><div style=\"font-size:0.9em\">Restricted usage road</div>", "maneuver": "turn-right", "polyline": {"points": "es{tDnnreQYEc@E"}, "start_location": {"lat": 29.8016252, "lng": -95.45463819999999}, "travel_mode": "WALKING"}, {"distance": {"text": "95 ft", "value": 29}, "duration": {"text": "1 min", "value": 22}, "end_location": {"lat": 29.8019199, "lng": -95.45428179999999}, "html_instructions": "Turn <b>right</b><div style=\"font-size:0.9em\">Restricted usage road</div><div style=\"font-size:0.9em\">Destination will be on the left</div>", "maneuver": "turn-right", "polyline": {"points": "cu{tDbnreQ?G@Q@a@"}, "start_location": {"lat": 29.8019405, "lng": -95.4545788}, "travel_mode": "WALKING"}], "travel_mode": "WALKING"}], "traffic_speed_entry": [], "via_waypoint": []}], "overview_polyline": {"points": "_wrtDl_eeQ}E@}@?M??e@G?LABbA@lCJdNJ~QRlZD|G?r@_B@gCDoD?}BA{D?wAFc@H]NcDrAaA\\y@Nq@B{AM[GUEs@U}@a@{Aq@_@U{C}BmAg@}Cs@c@E_ABkDB{@Bc@BQJa@BMBWNB[y@?_A?o@?eEDuIDgEDeF?sBD_CBm@?qB?gB@aVLkKDg`@VqZLe]RkJFeLFqHDsA@Q??R@`@?v@@fBM?L??bA@rA@vGHdQFlNNnc@Fbc@BhX?bBBd@Hf@Vv@\\n@j@p@tAbBx@z@v@`AFRj@~@V|@Hl@B^@lA?r@@pAIpB@~@?rB@`AAtB@jDBtL?jOBtWBzO?~OBrDAjB@~E@jDAxCA|H?pA@vD@lDDlG?bBG??z@}@K@Y@a@"}, "summary": "", "warnings": ["Walking directions are in beta. Use caution \u2013 This route may be missing sidewalks or pedestrian paths."], "waypoint_order": []}, {"bounds": {"northeast": {"lat": 29.8026478, "lng": -95.385485}, "southwest": {"lat": 29.7561606, "lng": -95.4593211}}, "copyrights": "Map data \u00a92022", "legs": [{"arrival_time": {"text": "4:49pm", "time_zone": "America/Chicago", "value": 1642027775}, "departure_time": {"text": "3:57pm", "time_zone": "America/Chicago", "value": 1642024649}, "distance": {"text": "8.3 mi", "value": 13301}, "duration": {"text": "52 mins", "value": 3126}, "end_address": "4400 W 18th St, Houston, TX 77092, USA", "end_location": {"lat": 29.8019199, "lng": -95.45428179999999}, "start_address": "1101 Taft St, Houston, TX 77019, USA", "start_location": {"lat": 29.7561606, "lng": -95.3856667}, "steps": [{"distance": {"text": "0.1 mi", "value": 184}, "duration": {"text": "2 mins", "value": 146}, "end_location": {"lat": 29.7576532, "lng": -95.3854862}, "html_instructions": "Walk to W Dallas St @ Taft St", "polyline": {"points": "_wrtDl_eeQM?cC@M?}@?Q?k@?M??e@"}, "start_location": {"lat": 29.7561606, "lng": -95.3856667}, "steps": [{"distance": {"text": "0.1 mi", "value": 161}, "duration": {"text": "2 mins", "value": 119}, "end_location": {"lat": 29.757649, "lng": -95.385682}, "html_instructions": "Head <b>north</b> on <b>Taft St</b> toward <b>W Polk St</b>", "polyline": {"points": "_wrtDl_eeQM?cC@M?}@?Q?k@?M?"}, "start_location": {"lat": 29.7561606, "lng": -95.3856667}, "travel_mode": "WALKING"}, {"distance": {"text": "75 ft", "value": 23}, "duration": {"text": "1 min", "value": 27}, "end_location": {"lat": 29.7576532, "lng": -95.3854862}, "html_instructions": "Turn <b>right</b> onto <b>W Dallas St</b>", "maneuver": "turn-right", "polyline": {"points": "i`stDn_eeQ?e@"}, "start_location": {"lat": 29.757649, "lng": -95.385682}, "travel_mode": "WALKING"}], "travel_mode": "WALKING"}, {"distance": {"text": "1.7 mi", "value": 2733}, "duration": {"text": "7 mins", "value": 441}, "end_location": {"lat": 29.77015, "lng": -95.39710699999999}, "html_instructions": "Bus towards N Shepherd P&R", "polyline": {"points": "q`stDh~deQLA@n@@R?H?P@p@?~@@dA@h@?rA@F?^@rA@f@@|B?lA?p@@P?LB|D@`C@lB@P?@?F@\\?Z?dA@fA@vABjB@dA?`@?^@T?hB@p@@|B@^B|C@rA?R?V?r@_B@{ABk@@uA@yAAa@A{A?O?aC?Y?O?I?Y@[@A?G@E?G@UBMDMFOF}@^_A^QHSH]NQFC@MBEB[DWDW@Y@m@Em@GMCIACAOCEAMCe@QSISIUM_@Q[KGEWMCAUMCCAAWQ[UECSOYUOKGG[WSKSIYMKCKEqCm@c@E_ABq@@yB@O?k@Bc@BQJO@Q@MBWNB[y@?c@?[??K"}, "start_location": {"lat": 29.757689, "lng": -95.385487}, "transit_details": {"arrival_stop": {"location": {"lat": 29.77015, "lng": -95.39710699999999}, "name": "Heights Blvd @ Center St"}, "arrival_time": {"text": "4:07pm", "time_zone": "America/Chicago", "value": 1642025241}, "departure_stop": {"location": {"lat": 29.757689, "lng": -95.385487}, "name": "W Dallas St @ Taft St"}, "departure_time": {"text": "4:00pm", "time_zone": "America/Chicago", "value": 1642024800}, "headsign": "N Shepherd P&R", "line": {"agencies": [{"name": "Metropolitan Transit Authority of Harris County", "phone": "1 (713) 635-4000", "url": "http://www.ridemetro.org/"}], "color": "#004080", "name": "Telephone / Heights", "short_name": "40", "text_color": "#ffffff", "url": "https://www.ridemetro.org/MetroPDFs/Schedules/BusSchedules/n040-Telephone-Heights.pdf", "vehicle": {"icon": "//maps.gstatic.com/mapfiles/transit/iw2/6/bus2.png", "name": "Bus", "type": "BUS"}}, "num_stops": 11, "trip_short_name": "TELEHEIGHT"}, "travel_mode": "TRANSIT"}, {"distance": {"text": "0.1 mi", "value": 219}, "duration": {"text": "3 mins", "value": 169}, "end_location": {"lat": 29.7696313, "lng": -95.3965082}, "html_instructions": "Walk to Washington Ave @ Heights Blvd", "polyline": {"points": "knutD|fgeQ?BAFR?LG\\?r@?B[Bm@HoAB_@]AC^?^"}, "start_location": {"lat": 29.7701419, "lng": -95.3971078}, "steps": [{"distance": {"text": "20 ft", "value": 6}, "duration": {"text": "1 min", "value": 4}, "end_location": {"lat": 29.7701465, "lng": -95.397172}, "html_instructions": "Head <b>west</b> toward <b>Heights Blvd</b><div style=\"font-size:0.9em\">Restricted usage road</div>", "polyline": {"points": "knutD|fgeQ?BAF"}, "start_location": {"lat": 29.7701419, "lng": -95.3971078}, "travel_mode": "WALKING"}, {"distance": {"text": "223 ft", "value": 68}, "duration": {"text": "1 min", "value": 58}, "end_location": {"lat": 29.7695704, "lng": -95.39712650000001}, "html_instructions": "Turn <b>left</b> onto <b>Heights Blvd</b>", "maneuver": "turn-left", "polyline": {"points": "mnutDhggeQR?LG\\?r@?"}, "start_location": {"lat": 29.7701465, "lng": -95.397172}, "travel_mode": "WALKING"}, {"distance": {"text": "308 ft", "value": 94}, "duration": {"text": "1 min", "value": 67}, "end_location": {"lat": 29.7694647, "lng": -95.396202}, "html_instructions": "Turn <b>left</b> onto <b>Washington Ave</b>", "maneuver": "turn-left", "polyline": {"points": "yjutD`ggeQB[Bm@HoAB_@"}, "start_location": {"lat": 29.7695704, "lng": -95.39712650000001}, "travel_mode": "WALKING"}, {"distance": {"text": "66 ft", "value": 20}, "duration": {"text": "1 min", "value": 15}, "end_location": {"lat": 29.7696069, "lng": -95.3961875}, "html_instructions": "Turn <b>left</b>", "maneuver": "turn-left", "polyline": {"points": "cjutDfageQ]A"}, "start_location": {"lat": 29.7694647, "lng": -95.396202}, "travel_mode": "WALKING"}, {"distance": {"text": "102 ft", "value": 31}, "duration": {"text": "1 min", "value": 25}, "end_location": {"lat": 29.7696313, "lng": -95.3965082}, "html_instructions": "Turn <b>left</b><div style=\"font-size:0.9em\">Destination will be on the left</div>", "maneuver": "turn-left", "polyline": {"points": "akutDdageQC^?^"}, "start_location": {"lat": 29.7696069, "lng": -95.3961875}, "travel_mode": "WALKING"}], "travel_mode": "WALKING"}, {"distance": {"text": "5.9 mi", "value": 9427}, "duration": {"text": "22 mins", "value": 1324}, "end_location": {"lat": 29.801027, "lng": -95.45922999999999}, "html_instructions": "Bus towards Greenspoint TC", "polyline": {"points": "wjutDdcgeQRBEl@El@Cb@CZCf@Cd@AREp@APIzACXANATALANAHC\\AZATC\\A`@IbBEp@ALCp@GfAG~@G~@Cj@AXCVAL?BCd@AL?NCl@Cd@El@Ab@Ev@ANMxCCXAXAXQtCCl@?z@@dA?|A@d@?~B@d@?N?zA?P?N@d@?b@?X?\\?^?X?N?j@?b@@`@?t@@j@?j@?N@`@?z@@dC?V@h@?RARAr@AJ?NAP?RCZAV?FCxA?XExACpAClACnAAj@CvAC|@?NA`@Ab@GxAAVIhAI|BEf@KnDEv@Cv@EpAGlACz@?DA`@APCvAAPCDABCHC`AAPAF@JC@A@A@A@A@A@?@CBc@FKDG@C?IBC@C@C@C@A@EBMLwAlAc@\\sAhA_Av@MJa@^sBbB_Av@QLq@h@IHKHOLw@p@w@n@]Z_@ZSPGFIFaAz@EBe@b@QRUVY\\q@~@s@`AOPGF?@o@v@?@CB}@hAQPKNYd@c@|@ILg@bAU`@IPA@S`@g@bAw@zAq@rA}AxCkA|Bc@v@IPYh@Uf@IP?`@?DCHI\\I`@I`@CVATARA^?\\Ar@?^@`@@@?b@?@@^@hB?f@?XCjA?D?XCXCZEVId@Ot@Ot@GVUfAAD{@`E?@Mj@?@K^[|AMn@Sx@On@I`@I^[xAGZMn@Mh@Kf@Qx@Qr@_@rBg@`DKl@Gd@CXMdA?BALGj@CXCVCXE`@IfAMzBE|AAr@AXC?Ar@CbDAjCCpF@l@@v@AzG~@@X?V?Z^?r@Ap@?bAAtA?R?d@?XEAw@B?u@@S?_@AcA@cA@w@@k@ZA^@DA`AAN??H?P?f@?j@?l@?d@JCF@D?DABA@CDIDSB[@g@BUBM@AN]FGJY@K?MCUCKCCA?OGQAGAE?E@GDQJOPMD[BY@W?aAAY@c@?AVAzAAb@?f@?L?ZAn@?`B?R?f@sBNO@Q@Y?W?K@wA@y@@K?u@?wA@U?O?}@@I?Y?_@?_@@oA@oD@eABM?A?a@?c@?qA@W?w@?cA@s@?c@@_@?uA@a@?OAY?q@@c@?_@?[@cA@a@?U?G?C?E?]@S?S@]@c@?}@@M?w@@]?mA@_B@W?E?e@Aa@EQEWG[OUM[QIG_@Ui@i@e@_@OQQQOMCCc@a@MR{A|BU\\W`@sBtCg@z@a@L{@vA]b@Sd@w@lAYh@OQ"}, "start_location": {"lat": 29.769562, "lng": -95.39651099999999}, "transit_details": {"arrival_stop": {"location": {"lat": 29.801027, "lng": -95.45922999999999}, "name": "Hempstead Rd @ W 18th St"}, "arrival_time": {"text": "4:39pm", "time_zone": "America/Chicago", "value": 1642027188}, "departure_stop": {"location": {"lat": 29.769562, "lng": -95.39651099999999}, "name": "Washington Ave @ Heights Blvd"}, "departure_time": {"text": "4:17pm", "time_zone": "America/Chicago", "value": 1642025864}, "headsign": "Greenspoint TC", "line": {"agencies": [{"name": "Metropolitan Transit Authority of Harris County", "phone": "1 (713) 635-4000", "url": "http://www.ridemetro.org/"}], "color": "#004080", "name": "Antoine / Washington", "short_name": "85", "text_color": "#ffffff", "url": "https://www.ridemetro.org/MetroPDFs/Schedules/BusSchedules/n085-Antoine-Washington.pdf", "vehicle": {"icon": "//maps.gstatic.com/mapfiles/transit/iw2/6/bus2.png", "name": "Bus", "type": "BUS"}}, "num_stops": 29, "trip_short_name": "ANTOINWAS"}, "travel_mode": "TRANSIT"}, {"distance": {"text": "0.5 mi", "value": 738}, "duration": {"text": "10 mins", "value": 587}, "end_location": {"lat": 29.8019199, "lng": -95.45428179999999}, "html_instructions": "Walk to 4400 W 18th St, Houston, TX 77092, USA", "polyline": {"points": "mo{tDdkseQKPKKKAK?I@IB?Q?aA?M?QAO?OM?M@M?mED@[Ae@?g@ASDKP]d@}@Xq@B]QOIIOMEKKAQUGGEIAE?C?A@C@EBEV_@KMNWHMJSRa@Ts@R}@Jy@Hy@?G@Q@a@"}, "start_location": {"lat": 29.8010254, "lng": -95.4592253}, "steps": [{"distance": {"text": "49 ft", "value": 15}, "duration": {"text": "1 min", "value": 11}, "end_location": {"lat": 29.8011512, "lng": -95.4592626}, "html_instructions": "Head <b>northwest</b>", "polyline": {"points": "mo{tDdkseQKPKK"}, "start_location": {"lat": 29.8010254, "lng": -95.4592253}, "travel_mode": "WALKING"}, {"distance": {"text": "102 ft", "value": 31}, "duration": {"text": "1 min", "value": 23}, "end_location": {"lat": 29.8013705, "lng": -95.4592806}, "html_instructions": "Turn <b>right</b> toward <b>W 18th St</b>", "maneuver": "turn-right", "polyline": {"points": "ep{tDjkseQKAK?I@IB"}, "start_location": {"lat": 29.8011512, "lng": -95.4592626}, "travel_mode": "WALKING"}, {"distance": {"text": "240 ft", "value": 73}, "duration": {"text": "1 min", "value": 61}, "end_location": {"lat": 29.8014508, "lng": -95.4585436}, "html_instructions": "Turn <b>right</b> onto <b>W 18th St</b>", "maneuver": "turn-right", "polyline": {"points": "qq{tDnkseQ?Q?aA?M?QAO?OM?"}, "start_location": {"lat": 29.8013705, "lng": -95.4592806}, "travel_mode": "WALKING"}, {"distance": {"text": "440 ft", "value": 134}, "duration": {"text": "2 mins", "value": 127}, "end_location": {"lat": 29.80261729999999, "lng": -95.45858140000001}, "html_instructions": "Turn <b>left</b> onto <b>Mangum Rd</b>", "maneuver": "turn-left", "polyline": {"points": "ar{tDzfseQM@M?mED"}, "start_location": {"lat": 29.8014508, "lng": -95.4585436}, "travel_mode": "WALKING"}, {"distance": {"text": "0.1 mi", "value": 168}, "duration": {"text": "2 mins", "value": 133}, "end_location": {"lat": 29.8021725, "lng": -95.45703209999999}, "html_instructions": "Turn <b>right</b>", "maneuver": "turn-right", "polyline": {"points": "ky{tDbgseQ@[Ae@?g@ASDKP]d@}@Xq@B]"}, "start_location": {"lat": 29.80261729999999, "lng": -95.45858140000001}, "travel_mode": "WALKING"}, {"distance": {"text": "348 ft", "value": 106}, "duration": {"text": "1 min", "value": 80}, "end_location": {"lat": 29.8024852, "lng": -95.4562641}, "html_instructions": "Turn <b>left</b><div style=\"font-size:0.9em\">Partial restricted usage road</div>", "maneuver": "turn-left", "polyline": {"points": "qv{tDl}reQQOIIOMEKKAQUGGEIAE?C?A@C@EBEV_@"}, "start_location": {"lat": 29.8021725, "lng": -95.45703209999999}, "travel_mode": "WALKING"}, {"distance": {"text": "33 ft", "value": 10}, "duration": {"text": "1 min", "value": 8}, "end_location": {"lat": 29.8025494, "lng": -95.456192}, "html_instructions": "Turn <b>left</b><div style=\"font-size:0.9em\">Restricted usage road</div>", "maneuver": "turn-left", "polyline": {"points": "qx{tDrxreQKM"}, "start_location": {"lat": 29.8024852, "lng": -95.4562641}, "travel_mode": "WALKING"}, {"distance": {"text": "0.1 mi", "value": 201}, "duration": {"text": "2 mins", "value": 144}, "end_location": {"lat": 29.8019199, "lng": -95.45428179999999}, "html_instructions": "Turn <b>right</b><div style=\"font-size:0.9em\">Restricted usage road</div><div style=\"font-size:0.9em\">Destination will be on the left</div>", "maneuver": "turn-right", "polyline": {"points": "}x{tDdxreQNWHMJSRa@Ts@R}@Jy@Hy@?G@Q@a@"}, "start_location": {"lat": 29.8025494, "lng": -95.456192}, "travel_mode": "WALKING"}], "travel_mode": "WALKING"}], "traffic_speed_entry": [], "via_waypoint": []}], "overview_polyline": {"points": "_wrtDl_eeQ}E@}@?M??e@G?LABbA@lCJdNJ~QRlZD|G?r@_B@gCDoD?}BA{D?wAFc@H]NcDrAaA\\y@Nq@B{AM[GUEs@U}@a@{Aq@_@U{C}BmAg@}Cs@c@E_ABkDB{@Bc@BQJa@BMBWNB[y@?_A??K@BAFR?LG\\?r@?B[L}BB_@]AC~@`@BSzCOrCYtE_@rHg@dJiA`VFtVB~GBzFAdCMvE[dPKnD[fGi@bPEhBEVELErA?REBGFCDo@LYFMFoC|BcElDsDzCcAv@}ArAiCxByAnAw@v@o@t@}BzCs@~@{AjBoBtDeHdNsCpF_@x@?f@a@jBI`B?rCBfA@pCCdB?^Gt@o@hD{AfHgBfIqBrJq@fDs@nEYhCQjBIz@WbEGpCAXC?EvEE|JBdBAzG~@@p@?Z^?r@AtBAhB?~@EAw@B@iAAcBB{B@k@ZAd@?pAA?nB?rARAPGJ]DcAFc@P_@Ra@@YGa@ECOGQAMAMFa@\\MD[Bq@@{A?c@?AVC~B?t@A`E?f@sBNa@BuCBaIDoLHcKDwH@gEDkGFkEBgAGi@MwAw@_@Ui@i@u@q@iAeAwCpEsBtCg@z@a@L{@vA]b@Sd@qAvBOQKPKKWASD?sBA_@[@{ED?aAA{@Vi@~@oBB]QOYWEKKAY]GOBOZe@KMNWTa@Ra@Ts@R}@TsBB{@"}, "summary": "", "warnings": ["Walking directions are in beta. Use caution \u2013 This route may be missing sidewalks or pedestrian paths."], "waypoint_order": []}, {"bounds": {"northeast": {"lat": 29.80194599999999, "lng": -95.385485}, "southwest": {"lat": 29.7561606, "lng": -95.45679299999999}}, "copyrights": "Map data \u00a92022", "legs": [{"arrival_time": {"text": "4:57pm", "time_zone": "America/Chicago", "value": 1642028238}, "departure_time": {"text": "3:57pm", "time_zone": "America/Chicago", "value": 1642024649}, "distance": {"text": "8.1 mi", "value": 13087}, "duration": {"text": "1 hour 0 mins", "value": 3589}, "end_address": "4400 W 18th St, Houston, TX 77092, USA", "end_location": {"lat": 29.8019199, "lng": -95.45428179999999}, "start_address": "1101 Taft St, Houston, TX 77019, USA", "start_location": {"lat": 29.7561606, "lng": -95.3856667}, "steps": [{"distance": {"text": "0.1 mi", "value": 184}, "duration": {"text": "2 mins", "value": 146}, "end_location": {"lat": 29.7576532, "lng": -95.3854862}, "html_instructions": "Walk to W Dallas St @ Taft St", "polyline": {"points": "_wrtDl_eeQM?cC@M?}@?Q?k@?M??e@"}, "start_location": {"lat": 29.7561606, "lng": -95.3856667}, "steps": [{"distance": {"text": "0.1 mi", "value": 161}, "duration": {"text": "2 mins", "value": 119}, "end_location": {"lat": 29.757649, "lng": -95.385682}, "html_instructions": "Head <b>north</b> on <b>Taft St</b> toward <b>W Polk St</b>", "polyline": {"points": "_wrtDl_eeQM?cC@M?}@?Q?k@?M?"}, "start_location": {"lat": 29.7561606, "lng": -95.3856667}, "travel_mode": "WALKING"}, {"distance": {"text": "75 ft", "value": 23}, "duration": {"text": "1 min", "value": 27}, "end_location": {"lat": 29.7576532, "lng": -95.3854862}, "html_instructions": "Turn <b>right</b> onto <b>W Dallas St</b>", "maneuver": "turn-right", "polyline": {"points": "i`stDn_eeQ?e@"}, "start_location": {"lat": 29.757649, "lng": -95.385682}, "travel_mode": "WALKING"}], "travel_mode": "WALKING"}, {"distance": {"text": "2.4 mi", "value": 3782}, "duration": {"text": "10 mins", "value": 579}, "end_location": {"lat": 29.779577, "lng": -95.397284}, "html_instructions": "Bus towards N Shepherd P&R", "polyline": {"points": "q`stDh~deQLA@n@@R?H?P@p@?~@@dA@h@?rA@F?^@rA@f@@|B?lA?p@@P?LB|D@`C@lB@P?@?F@\\?Z?dA@fA@vABjB@dA?`@?^@T?hB@p@@|B@^B|C@rA?R?V?r@_B@{ABk@@uA@yAAa@A{A?O?aC?Y?O?I?Y@[@A?G@E?G@UBMDMFOF}@^_A^QHSH]NQFC@MBEB[DWDW@Y@m@Em@GMCIACAOCEAMCe@QSISIUM_@Q[KGEWMCAUMCCAAWQ[UECSOYUOKGG[WSKSIYMKCKEqCm@c@E_ABq@@yB@O?k@Bc@BQJO@Q@MBWNB[y@?c@?[?o@?oA@qA@S?O@G?cA?{EDm@?{ABa@@C?eA?[?aB?YAmA@kA@S@C?O@g@?[?s@BG?C?U?M?E?s@A}@@}A@I?gJD?M"}, "start_location": {"lat": 29.757689, "lng": -95.385487}, "transit_details": {"arrival_stop": {"location": {"lat": 29.779577, "lng": -95.397284}, "name": "Heights Blvd @ 5th St"}, "arrival_time": {"text": "4:09pm", "time_zone": "America/Chicago", "value": 1642025379}, "departure_stop": {"location": {"lat": 29.757689, "lng": -95.385487}, "name": "W Dallas St @ Taft St"}, "departure_time": {"text": "4:00pm", "time_zone": "America/Chicago", "value": 1642024800}, "headsign": "N Shepherd P&R", "line": {"agencies": [{"name": "Metropolitan Transit Authority of Harris County", "phone": "1 (713) 635-4000", "url": "http://www.ridemetro.org/"}], "color": "#004080", "name": "Telephone / Heights", "short_name": "40", "text_color": "#ffffff", "url": "https://www.ridemetro.org/MetroPDFs/Schedules/BusSchedules/n040-Telephone-Heights.pdf", "vehicle": {"icon": "//maps.gstatic.com/mapfiles/transit/iw2/6/bus2.png", "name": "Bus", "type": "BUS"}}, "num_stops": 17, "trip_short_name": "TELEHEIGHT"}, "travel_mode": "TRANSIT"}, {"distance": {"text": "167 ft", "value": 51}, "duration": {"text": "1 min", "value": 60}, "end_location": {"lat": 29.7797931, "lng": -95.3976783}, "html_instructions": "Walk to Heights Blvd @ W 5th St", "polyline": {"points": "oiwtD~ggeQ?DM??P?H?Z?PW?"}, "start_location": {"lat": 29.7795965, "lng": -95.3972843}, "steps": [{"distance": {"text": "112 ft", "value": 34}, "duration": {"text": "1 min", "value": 37}, "end_location": {"lat": 29.7796738, "lng": -95.3976773}, "html_instructions": "Head <b>west</b> on <b>E 5th St</b> toward <b>Heights Blvd</b>", "polyline": {"points": "oiwtD~ggeQ?DM??P?H?Z?P"}, "start_location": {"lat": 29.7795965, "lng": -95.3972843}, "travel_mode": "WALKING"}, {"distance": {"text": "56 ft", "value": 17}, "duration": {"text": "1 min", "value": 23}, "end_location": {"lat": 29.7797931, "lng": -95.3976783}, "html_instructions": "Turn <b>right</b> onto <b>Heights Blvd</b>", "maneuver": "turn-right", "polyline": {"points": "}iwtDnjgeQW?"}, "start_location": {"lat": 29.7796738, "lng": -95.3976773}, "travel_mode": "WALKING"}], "travel_mode": "WALKING"}, {"distance": {"text": "5.0 mi", "value": 8040}, "duration": {"text": "17 mins", "value": 1006}, "end_location": {"lat": 29.797383, "lng": -95.45679299999999}, "html_instructions": "Bus towards Northwest TC", "polyline": {"points": "ujwtDnjgeQ?G\\?rJG|@Ah@?d@AZA@\\@bD@b@?\\?j@?zA?vD?JAJ?p@A^CdAAp@Cv@?DKbCGjA@j@Gr@?FIp@Gn@GVEb@G^Kh@EXEZId@Kt@?@EXE^CVEb@KbAG~@M~AEz@Ep@Eb@?@Ej@CZAP?LC^Cn@AVAJ?d@AH?V?H?J?l@BhE@N?`C?~@?tAAX?BAhABvC@f@?x@@rA?t@BbG@~A?t@@zB?jB@d@wA@oB?c@@}ADs@@oB@a@@_@?UB_@?[?[?a@?E?]AC?]CIAw@KaBWSCk@G[G[Ei@IgBYEAcBWe@IeAOw@OMCMCwA[y@M}@OQCQC_BWu@Ka@GaDg@{Ce@WA[A[?]@c@BK@[BM@@b@AV@n@?b@?d@@d@?^?J?XAJAf@Az@@`B@rA?~@@V@XBb@BZD`@DTHd@lAfFFXHd@H`@Fh@Fp@@VBb@?l@?zD@V?hE?X@nE?bF@f@?|C?hD?tA@T?nA?zA?|EBvG?nF?\\@`D?bB?nA?t@@lF?X?l@@lA?bB?dA?J@~E?R?xA?N?j@?n@BLAN@R?z@AhB?X?V?L?B@B?HBVINSXKP]d@_DxEMRe@r@oAnBQV[f@CDKN]`@ORE@C?C@C@q@bAKNQTs@bAEHEJCB?@AB?@?@CPGHS\\[d@iAbBq@`A_@n@e@r@G@C@C@Yb@q@`A]f@QV_@j@A@?@A@W\\KNABGHOVCBILc@l@W\\GLGHU\\?BABAJOX]d@OVo@dAiAhBa@n@Y`@QXY`@AD{A|B_B~BwAxBMRh@`@\\Zx@x@PNZZTPCF"}, "start_location": {"lat": 29.779793, "lng": -95.39768099999999}, "transit_details": {"arrival_stop": {"location": {"lat": 29.797383, "lng": -95.45679299999999}, "name": "N Post Oak Rd @ Hempstead Hwy"}, "arrival_time": {"text": "4:44pm", "time_zone": "America/Chicago", "value": 1642027440}, "departure_stop": {"location": {"lat": 29.779793, "lng": -95.39768099999999}, "name": "Heights Blvd @ W 5th St"}, "departure_time": {"text": "4:27pm", "time_zone": "America/Chicago", "value": 1642026434}, "headsign": "Northwest TC", "line": {"agencies": [{"name": "Metropolitan Transit Authority of Harris County", "phone": "1 (713) 635-4000", "url": "http://www.ridemetro.org/"}], "color": "#004080", "name": "Quitman", "short_name": "66", "text_color": "#ffffff", "url": "https://www.ridemetro.org/MetroPDFs/Schedules/BusSchedules/n066-Quitman.pdf", "vehicle": {"icon": "//maps.gstatic.com/mapfiles/transit/iw2/6/bus2.png", "name": "Bus", "type": "BUS"}}, "num_stops": 16, "trip_short_name": "QUITMAN"}, "travel_mode": "TRANSIT"}, {"distance": {"text": "0.6 mi", "value": 1030}, "duration": {"text": "13 mins", "value": 796}, "end_location": {"lat": 29.8019199, "lng": -95.45428179999999}, "html_instructions": "Walk to 4400 W 18th St, Houston, TX 77092, USA", "polyline": {"points": "sxztD|{reQUS[YKMKIo@m@KIWWa@]KI]c@OUEKMYm@{@EO]Y{@aAGMf@mAAWgAiASSBELUqBoBNSyAsAEEIIS_@ISMa@k@L_@P[JMDSFMD?j@?h@BnAAV@|@@hBYDe@F@D@R@f@?D"}, "start_location": {"lat": 29.7973772, "lng": -95.45678590000001}, "steps": [{"distance": {"text": "0.2 mi", "value": 272}, "duration": {"text": "4 mins", "value": 211}, "end_location": {"lat": 29.7991375, "lng": -95.4548499}, "html_instructions": "Head <b>northeast</b> on <b>N Post Oak Rd</b> toward <b>Hempstead Rd</b>", "polyline": {"points": "sxztD|{reQUS[YKMKIo@m@KIWWa@]KI]c@OUEKMYm@{@EO]Y"}, "start_location": {"lat": 29.7973772, "lng": -95.45678590000001}, "travel_mode": "WALKING"}, {"building_level": {"number": 0}, "distance": {"text": "0.1 mi", "value": 163}, "duration": {"text": "2 mins", "value": 129}, "end_location": {"lat": 29.7996479, "lng": -95.45357349999999}, "html_instructions": "Walk for 0.1&nbsp;mi", "polyline": {"points": "sc{tDxoreQ{@aAGMf@mAAWgAiA"}, "start_location": {"lat": 29.7991375, "lng": -95.4548499}, "travel_mode": "WALKING"}, {"distance": {"text": "49 ft", "value": 15}, "duration": {"text": "1 min", "value": 11}, "end_location": {"lat": 29.7997517, "lng": -95.45346980000001}, "html_instructions": "Head <b>northeast</b>", "polyline": {"points": "yf{tDxgreQSS"}, "start_location": {"lat": 29.7996479, "lng": -95.45357349999999}, "travel_mode": "WALKING"}, {"distance": {"text": "56 ft", "value": 17}, "duration": {"text": "1 min", "value": 13}, "end_location": {"lat": 29.7996572, "lng": -95.4533311}, "html_instructions": "Turn <b>right</b>", "maneuver": "turn-right", "polyline": {"points": "mg{tDdgreQBELU"}, "start_location": {"lat": 29.7997517, "lng": -95.45346980000001}, "travel_mode": "WALKING"}, {"distance": {"text": "276 ft", "value": 84}, "duration": {"text": "1 min", "value": 60}, "end_location": {"lat": 29.8002303, "lng": -95.452771}, "html_instructions": "Turn <b>left</b>", "maneuver": "turn-left", "polyline": {"points": "{f{tDhfreQqBoB"}, "start_location": {"lat": 29.7996572, "lng": -95.4533311}, "travel_mode": "WALKING"}, {"distance": {"text": "43 ft", "value": 13}, "duration": {"text": "1 min", "value": 10}, "end_location": {"lat": 29.8001537, "lng": -95.4526671}, "html_instructions": "Turn <b>right</b> toward <b>W Loop S Fwy</b>", "maneuver": "turn-right", "polyline": {"points": "mj{tDxbreQNS"}, "start_location": {"lat": 29.8002303, "lng": -95.452771}, "travel_mode": "WALKING"}, {"distance": {"text": "420 ft", "value": 128}, "duration": {"text": "1 min", "value": 86}, "end_location": {"lat": 29.8008984, "lng": -95.45173779999999}, "html_instructions": "Turn <b>left</b> toward <b>W Loop S Fwy</b>", "maneuver": "turn-left", "polyline": {"points": "}i{tDdbreQyAsAEEIIS_@ISMa@"}, "start_location": {"lat": 29.8001537, "lng": -95.4526671}, "travel_mode": "WALKING"}, {"distance": {"text": "279 ft", "value": 85}, "duration": {"text": "1 min", "value": 75}, "end_location": {"lat": 29.8016641, "lng": -95.4520582}, "html_instructions": "Turn <b>left</b> onto <b>W Loop S Fwy</b>", "maneuver": "turn-left", "polyline": {"points": "sn{tDj|qeQk@L_@P[JMDSFMD"}, "start_location": {"lat": 29.8008984, "lng": -95.45173779999999}, "travel_mode": "WALKING"}, {"distance": {"text": "0.1 mi", "value": 177}, "duration": {"text": "2 mins", "value": 140}, "end_location": {"lat": 29.8016283, "lng": -95.4538499}, "html_instructions": "Turn <b>left</b> onto <b>W 18th St</b>/<wbr/><b>NW Mall</b>", "maneuver": "turn-left", "polyline": {"points": "ks{tDj~qeQ?j@?h@BnAAV@|@@hB"}, "start_location": {"lat": 29.8016641, "lng": -95.4520582}, "travel_mode": "WALKING"}, {"distance": {"text": "131 ft", "value": 40}, "duration": {"text": "1 min", "value": 34}, "end_location": {"lat": 29.80194599999999, "lng": -95.4539156}, "html_instructions": "Turn <b>right</b><div style=\"font-size:0.9em\">Restricted usage road</div>", "maneuver": "turn-right", "polyline": {"points": "es{tDpireQYDe@F"}, "start_location": {"lat": 29.8016283, "lng": -95.4538499}, "travel_mode": "WALKING"}, {"distance": {"text": "118 ft", "value": 36}, "duration": {"text": "1 min", "value": 27}, "end_location": {"lat": 29.8019199, "lng": -95.45428179999999}, "html_instructions": "Turn <b>left</b><div style=\"font-size:0.9em\">Restricted usage road</div><div style=\"font-size:0.9em\">Destination will be on the right</div>", "maneuver": "turn-left", "polyline": {"points": "eu{tD~ireQ@D@R@f@?D"}, "start_location": {"lat": 29.80194599999999, "lng": -95.4539156}, "travel_mode": "WALKING"}], "travel_mode": "WALKING"}], "traffic_speed_entry": [], "via_waypoint": []}], "overview_polyline": {"points": "_wrtDl_eeQ}E@}@?M??e@G?LABbA@lCJdNJ~QRlZD|G?r@_B@gCDoD?}BA{D?wAFc@H]NcDrAaA\\y@Nq@B{AM[GUEs@U}@a@{Aq@_@U{C}BmAg@}Cs@c@E_ABkDB{@Bc@BQJa@BMBWNB[y@?_A?o@?eEDuIDgEDeF?sBD_CBm@?qB?gB@gJD?MC??DM??P?d@?PW??GxNI`ACB`E@hEA`GKnEKhCGjA@j@Gz@Q`Ba@dCa@pCOrAg@fG]zFKrBApADrGApHAlAD~DDfMB|J@d@wA@sC@qCFqCBu@B{@?aBAcBQ}Dk@sDk@gGaA[GqCi@aEo@uKaBs@Cy@@yAJBfGEhCDlGD|@H|@Nz@tA`GRfANzADz@?hFBjM@rQDz_@Fni@B`BAvE@^BVIN_@j@qFfIaCtDi@p@UTG@u@dAwArBKT?BCPGHo@bA{BdDeAbBKBmBnC{AzBe@r@{@jAOVU`@CNmB|CwCtEwEdHeBlCfA|@fBdBTPCFUScB_BqAiAm@y@Se@m@{@EO]YcAoAf@mAAW{A}AP[qBoBNS_ByA]i@Wu@k@L_@Pi@Pa@L?tADnG_ALBX@l@"}, "summary": "", "warnings": ["Walking directions are in beta. Use caution \u2013 This route may be missing sidewalks or pedestrian paths."], "waypoint_order": []}, {"bounds": {"northeast": {"lat": 29.803869, "lng": -95.38554889999999}, "southwest": {"lat": 29.7489566, "lng": -95.45463819999999}}, "copyrights": "Map data \u00a92022", "legs": [{"arrival_time": {"text": "4:49pm", "time_zone": "America/Chicago", "value": 1642027797}, "departure_time": {"text": "3:52pm", "time_zone": "America/Chicago", "value": 1642024333}, "distance": {"text": "8.7 mi", "value": 13962}, "duration": {"text": "58 mins", "value": 3464}, "end_address": "4400 W 18th St, Houston, TX 77092, USA", "end_location": {"lat": 29.8019199, "lng": -95.45428179999999}, "start_address": "1101 Taft St, Houston, TX 77019, USA", "start_location": {"lat": 29.7561606, "lng": -95.3856667}, "steps": [{"distance": {"text": "0.2 mi", "value": 318}, "duration": {"text": "4 mins", "value": 241}, "end_location": {"lat": 29.7534887, "lng": -95.3855494}, "html_instructions": "Walk to W Gray St @ Taft St", "polyline": {"points": "_wrtDl_eeQ`A?P?b@?h@?`BA|@?jA?n@@b@?b@@N??Y"}, "start_location": {"lat": 29.7561606, "lng": -95.3856667}, "steps": [{"distance": {"text": "0.2 mi", "value": 301}, "duration": {"text": "4 mins", "value": 229}, "end_location": {"lat": 29.75348709999999, "lng": -95.3856844}, "html_instructions": "Head <b>south</b> on <b>Taft St</b> toward <b>W Clay St</b>", "polyline": {"points": "_wrtDl_eeQ`A?P?b@?h@?`BA|@?jA?n@@b@?b@@N?"}, "start_location": {"lat": 29.7561606, "lng": -95.3856667}, "travel_mode": "WALKING"}, {"distance": {"text": "56 ft", "value": 17}, "duration": {"text": "1 min", "value": 12}, "end_location": {"lat": 29.7534887, "lng": -95.3855494}, "html_instructions": "Turn <b>left</b> onto <b>W Gray St</b>", "maneuver": "turn-left", "polyline": {"points": "ifrtDn_eeQ?Y"}, "start_location": {"lat": 29.75348709999999, "lng": -95.3856844}, "travel_mode": "WALKING"}], "travel_mode": "WALKING"}, {"distance": {"text": "1.8 mi", "value": 2870}, "duration": {"text": "7 mins", "value": 433}, "end_location": {"lat": 29.749208, "lng": -95.410771}, "html_instructions": "Bus towards Braeswood Blvd", "polyline": {"points": "qfrtDt~deQN??b@@bA?vA@dA?Z@H?j@?D@dA?dA@v@?f@@X?z@?`D@pBBlE?Z@xA?^@\\?n@B|AB|C?@@`EB~E@R@zE@hB?P@`A?VBtC?\\?B@h@?@@xA?xA@V@rB?Z?`@@z@?h@?X?p@?N@d@?\\?d@?X@H?dA@hB@fC@n@?H?P?dA?\\@dB?^@pA?R?`@@Z@`C?dA@~A?Z@d@@jA?h@@fA?`@?L?F?N?`@@hA@~@z@?`@?~@?h@AtC?^AnA?pA?XAz@?fB?XA?N"}, "start_location": {"lat": 29.75352699999999, "lng": -95.38555}, "transit_details": {"arrival_stop": {"location": {"lat": 29.749208, "lng": -95.410771}, "name": "S Shepherd Dr @ San Felipe Rd"}, "arrival_time": {"text": "4:04pm", "time_zone": "America/Chicago", "value": 1642025040}, "departure_stop": {"location": {"lat": 29.75352699999999, "lng": -95.38555}, "name": "W Gray St @ Taft St"}, "departure_time": {"text": "3:56pm", "time_zone": "America/Chicago", "value": 1642024607}, "headsign": "Braeswood Blvd", "line": {"agencies": [{"name": "Metropolitan Transit Authority of Harris County", "phone": "1 (713) 635-4000", "url": "http://www.ridemetro.org/"}], "color": "#004080", "name": "Renwick / San Felipe", "short_name": "32", "text_color": "#ffffff", "url": "https://www.ridemetro.org/MetroPDFs/Schedules/BusSchedules/n032-Renwick-SanFelipe.pdf", "vehicle": {"icon": "//maps.gstatic.com/mapfiles/transit/iw2/6/bus2.png", "name": "Bus", "type": "BUS"}}, "num_stops": 13, "trip_short_name": "RENWSANFE"}, "travel_mode": "TRANSIT"}, {"distance": {"text": "92 ft", "value": 28}, "duration": {"text": "1 min", "value": 32}, "end_location": {"lat": 29.74895679999999, "lng": -95.4106506}, "html_instructions": "Walk to S Shepherd Dr @ Vermont St", "polyline": {"points": "qkqtDb|ieQPAAOL?R?"}, "start_location": {"lat": 29.7492083, "lng": -95.4107353}, "steps": [{"distance": {"text": "92 ft", "value": 28}, "duration": {"text": "1 min", "value": 32}, "end_location": {"lat": 29.74895679999999, "lng": -95.4106506}, "html_instructions": "Head <b>south</b> on <b>S Shepherd Dr</b> toward <b>Vermont St</b>", "polyline": {"points": "qkqtDb|ieQPAAOL?R?"}, "start_location": {"lat": 29.7492083, "lng": -95.4107353}, "travel_mode": "WALKING"}], "travel_mode": "WALKING"}, {"distance": {"text": "3.9 mi", "value": 6247}, "duration": {"text": "14 mins", "value": 836}, "end_location": {"lat": 29.803613, "lng": -95.41008699999999}, "html_instructions": "Bus towards N Shepherd P&R", "polyline": {"points": "_jqtDh{ieQ?NY?q@@gB?{@?Y@qA?eA?I?uD@i@@_A?Q?O?{@?m@?M?g@@y@@g@@Q?[?{@?OGEAGCEEGCECECGEY[OYEKCECGEQ_AuCAEEIQe@IQCEACGIEGEGGIIIEEOKGEQKMEk@Oo@@M?{@?WIgB?KEC?SAYAU?IA]?SAeA?S?g@AcA@EBIFKFA@CBIHCDGHGXQ@aAJa@Da@DC?}AL]D]DK@KEA?A?I?G?M?MAAAA?C?AAE?CAA?OCC?AAM?WA[FE@E@c@HG@YD_@HeAPKBw@TgABW?C?W?k@@_A@K?[@SBe@Dc@@SBa@?eA@[?M?eA@c@?e@?]?_@@Y?k@?M?qCBg@?Q?M@U?e@?M?qCB]?w@@_@?E@W?e@?mB@gA?k@@]?qB@c@@a@CE@e@@m@?S@kA?cA@aCBM?oC@eA@oA@Y?[?O?a@Bm@?U?o@?e@@I?A?A?y@?M@YAS@O?_@@w@@y@?]?M?YAMAMCOEYIIAa@Kc@Ku@QGACAm@MAAOCIAK?OAM?M?A?I?O?S@M@IBc@Jq@P}@Vg@Jk@Ji@Hc@Be@DE?c@Bs@ByABA?oCBYA}B@I?A?q@@K?E?k@?C?O@u@?S?k@@w@@K?a@?O?[@U?U?U?k@@k@?Y@C?I?S?kC@y@@K?W@[?S?A?W?G?U@S?c@?e@@O?E?[?mCBeA@U?Y?S?U@A?S?aA@_@?e@@Q?S?U?s@?C?W?qB@sB@eBBg@?oBBaGBq@@w@?aB@i@@W@_B@yA@aB@Q?qD@U@gB?eB@eBA_A@?K"}, "start_location": {"lat": 29.748957, "lng": -95.410613}, "transit_details": {"arrival_stop": {"location": {"lat": 29.803613, "lng": -95.41008699999999}, "name": "N Shepherd Dr @ W 20th St"}, "arrival_time": {"text": "4:29pm", "time_zone": "America/Chicago", "value": 1642026540}, "departure_stop": {"location": {"lat": 29.748957, "lng": -95.410613}, "name": "S Shepherd Dr @ Vermont St"}, "departure_time": {"text": "4:15pm", "time_zone": "America/Chicago", "value": 1642025704}, "headsign": "N Shepherd P&R", "line": {"agencies": [{"name": "Metropolitan Transit Authority of Harris County", "phone": "1 (713) 635-4000", "url": "http://www.ridemetro.org/"}], "color": "#004080", "name": "Shepherd", "short_name": "27", "text_color": "#ffffff", "url": "https://www.ridemetro.org/MetroPDFs/Schedules/BusSchedules/n027-Shepherd.pdf", "vehicle": {"icon": "//maps.gstatic.com/mapfiles/transit/iw2/6/bus2.png", "name": "Bus", "type": "BUS"}}, "num_stops": 26, "trip_short_name": "SHEPHERD"}, "travel_mode": "TRANSIT"}, {"distance": {"text": "112 ft", "value": 34}, "duration": {"text": "1 min", "value": 34}, "end_location": {"lat": 29.803842, "lng": -95.41002979999999}, "html_instructions": "Walk to W 20th St @ N Shepherd Dr", "polyline": {"points": "q_|tDdxieQ_@@M??Q"}, "start_location": {"lat": 29.8036121, "lng": -95.410111}, "steps": [{"distance": {"text": "69 ft", "value": 21}, "duration": {"text": "1 min", "value": 15}, "end_location": {"lat": 29.8038391, "lng": -95.4101207}, "html_instructions": "Head <b>north</b> on <b>N Shepherd Dr</b> toward <b>W 20th St</b>", "polyline": {"points": "q_|tDdxieQ_@@M?"}, "start_location": {"lat": 29.8036121, "lng": -95.410111}, "travel_mode": "WALKING"}, {"distance": {"text": "43 ft", "value": 13}, "duration": {"text": "1 min", "value": 19}, "end_location": {"lat": 29.803842, "lng": -95.41002979999999}, "html_instructions": "Turn <b>right</b> onto <b>W 20th St</b>", "maneuver": "turn-right", "polyline": {"points": "_a|tDfxieQ?Q"}, "start_location": {"lat": 29.8038391, "lng": -95.4101207}, "travel_mode": "WALKING"}], "travel_mode": "WALKING"}, {"distance": {"text": "2.7 mi", "value": 4367}, "duration": {"text": "10 mins", "value": 582}, "end_location": {"lat": 29.80163, "lng": -95.454342}, "html_instructions": "Bus towards Memorial City", "polyline": {"points": "ea|tDvwieQJ?@V?fA@`ABfE?tABtJ?pB@rA?r@?H?|@?jB?@?j@@h@AL?\\?J@f@?|B?h@?|@?n@?N?|G?J@tE?d@@dC?p@AL@J?V@P@H?B?D@F@HBH@JDPDLDLDHDJDJHLFHFHLL?@TVTVn@v@NRh@h@NPVX^f@BJBFBFf@v@P`@DZDVBT@F?D@F?H?P@P?X?N?F?j@@pAIpB@f@?V?fA?j@?V@h@AjA?h@@~@?b@@^Af@@d@?X?bA?jA?b@@nC?J?d@Aj@?v@?P@dB?jA?bC?`A?\\@dH?`D?dC@fE?jD?T@`F@vB?jD?vC?X?`E@V@zCAb@?fAAX@fB@fA?T@|B?l@A~A?x@?XAzB?`A?dB?l@?P?F?H@^?Z?@?H?@?Z?h@?f@?j@?^?t@@j@BnAAV@|@@fB?bBG?"}, "start_location": {"lat": 29.803869, "lng": -95.410039}, "transit_details": {"arrival_stop": {"location": {"lat": 29.80163, "lng": -95.454342}, "name": "W 18th St @ Northwest Fwy"}, "arrival_time": {"text": "4:48pm", "time_zone": "America/Chicago", "value": 1642027720}, "departure_stop": {"location": {"lat": 29.803869, "lng": -95.410039}, "name": "W 20th St @ N Shepherd Dr"}, "departure_time": {"text": "4:38pm", "time_zone": "America/Chicago", "value": 1642027138}, "headsign": "Memorial City", "line": {"agencies": [{"name": "Metropolitan Transit Authority of Harris County", "phone": "1 (713) 635-4000", "url": "http://www.ridemetro.org/"}], "color": "#004080", "name": "Long Point / Cavalcade", "short_name": "26", "text_color": "#ffffff", "url": "https://www.ridemetro.org/MetroPDFs/Schedules/BusSchedules/n026-Long-Point-Cavalcade.pdf", "vehicle": {"icon": "//maps.gstatic.com/mapfiles/transit/iw2/6/bus2.png", "name": "Bus", "type": "BUS"}}, "num_stops": 14, "trip_short_name": "LONGPOINT"}, "travel_mode": "TRANSIT"}, {"distance": {"text": "322 ft", "value": 98}, "duration": {"text": "1 min", "value": 77}, "end_location": {"lat": 29.8019199, "lng": -95.45428179999999}, "html_instructions": "Walk to 4400 W 18th St, Houston, TX 77092, USA", "polyline": {"points": "es{tDrlreQ?z@YEc@E?G@Q@a@"}, "start_location": {"lat": 29.8016264, "lng": -95.454342}, "steps": [{"distance": {"text": "95 ft", "value": 29}, "duration": {"text": "1 min", "value": 22}, "end_location": {"lat": 29.8016252, "lng": -95.45463819999999}, "html_instructions": "Head <b>west</b> on <b>W 18th St</b>/<wbr/><b>NW Mall</b>", "polyline": {"points": "es{tDrlreQ?z@"}, "start_location": {"lat": 29.8016264, "lng": -95.454342}, "travel_mode": "WALKING"}, {"distance": {"text": "131 ft", "value": 40}, "duration": {"text": "1 min", "value": 33}, "end_location": {"lat": 29.8019405, "lng": -95.4545788}, "html_instructions": "Turn <b>right</b><div style=\"font-size:0.9em\">Restricted usage road</div>", "maneuver": "turn-right", "polyline": {"points": "es{tDnnreQYEc@E"}, "start_location": {"lat": 29.8016252, "lng": -95.45463819999999}, "travel_mode": "WALKING"}, {"distance": {"text": "95 ft", "value": 29}, "duration": {"text": "1 min", "value": 22}, "end_location": {"lat": 29.8019199, "lng": -95.45428179999999}, "html_instructions": "Turn <b>right</b><div style=\"font-size:0.9em\">Restricted usage road</div><div style=\"font-size:0.9em\">Destination will be on the left</div>", "maneuver": "turn-right", "polyline": {"points": "cu{tDbnreQ?G@Q@a@"}, "start_location": {"lat": 29.8019405, "lng": -95.4545788}, "travel_mode": "WALKING"}], "travel_mode": "WALKING"}], "traffic_speed_entry": [], "via_waypoint": []}], "overview_polyline": {"points": "_wrtDl_eeQ|L?fA@N??YG?N?@fBBbE@|DHrTLfSNzXJrTXtq@@~@z@?`B?nHCnGAXA?N?EPAAOL?R??G?NY?yC@mF@iHBkC?wCDm@?{@?OGMEMIKGa@a@]s@mAwDa@aA[c@g@a@_@Qk@Oo@@iA?WIgB?OEm@CqACeE?]TY\\GXQ@cBPaDXi@FMEa@?MAOC[Ge@Aa@HkAReBZcAX{BBsCDqBN_IBmIFkXNg@AsA@eHF{KH_MFsACw@SaE_Au@Gg@?{@F{D`AuATiAHi@BmCFiHBiA@{DBsEBeNJuPJcHB}UNcSLiI@_A@?K?B_@@M??QE@J?@~ADhGDpS?fF@tH@lU@pEBv@F`@Rx@Zn@\\b@|DpE^f@BJFNf@v@P`@Jr@Fj@@fA@tCIpB@f@?~A?xDBlD@vL?rODve@BnZ@pG@rCAlCApG?lD@xC?hDDpE@jEG??z@YEc@E?GBs@"}, "summary": "", "warnings": ["Walking directions are in beta. Use caution \u2013 This route may be missing sidewalks or pedestrian paths."], "waypoint_order": []}], "status": "OK"}