{"geocoded_waypoints": [{"geocoder_status": "OK", "place_id": "ChIJoZ8sOm_CQIYRowle7GmahM0", "types": ["establishment", "point_of_interest", "school"]}, {"geocoder_status": "OK", "place_id": "ChIJ9_tphxzHQIYRIMyPy_d3VZU", "types": ["establishment", "point_of_interest"]}], "routes": [{"bounds": {"northeast": {"lat": 29.803869, "lng": -95.4031601}, "southwest": {"lat": 29.6881491, "lng": -95.50951049999999}}, "copyrights": "Map data \u00a92022", "legs": [{"arrival_time": {"text": "4:49pm", "time_zone": "America/Chicago", "value": 1642027797}, "departure_time": {"text": "3:18pm", "time_zone": "America/Chicago", "value": 1642022337}, "distance": {"text": "17.8 mi", "value": 28677}, "duration": {"text": "1 hour 31 mins", "value": 5460}, "end_address": "4400 W 18th St, Houston, TX 77092, USA", "end_location": {"lat": 29.8019199, "lng": -95.45428179999999}, "start_address": "7055 Beechnut St #6003, Houston, TX 77074, USA", "start_location": {"lat": 29.6913285, "lng": -95.50828709999999}, "steps": [{"distance": {"text": "0.1 mi", "value": 184}, "duration": {"text": "2 mins", "value": 141}, "end_location": {"lat": 29.6919405, "lng": -95.5095078}, "html_instructions": "Walk to Beechnut St @ Fondren Rd", "polyline": {"points": "yaftDx}|eQWB]B[BE?e@D@tC?N?L?L@^"}, "start_location": {"lat": 29.6913285, "lng": -95.50828709999999}, "steps": [{"distance": {"text": "246 ft", "value": 75}, "duration": {"text": "1 min", "value": 57}, "end_location": {"lat": 29.6919573, "lng": -95.50838019999999}, "html_instructions": "Head <b>north</b> toward <b>Beechnut St</b><div style=\"font-size:0.9em\">Restricted usage road</div>", "polyline": {"points": "yaftDx}|eQWB]B[BE?e@D"}, "start_location": {"lat": 29.6913285, "lng": -95.50828709999999}, "travel_mode": "WALKING"}, {"distance": {"text": "358 ft", "value": 109}, "duration": {"text": "1 min", "value": 84}, "end_location": {"lat": 29.6919405, "lng": -95.5095078}, "html_instructions": "Turn <b>left</b> onto <b>Beechnut St</b>", "maneuver": "turn-left", "polyline": {"points": "weftDj~|eQ@tC?N?L?L@^"}, "start_location": {"lat": 29.6919573, "lng": -95.50838019999999}, "travel_mode": "WALKING"}], "travel_mode": "WALKING"}, {"distance": {"text": "7.0 mi", "value": 11301}, "duration": {"text": "26 mins", "value": 1560}, "end_location": {"lat": 29.704328, "lng": -95.40361999999999}, "html_instructions": "Bus towards Eastwood TC", "polyline": {"points": "oeftDle}eQK?Ae@?G?U?{CF{ABa@?IPmBFi@Fc@Jk@DYJi@J]TaA@A@GNe@JUPi@FQHSDOPc@Rc@DG@EXg@HM^q@b@o@Xa@PU~@qANOl@q@X_@t@mANY@ETe@HSTm@DMX_A?CFS@AR}@PgAHi@@GDg@HiBBaB?UAyDAuC?YAeDA_DAeB?s@?S@u@?_A?oAAcA?_@?IC{@@[A{A?]Eo@Cg@Q{AWeBQ_AOu@Mo@GYMuAGi@GaAA}@Ao@?g@?k@AgDA[AoH?_@?_@?]?]?A?Y?]Ay@?_@?iBCuF?M?yAAe@?y@?a@AiF?[?aA?_A@cA?]@q@@a@?S@_@?Y@O@Y?CAg@?mA?AB_@Aw@Am@?MA_@?OAQASCu@A_@?sAAy@?wA?S?E?S?c@?M?A?[?OA_B?a@@o@?u@?U?uA?G?S?aA?c@?AAK?]?M?c@?K?g@Au@?a@?Y?e@AkB?_@?y@Au@?c@?cA?aA?i@?W?_@AO?a@?u@?i@A_C?c@?_@?}@A{BAi@?]A_A?_BCaD?c@?u@AeC?uA?{CA{@?cA@q@?_A@s@?g@HkAD{@?WBy@Ao@AyAAgB?UCsE?W?i@Ac@AcDC_D@Q?cAAo@ASAYEs@COEc@Gk@Ku@EWQw@EQEW[qAE]CQEWEe@Ee@Ak@Ae@AU?i@ASAaC?u@?EAwFAE?AA??U?]CY?IAOE[E_@Ke@G[Ka@KYM[KWKSMWMQOSQUQUa@c@AAMOGKQYKQCIKUIWM]Ig@EUAICUCWAYAS?U?a@AgACuAAs@?WB]?o@?m@A_B?cC?a@Ac@?GEk@Ei@OkAMy@I[Og@Uo@KU?CKWWk@MYGQGUGSGWI[Ge@G_@E[Eo@Ak@?Y?E?e@@SBc@?OX}D@K@_@@I?[?g@?ECi@Gk@E_@GYEUSk@CIOc@AAEIO[KQCESYcAuAQWq@{@]a@KKOM_@]a@]u@m@cCoB[WWQk@c@w@m@a@_@OKa@e@W]]g@S]KWAAO_@M_@GUCKCMEQMo@?CGq@ASCWAa@?cA?IBs@H}@@O@AHYx@aEZyAVoAFk@Dg@?M@W?G?MCk@Es@Iy@AEKg@GSGQK[Wm@EKw@kB[q@GIOc@IFEISg@Oc@K_@QYI]Mq@OgAIiAAgA?gAFyCDgAHeB`@}DJ{@n@kFiBuAFKAAKISMe@_@IGMIo@g@i@_@SOyAiAOKMK}AiAGEEEIC_@UQMq@g@g@_@MMaC_BcD_CqCoBcBiAUUADa@YJWtAaDVq@Nq@L{@Bq@}@GKAMEKKEQ?QBOTq@BMAUBMBK@KB]EIKEa@H{@LA?@J"}, "start_location": {"lat": 29.691917, "lng": -95.509506}, "transit_details": {"arrival_stop": {"location": {"lat": 29.704328, "lng": -95.40361999999999}, "name": "Texas Medical Center Transit Center"}, "arrival_time": {"text": "3:48pm", "time_zone": "America/Chicago", "value": 1642024080}, "departure_stop": {"location": {"lat": 29.691917, "lng": -95.509506}, "name": "Beechnut St @ Fondren Rd"}, "departure_time": {"text": "3:22pm", "time_zone": "America/Chicago", "value": 1642022520}, "headsign": "Eastwood TC", "line": {"agencies": [{"name": "Metropolitan Transit Authority of Harris County", "phone": "1 (713) 635-4000", "url": "http://www.ridemetro.org/"}], "color": "#004080", "name": "Beechnut", "short_name": "4", "text_color": "#ffffff", "url": "https://www.ridemetro.org/MetroPDFs/Schedules/BusSchedules/n004-Beechnut.pdf", "vehicle": {"icon": "//maps.gstatic.com/mapfiles/transit/iw2/6/bus2.png", "name": "Bus", "type": "BUS"}}, "num_stops": 39, "trip_short_name": "BEECHNUT"}, "travel_mode": "TRANSIT"}, {"distance": {"text": "7.9 mi", "value": 12693}, "duration": {"text": "34 mins", "value": 2040}, "end_location": {"lat": 29.803613, "lng": -95.41008699999999}, "html_instructions": "Bus towards N Shepherd P&R", "polyline": {"points": "ashtDroheQFj@kAh@QBKAKKCQ@O?i@?A?e@j@Kn@KDAp@Mr@KPHDPDVERC\\AJCJCL@TCLUp@CN?PDPJJLDhAHCp@Mz@Op@Wp@gAhC?@CFIPEJIPEHELWh@QXINOPSNkAl@OH]PE@MFC@MBS@e@@M?o@A]??|B?vA?^@nG?j@?R?P@b@?~@@rAA`A@n@?h@oA?[?_@?WAsBBQ?Q?eD@uB@S?Y?yAA{@@yC@kC@K?gD?cDB_D@}A?oA@_B@c@?cE@w@@}AAAc@?g@AQCYCg@Iq@E[Gc@Km@Os@Me@IUSu@GUw@oCMc@Uw@cBp@IDkAb@kAf@{@^SHy@ZEBSF_@JKBi@LA@SDWDa@FI@a@F]DWBYBQ@o@DA?M@w@@W@M?K?oA?gA?K?sA@uA@K@iB?s@?iD@yB?S?c@@gB?oCBU@eB@e@?]?eA?S?O?U?aA?i@@A?[?A?Y@k@?]?m@?W?iD@c@@aA@eADcAAQ?aA?S@c@?U@y@Ao@AgB?cA@sA?cA@Q?iD@wA?u@@e@?c@?M?_A@]?y@?y@@Y?K?y@@O?s@?y@?eB@cA?y@@O?K?W?I?c@?E?}ABE?q@?gA?]Aa@G[GSCg@AS@M?Y?a@?m@?_A?c@@S?sC@gA@iA?kD?iB?_@?[?Y?q@@gB?{@?Y@qA?eA?I?uD@i@@_A?Q?O?{@?m@?M?g@@y@@g@@Q?[?{@?OGEAGCEEGCECECGEY[OYEKCECGEQ_AuCAEEIQe@IQCEACGIEGEGGIIIEEOKGEQKMEk@Oo@@M?{@?WIgB?KEC?SAYAU?IA]?SAeA?S?g@AcA@EBIFKFA@CBIHCDGHGXQ@aAJa@Da@DC?}AL]D]DK@KEA?A?I?G?M?MAAAA?C?AAE?CAA?OCC?AAM?WA[FE@E@c@HG@YD_@HeAPKBw@TgABW?C?W?k@@_A@K?[@SBe@Dc@@SBa@?eA@[?M?eA@c@?e@?]?_@@Y?k@?M?qCBg@?Q?M@U?e@?M?qCB]?w@@_@?E@W?e@?mB@gA?k@@]?qB@c@@a@CE@e@@m@?S@kA?cA@aCBM?oC@eA@oA@Y?[?O?a@Bm@?U?o@?e@@I?A?A?y@?M@YAS@O?_@@w@@y@?]?M?YAMAMCOEYIIAa@Kc@Ku@QGACAm@MAAOCIAK?OAM?M?A?I?O?S@M@IBc@Jq@P}@Vg@Jk@Ji@Hc@Be@DE?c@Bs@ByABA?oCBYA}B@I?A?q@@K?E?k@?C?O@u@?S?k@@w@@K?a@?O?[@U?U?U?k@@k@?Y@C?I?S?kC@y@@K?W@[?S?A?W?G?U@S?c@?e@@O?E?[?mCBeA@U?Y?S?U@A?S?aA@_@?e@@Q?S?U?s@?C?W?qB@sB@eBBg@?oBBaGBq@@w@?aB@i@@W@_B@yA@aB@Q?qD@U@gB?eB@eBA_A@?K"}, "start_location": {"lat": 29.704328, "lng": -95.40361999999999}, "transit_details": {"arrival_stop": {"location": {"lat": 29.803613, "lng": -95.41008699999999}, "name": "N Shepherd Dr @ W 20th St"}, "arrival_time": {"text": "4:29pm", "time_zone": "America/Chicago", "value": 1642026540}, "departure_stop": {"location": {"lat": 29.704328, "lng": -95.40361999999999}, "name": "Texas Medical Center Transit Center"}, "departure_time": {"text": "3:55pm", "time_zone": "America/Chicago", "value": 1642024500}, "headsign": "N Shepherd P&R", "line": {"agencies": [{"name": "Metropolitan Transit Authority of Harris County", "phone": "1 (713) 635-4000", "url": "http://www.ridemetro.org/"}], "color": "#004080", "name": "Shepherd", "short_name": "27", "text_color": "#ffffff", "url": "https://www.ridemetro.org/MetroPDFs/Schedules/BusSchedules/n027-Shepherd.pdf", "vehicle": {"icon": "//maps.gstatic.com/mapfiles/transit/iw2/6/bus2.png", "name": "Bus", "type": "BUS"}}, "num_stops": 53, "trip_short_name": "SHEPHERD"}, "travel_mode": "TRANSIT"}, {"distance": {"text": "112 ft", "value": 34}, "duration": {"text": "1 min", "value": 34}, "end_location": {"lat": 29.803842, "lng": -95.41002979999999}, "html_instructions": "Walk to W 20th St @ N Shepherd Dr", "polyline": {"points": "q_|tDdxieQ_@@M??Q"}, "start_location": {"lat": 29.8036121, "lng": -95.410111}, "steps": [{"distance": {"text": "69 ft", "value": 21}, "duration": {"text": "1 min", "value": 15}, "end_location": {"lat": 29.8038391, "lng": -95.4101207}, "html_instructions": "Head <b>north</b> on <b>N Shepherd Dr</b> toward <b>W 20th St</b>", "polyline": {"points": "q_|tDdxieQ_@@M?"}, "start_location": {"lat": 29.8036121, "lng": -95.410111}, "travel_mode": "WALKING"}, {"distance": {"text": "43 ft", "value": 13}, "duration": {"text": "1 min", "value": 19}, "end_location": {"lat": 29.803842, "lng": -95.41002979999999}, "html_instructions": "Turn <b>right</b> onto <b>W 20th St</b>", "maneuver": "turn-right", "polyline": {"points": "_a|tDfxieQ?Q"}, "start_location": {"lat": 29.8038391, "lng": -95.4101207}, "travel_mode": "WALKING"}], "travel_mode": "WALKING"}, {"distance": {"text": "2.7 mi", "value": 4367}, "duration": {"text": "10 mins", "value": 582}, "end_location": {"lat": 29.80163, "lng": -95.454342}, "html_instructions": "Bus towards Memorial City", "polyline": {"points": "ea|tDvwieQJ?@V?fA@`ABfE?tABtJ?pB@rA?r@?H?|@?jB?@?j@@h@AL?\\?J@f@?|B?h@?|@?n@?N?|G?J@tE?d@@dC?p@AL@J?V@P@H?B?D@F@HBH@JDPDLDLDHDJDJHLFHFHLL?@TVTVn@v@NRh@h@NPVX^f@BJBFBFf@v@P`@DZDVBT@F?D@F?H?P@P?X?N?F?j@@pAIpB@f@?V?fA?j@?V@h@AjA?h@@~@?b@@^Af@@d@?X?bA?jA?b@@nC?J?d@Aj@?v@?P@dB?jA?bC?`A?\\@dH?`D?dC@fE?jD?T@`F@vB?jD?vC?X?`E@V@zCAb@?fAAX@fB@fA?T@|B?l@A~A?x@?XAzB?`A?dB?l@?P?F?H@^?Z?@?H?@?Z?h@?f@?j@?^?t@@j@BnAAV@|@@fB?bBG?"}, "start_location": {"lat": 29.803869, "lng": -95.410039}, "transit_details": {"arrival_stop": {"location": {"lat": 29.80163, "lng": -95.454342}, "name": "W 18th St @ Northwest Fwy"}, "arrival_time": {"text": "4:48pm", "time_zone": "America/Chicago", "value": 1642027720}, "departure_stop": {"location": {"lat": 29.803869, "lng": -95.410039}, "name": "W 20th St @ N Shepherd Dr"}, "departure_time": {"text": "4:38pm", "time_zone": "America/Chicago", "value": 1642027138}, "headsign": "Memorial City", "line": {"agencies": [{"name": "Metropolitan Transit Authority of Harris County", "phone": "1 (713) 635-4000", "url": "http://www.ridemetro.org/"}], "color": "#004080", "name": "Long Point / Cavalcade", "short_name": "26", "text_color": "#ffffff", "url": "https://www.ridemetro.org/MetroPDFs/Schedules/BusSchedules/n026-Long-Point-Cavalcade.pdf", "vehicle": {"icon": "//maps.gstatic.com/mapfiles/transit/iw2/6/bus2.png", "name": "Bus", "type": "BUS"}}, "num_stops": 14, "trip_short_name": "LONGPOINT"}, "travel_mode": "TRANSIT"}, {"distance": {"text": "322 ft", "value": 98}, "duration": {"text": "1 min", "value": 77}, "end_location": {"lat": 29.8019199, "lng": -95.45428179999999}, "html_instructions": "Walk to 4400 W 18th St, Houston, TX 77092, USA", "polyline": {"points": "es{tDrlreQ?z@YEc@E?G@Q@a@"}, "start_location": {"lat": 29.8016264, "lng": -95.454342}, "steps": [{"distance": {"text": "95 ft", "value": 29}, "duration": {"text": "1 min", "value": 22}, "end_location": {"lat": 29.8016252, "lng": -95.45463819999999}, "html_instructions": "Head <b>west</b> on <b>W 18th St</b>/<wbr/><b>NW Mall</b>", "polyline": {"points": "es{tDrlreQ?z@"}, "start_location": {"lat": 29.8016264, "lng": -95.454342}, "travel_mode": "WALKING"}, {"distance": {"text": "131 ft", "value": 40}, "duration": {"text": "1 min", "value": 33}, "end_location": {"lat": 29.8019405, "lng": -95.4545788}, "html_instructions": "Turn <b>right</b><div style=\"font-size:0.9em\">Restricted usage road</div>", "maneuver": "turn-right", "polyline": {"points": "es{tDnnreQYEc@E"}, "start_location": {"lat": 29.8016252, "lng": -95.45463819999999}, "travel_mode": "WALKING"}, {"distance": {"text": "95 ft", "value": 29}, "duration": {"text": "1 min", "value": 22}, "end_location": {"lat": 29.8019199, "lng": -95.45428179999999}, "html_instructions": "Turn <b>right</b><div style=\"font-size:0.9em\">Restricted usage road</div><div style=\"font-size:0.9em\">Destination will be on the left</div>", "maneuver": "turn-right", "polyline": {"points": "cu{tDbnreQ?G@Q@a@"}, "start_location": {"lat": 29.8019405, "lng": -95.4545788}, "travel_mode": "WALKING"}], "travel_mode": "WALKING"}], "traffic_speed_entry": [], "via_waypoint": []}], "overview_polyline": {"points": "yaftDx}|eQwAJe@D@tC?\\@l@B?K?Am@?qDJ}BPwB`@sCn@kCn@mBh@yAt@yAlAoBj@w@nAaBfAqAdAgBv@mBf@eBT_AZqBFo@LkEC_KE_N@yEEiD?wBEmAUcCi@eD]eBUoBOkBCmBCwGAeNGaSAiJBsEDeE?oA@wACkBI{BAyFAyE@oGAcEEsUCsKI_RCsL@uB@sBHsBDsA@iBCaECkHEyJEaDWsCQmAWiAa@iBIo@K}@GqAEyBCuLC]EqAK{@SaAW{@Ys@w@qAgAqAU[]k@g@uAU}AG{AGsFBu@?}ACiHEs@UuBWuAe@wAo@}Ae@uAa@yBKkAAeADcB\\yF@sAKuAMy@YaASm@c@y@mBmCoA}A[Y{FyEwC{Bq@k@y@cAq@eAMY]_AKa@WsAO_C?mABs@H}@BQbA{Er@iDLsA@{@I_BK_AS{@Sm@]y@sA}CWm@IFEIc@kAK_@QYWoAYqCAoCLaFHeB`@}Dz@gHiBuAFKMKqA_AgEaDcCgBaAm@yAgAoCmBuHoFyB_BADa@Y`ByDf@cBL{@Bq@iAIMEKKEc@XaABMAUBMDWB]EIKEa@H}@LHv@kAh@QBKAKKAa@?k@?e@j@Kt@MdBYPHDPDVEREh@CJCL@TY~@C`@DPJJLDhAHCp@Mz@g@bBgAjC]v@u@zAY`@_B|@aAd@QDy@B}@A]??|B?vB@zH@hC@nFcDA}HD}F?mJDkIB}F@wKDuC?AkASeCM_A[aBs@gCeAsDUw@cBp@uAh@gCfAgBp@wA^wATqBTqAHiBBwF@aBB}C?{IBsJFoH@qD@gHDiCBsA?gC@oH?eNDgUHqCB}CA}@O{@E}A@wRDoLBcNB_D@oCB{@?OGMEYQa@a@Ue@mAuDc@gAS[]a@WQ_@Qk@Oo@@iA?WIgB?OEmAEkCAkB?OJ[VKNGXQ@cBPe@DeDZYEc@AAASC{@GsEx@cAX_BBgCBaBJw@DgB@sC@}B@oIDyIF_GB}D@wOJaIFkDB{FBu@GuA]eBa@iAUw@Ao@@WDuA\\eBb@uATsBLmCFqCBcD?oB@mEDmOJ{NHyEDeMFoSLuRJkE?_A@?K?B_@@M??QE@J?@~AHtU@zM@nJB|W@bABZLp@Vp@^l@x@~@hBtBf@j@^f@BJFNf@v@P`@Jr@D\\@h@@bA@|BIpB@f@?~A?bA?tB@hB@pC?zLBdWDvd@@jKA`HDbIA`F?tK?bEDpE@`HG??z@YEc@E?GBs@"}, "summary": "", "warnings": ["Walking directions are in beta. Use caution \u2013 This route may be missing sidewalks or pedestrian paths."], "waypoint_order": []}, {"bounds": {"northeast": {"lat": 29.803205, "lng": -95.4519566}, "southwest": {"lat": 29.6908406, "lng": -95.54482619999999}}, "copyrights": "Map data \u00a92022", "legs": [{"arrival_time": {"text": "4:49pm", "time_zone": "America/Chicago", "value": 1642027767}, "departure_time": {"text": "3:19pm", "time_zone": "America/Chicago", "value": 1642022345}, "distance": {"text": "15.2 mi", "value": 24439}, "duration": {"text": "1 hour 30 mins", "value": 5422}, "end_address": "4400 W 18th St, Houston, TX 77092, USA", "end_location": {"lat": 29.8019199, "lng": -95.45428179999999}, "start_address": "7055 Beechnut St #6003, Houston, TX 77074, USA", "start_location": {"lat": 29.6913285, "lng": -95.50828709999999}, "steps": [{"distance": {"text": "0.2 mi", "value": 337}, "duration": {"text": "5 mins", "value": 295}, "end_location": {"lat": 29.6919872, "lng": -95.5109202}, "html_instructions": "Walk to Beechnut St @ Fondren Rd", "polyline": {"points": "yaftDx}|eQWB]B[BE?e@D@tC?N?L?L@l@@P@^@P@H@PMBUDMDJfAHr@DV@F"}, "start_location": {"lat": 29.6913285, "lng": -95.50828709999999}, "steps": [{"distance": {"text": "246 ft", "value": 75}, "duration": {"text": "1 min", "value": 57}, "end_location": {"lat": 29.6919573, "lng": -95.50838019999999}, "html_instructions": "Head <b>north</b> toward <b>Beechnut St</b><div style=\"font-size:0.9em\">Restricted usage road</div>", "polyline": {"points": "yaftDx}|eQWB]B[BE?e@D"}, "start_location": {"lat": 29.6913285, "lng": -95.50828709999999}, "travel_mode": "WALKING"}, {"distance": {"text": "0.1 mi", "value": 159}, "duration": {"text": "2 mins", "value": 132}, "end_location": {"lat": 29.6919559, "lng": -95.5100783}, "html_instructions": "Turn <b>left</b> onto <b>Beechnut St</b>", "maneuver": "turn-left", "polyline": {"points": "weftDj~|eQ@tC?N?L?L@l@@P@^@P@H@PMB"}, "start_location": {"lat": 29.6919573, "lng": -95.50838019999999}, "travel_mode": "WALKING"}, {"distance": {"text": "69 ft", "value": 21}, "duration": {"text": "1 min", "value": 35}, "end_location": {"lat": 29.6921397, "lng": -95.51013669999999}, "html_instructions": "Turn <b>right</b> onto <b>Fondren Rd</b>", "maneuver": "turn-right", "polyline": {"points": "weftD~h}eQUDMD"}, "start_location": {"lat": 29.6919559, "lng": -95.5100783}, "travel_mode": "WALKING"}, {"distance": {"text": "269 ft", "value": 82}, "duration": {"text": "1 min", "value": 71}, "end_location": {"lat": 29.6919872, "lng": -95.5109202}, "html_instructions": "Turn <b>left</b> onto <b>Beechnut St</b><div style=\"font-size:0.9em\">Destination will be on the right</div>", "maneuver": "turn-left", "polyline": {"points": "{fftDji}eQJfAHr@DV@F"}, "start_location": {"lat": 29.6921397, "lng": -95.51013669999999}, "travel_mode": "WALKING"}], "travel_mode": "WALKING"}, {"distance": {"text": "1.6 mi", "value": 2533}, "duration": {"text": "6 mins", "value": 360}, "end_location": {"lat": 29.690996, "lng": -95.536266}, "html_instructions": "Bus towards Mission Bend TC", "polyline": {"points": "cfftDjn}eQLEZ|Aj@bCd@tBFZFb@D\\Jv@BZ?\\@\\?RBvF@fA?tD@pC?v@?T?f@AbB?ZANGfAKlACVa@nCObACRKvAA`@AP?\\?XAj@?d@?dE?bA@vB?`@?fBA^Cn@Et@Ed@CXADGr@CRIf@If@Mz@ABIb@ADGZCD?@GV?BCFMj@Id@Mr@Gb@Kt@Ef@Ep@MtBEzAAT?TAh@DzAHtBN~AHh@D\\F\\TpABLBNb@dBFTXv@\\~@N\\d@nANf@\\hAH`@Lh@Ln@N`A@BBTMB"}, "start_location": {"lat": 29.6920192, "lng": -95.51093519999999}, "transit_details": {"arrival_stop": {"location": {"lat": 29.690996, "lng": -95.536266}, "name": "Beechnut St @ S Gessner Rd"}, "arrival_time": {"text": "3:30pm", "time_zone": "America/Chicago", "value": 1642023000}, "departure_stop": {"location": {"lat": 29.6920192, "lng": -95.51093519999999}, "name": "Beechnut St @ Fondren Rd"}, "departure_time": {"text": "3:24pm", "time_zone": "America/Chicago", "value": 1642022640}, "headsign": "Mission Bend TC", "line": {"agencies": [{"name": "Metropolitan Transit Authority of Harris County", "phone": "1 (713) 635-4000", "url": "http://www.ridemetro.org/"}], "color": "#004080", "name": "Beechnut", "short_name": "4", "text_color": "#ffffff", "url": "https://www.ridemetro.org/MetroPDFs/Schedules/BusSchedules/n004-Beechnut.pdf", "vehicle": {"icon": "//maps.gstatic.com/mapfiles/transit/iw2/6/bus2.png", "name": "Bus", "type": "BUS"}}, "num_stops": 7, "trip_short_name": "BEECHNUT"}, "travel_mode": "TRANSIT"}, {"distance": {"text": "0.1 mi", "value": 168}, "duration": {"text": "3 mins", "value": 160}, "end_location": {"lat": 29.6908647, "lng": -95.5347393}, "html_instructions": "Walk to S Gessner Rd @ Beechnut St", "polyline": {"points": "o_ftDrlbfQEYQaAWoAEOCQCOHIHIJKFGh@i@"}, "start_location": {"lat": 29.6909623, "lng": -95.5362559}, "steps": [{"distance": {"text": "361 ft", "value": 110}, "duration": {"text": "1 min", "value": 89}, "end_location": {"lat": 29.6912155, "lng": -95.5350986}, "html_instructions": "Head <b>east</b> on <b>Beechnut St</b> toward <b>S Gessner Rd</b>", "polyline": {"points": "o_ftDrlbfQEYQaAWoAEOCQCOHI"}, "start_location": {"lat": 29.6909623, "lng": -95.5362559}, "travel_mode": "WALKING"}, {"distance": {"text": "190 ft", "value": 58}, "duration": {"text": "1 min", "value": 71}, "end_location": {"lat": 29.6908647, "lng": -95.5347393}, "html_instructions": "Turn <b>right</b> onto <b>S Gessner Rd</b>", "maneuver": "turn-right", "polyline": {"points": "caftDjebfQHIJKFGh@i@"}, "start_location": {"lat": 29.6912155, "lng": -95.5350986}, "travel_mode": "WALKING"}], "travel_mode": "WALKING"}, {"distance": {"text": "6.6 mi", "value": 10553}, "duration": {"text": "32 mins", "value": 1934}, "end_location": {"lat": 29.782613, "lng": -95.543797}, "html_instructions": "Bus towards Hempstead Hwy", "polyline": {"points": "__ftD~bbfQFHg@h@ONUT[Tc@`@YV{AhAA?sAz@YPoB`AUJk@T_Bj@UFwA`@_@Je@J_APw@L_BRkAHQ@cEPQ@U@e@@U?mBDu@@M?SAS?{E@M@oC@y@?S?uF@wEBmB@mA@w@?e@@MA_@@W?W@U@A?e@By@HC?UDGBwAVcAXqA`@iAT]FOBWDQB[DE?W@Y@M?Y@aCBy@?c@@g@@sA?G?G?_@?o@?g@?U?sB@o@@k@?a@?{@@a@?{A@m@?_C@i@?gC@M?eA@w@?[?uBBkA@A?S?cA@QAyA@kA?}A@M@wAB[?U?O?yA@iB@yA@Y?S?[@eA@Y?s@?g@?W?gDA{BAyAAwA@m@?S@mC@sCBc@BUA_A@a@?_@@}C?kB?{@@]?wCBoA?kA@uA?wABs@BS?u@?iB@oBBY?SAcBBa@?Y@eAAMA_@Ck@Eq@O]IYE_@G[EI?UCWA[CKAE?WAQAa@Cw@?K?_@CUCMCUEWEc@IOGi@Qi@O_@KA?e@Gm@G_ACe@?A?aA@U@G?_A?E?a@@wA?eD@_@?wA@sB@c@?O?I?oB@M?aEBkEBsB?[?eA@_@CqEBQAoDFWBe@DYDa@Hk@Pg@Tg@XA?g@\\C@{@l@WPcAr@]TIBWRmAx@e@`@CB_@^ABMLUXY\\QTSXYf@S\\GHS^eAnBEHWj@MNKLMP?@U\\[d@Wb@a@f@i@h@IH[VaAp@q@`@E@k@XQFKBa@NQFODOD[Fq@Nw@DkAF{@@cBE[EO?GAQ?K?Y?gA@{B?kABm@Aq@?qBBaB@mACeAGc@Gk@IiAWm@MaAOwAMgAGs@?}@?qA?Q?iD?sCBS?oF?oC?U?_B?iA@oCBU?gD?yABkA@yA?u@@W?mA?oA?sC@W?qD?A?c@?mADi@Ac@@A?M?m@Ac@?c@?OA]?c@Ac@?]?k@?y@?[?G?c@?e@AE?sAEu@EA?aAKkASc@GOC{@MICWCWCWCWC_@C@S"}, "start_location": {"lat": 29.690883, "lng": -95.534717}, "transit_details": {"arrival_stop": {"location": {"lat": 29.782613, "lng": -95.543797}, "name": "Gessner Rd @ Katy Fwy"}, "arrival_time": {"text": "4:16pm", "time_zone": "America/Chicago", "value": 1642025760}, "departure_stop": {"location": {"lat": 29.690883, "lng": -95.534717}, "name": "S Gessner Rd @ Beechnut St"}, "departure_time": {"text": "3:43pm", "time_zone": "America/Chicago", "value": 1642023826}, "headsign": "Hempstead Hwy", "line": {"agencies": [{"name": "Metropolitan Transit Authority of Harris County", "phone": "1 (713) 635-4000", "url": "http://www.ridemetro.org/"}], "color": "#004080", "name": "Gessner", "short_name": "46", "text_color": "#ffffff", "url": "https://www.ridemetro.org/MetroPDFs/Schedules/BusSchedules/n046-Gessner.pdf", "vehicle": {"icon": "//maps.gstatic.com/mapfiles/transit/iw2/6/bus2.png", "name": "Bus", "type": "BUS"}}, "num_stops": 34, "trip_short_name": "GESSNER"}, "travel_mode": "TRANSIT"}, {"distance": {"text": "6.5 mi", "value": 10474}, "duration": {"text": "25 mins", "value": 1522}, "end_location": {"lat": 29.80140099999999, "lng": -95.45297}, "html_instructions": "Bus towards Kashmere TC", "polyline": {"points": "i|wtDv{cfQARSAk@ASAOAg@?[AA?}@@_@Aw@?u@AC?i@?aA?QAaADA?g@D{@Da@DO@Y@S@A?w@BM@Y@S@U@SBYBI@OBA?QBUDE@k@L_@LIBSF]FYFC?c@DSB]Ba@@s@@c@?gABw@?W?[@_@?U?S?E?o@@m@AeB@S?y@@gA@c@?c@@k@?m@@oA@E?W?s@@BeB?g@?oB@Q?qA?Y?]?eB?q@@mA@}BA]?_A?a@LoA@KDWBY@Y?wAAy@?K?o@Ac@?Q?sA?_@Ec@?AO}@ACEWY}AUmA?AESCQUiA[kBMq@EUCK[gBQgAGc@EYIe@G[G]Qw@Ia@UqAQ}@]sBSeASeACSMm@AGG[Ki@G_@Ki@G_@A?Ko@o@mDMo@_@wBMs@Ie@Qq@YsAACGU_@yAAEGUM_@Om@EUOm@EQMe@Oo@EQCOIYEQK_@COEMCMGUAICMGSEQMk@Sy@QuACOEc@Ge@C]CKE_@Eg@COE_@O{AQ}Aa@uDCUc@eEE]UqBKkAGc@MqAOwA_@sDGm@@I?K?IEoAMw@Gy@Ee@CUE]Ie@GUGUGSKUKWEKKU_@o@q@mA_@k@QWKQe@e@_@YCAWQMI[SCCQKUMGGGGWWWa@AASc@Sk@ACEQGUE]EY?EAM?GCs@?YIsBGaBAi@Cg@?_@?C?[B}B?[?mB@a@@gB@y@?WB}F?qA@qB?K?M?oA?YAq@?S?wC?aAAsF@sA?WA}D?c@?MAi@?e@COAW?i@Ay@?Y@k@?S@SES?G@]@I?[@_@?I?[@a@?]@E?m@@e@@y@?O?Y@o@@sB@g@?I@_B?s@@W?a@?Y@aA?S@i@?e@@}@@eA?g@@s@?s@?M?K?Y?U?U?GAK?GAI?E@Q?c@?K?E?A?C?A?A@C?E?Y@U?o@@uA@k@?a@?_@@[?Q?c@?O?]?e@@S?[?U?SAa@@S?y@?GAo@?_@?Q?S@_@?[@_A?[?oAAk@?O?Q?Q?[?c@?S?I@y@?G?Q?i@AuA?_A?aA?I?gAAw@?W?s@?U?U?m@?i@?o@Ag@?I?{A?O?q@?e@?eB?{A?UA]?kHAeI?EAY?kG?IAiC?s@?_BAoC?g@?qC?_CAoA?eA?M?s@AuC?Q?c@?e@?G?Q?I?oA?q@?i@?O?a@?c@?OAK?G?IAICGCECCEC?AKIEEOO`@o@FKt@gAb@q@HM`A{Ah@w@dA_Bh@y@@]EsB?]@g@?YAU?a@AyE?I?IAgA?uAAuC?o@@W?uC?W?]AuAAi@?iA?_B?AH?"}, "start_location": {"lat": 29.782613, "lng": -95.543797}, "transit_details": {"arrival_stop": {"location": {"lat": 29.80140099999999, "lng": -95.45297}, "name": "W 18th St @ Northwest Fwy"}, "arrival_time": {"text": "4:44pm", "time_zone": "America/Chicago", "value": 1642027462}, "departure_stop": {"location": {"lat": 29.782613, "lng": -95.543797}, "name": "Gessner Rd @ Katy Fwy"}, "departure_time": {"text": "4:19pm", "time_zone": "America/Chicago", "value": 1642025940}, "headsign": "Kashmere TC", "line": {"agencies": [{"name": "Metropolitan Transit Authority of Harris County", "phone": "1 (713) 635-4000", "url": "http://www.ridemetro.org/"}], "color": "#004080", "name": "Long Point / Cavalcade", "short_name": "26", "text_color": "#ffffff", "url": "https://www.ridemetro.org/MetroPDFs/Schedules/BusSchedules/n026-Long-Point-Cavalcade.pdf", "vehicle": {"icon": "//maps.gstatic.com/mapfiles/transit/iw2/6/bus2.png", "name": "Bus", "type": "BUS"}}, "num_stops": 42, "trip_short_name": "LONGPOINT"}, "travel_mode": "TRANSIT"}, {"distance": {"text": "0.2 mi", "value": 374}, "duration": {"text": "5 mins", "value": 304}, "end_location": {"lat": 29.8019199, "lng": -95.45428179999999}, "html_instructions": "Walk to 4400 W 18th St, Houston, TX 77092, USA", "polyline": {"points": "{q{tD`dreQ@]?g@@mACu@MDSFMD?j@?h@BnAAV@|@@hBYDe@F@D@R@f@?D"}, "start_location": {"lat": 29.8014155, "lng": -95.4529697}, "steps": [{"distance": {"text": "328 ft", "value": 100}, "duration": {"text": "1 min", "value": 78}, "end_location": {"lat": 29.8014885, "lng": -95.45198769999999}, "html_instructions": "Head <b>east</b> on <b>W 18th St</b>/<wbr/><b>NW Mall</b> toward <b>W Loop S Fwy</b><div style=\"font-size:0.9em\">Pass by Burger King (on the right in 279&nbsp;ft)</div>", "polyline": {"points": "{q{tD`dreQ@]?g@@mACu@MD"}, "start_location": {"lat": 29.8014155, "lng": -95.4529697}, "travel_mode": "WALKING"}, {"distance": {"text": "0.1 mi", "value": 198}, "duration": {"text": "3 mins", "value": 165}, "end_location": {"lat": 29.8016283, "lng": -95.4538499}, "html_instructions": "Cross the road", "polyline": {"points": "ir{tD|}qeQSFMD?j@?h@BnAAV@|@@hB"}, "start_location": {"lat": 29.8014885, "lng": -95.45198769999999}, "travel_mode": "WALKING"}, {"distance": {"text": "131 ft", "value": 40}, "duration": {"text": "1 min", "value": 34}, "end_location": {"lat": 29.80194599999999, "lng": -95.4539156}, "html_instructions": "Turn <b>right</b><div style=\"font-size:0.9em\">Restricted usage road</div>", "maneuver": "turn-right", "polyline": {"points": "es{tDpireQYDe@F"}, "start_location": {"lat": 29.8016283, "lng": -95.4538499}, "travel_mode": "WALKING"}, {"distance": {"text": "118 ft", "value": 36}, "duration": {"text": "1 min", "value": 27}, "end_location": {"lat": 29.8019199, "lng": -95.45428179999999}, "html_instructions": "Turn <b>left</b><div style=\"font-size:0.9em\">Restricted usage road</div><div style=\"font-size:0.9em\">Destination will be on the right</div>", "maneuver": "turn-left", "polyline": {"points": "eu{tD~ireQ@D@R@f@?D"}, "start_location": {"lat": 29.80194599999999, "lng": -95.4539156}, "travel_mode": "WALKING"}], "travel_mode": "WALKING"}], "traffic_speed_entry": [], "via_waypoint": []}], "overview_polyline": {"points": "yaftDx}|eQwAJe@D@tC?\\DlBBZ@PMBc@JTzBF^EBLEfA`Fl@pCL`ANrADfIBfMA|DIvAOdBq@rEOjBCjBAzI@xCAfCSdDWtBc@jCMh@YnAk@rDKxASpEAj@Ah@DzAHtBN~ANfAd@lCj@zBv@vBt@lBl@pBt@|DDXMBFAW{A]_BGa@RSRSh@i@CCFHg@h@e@d@_Av@uB`BuAz@iCrAaA`@uBr@wBl@eB\\wC`@}AJuER{@BgEFqG@_\\JkB@uAF}@H]HwAVcAXqA`@iATm@Ji@HsAHcFDgDBeJB{PF_KF{F@_FFmKF{D@uKEgHDwDFuA?kI@aIDmHHcHDsD@_B?m@Ek@Eq@Ow@OeAMuAKqAGcA?u@G_BYy@YiA[g@GmBK_CBoB@gPDkOHoC?eBAcF@gEJ_AJmAZoAn@i@\\{CtBmCfBkAhAoAzAiAhByAnC]t@g@p@q@bAy@jAs@r@}AhAw@b@}@`@oA`@k@Lq@Nw@DkAF{@@_CKu@AiHD_BAsEDmACeAGoAQwBe@yC]{BGoC?cJBuN?mULyP@}CDcCAuGCwAAiCKcAK{Dm@qAOw@G@SAR_ACc@CcC?mCCaCAgDP_BJaBFwAJm@H[FkAZuAZyALaEFkFB}KD{CBs@@BeB?wC@{CBcJA}A?a@LoAFc@Ds@AmEAiDWgBu@eEoBwKYkBO_Ak@sCaCyM}@_FkBiKw@oDeB}GiAuEi@_Ca@eBUeBUsB}A}NqCcXGm@@I?UEoAMw@M_BIs@Q{@Oi@Wm@Qa@qA}Bq@cAq@w@iAw@gAq@OOo@y@k@uAMg@Kw@EoASyGCgBDiHFwL@}EAoDAiXGwB?iD@g@E[DcBFyFFsKFwHBuE?iAAsA@cADiHBuE?_B?aAAoA@aB?wE@kEAmJCoVMslAAm@M[WUOO`@o@|@sAxCsEnByCCqC?uBAoGCcJ@cFCiHHAA]@uBCu@MDa@L?tADnG_ALBX@l@"}, "summary": "", "warnings": ["Walking directions are in beta. Use caution \u2013 This route may be missing sidewalks or pedestrian paths."], "waypoint_order": []}, {"bounds": {"northeast": {"lat": 29.8026498, "lng": -95.4082861}, "southwest": {"lat": 29.6893547, "lng": -95.5083801}}, "copyrights": "Map data \u00a92022", "legs": [{"arrival_time": {"text": "4:55pm", "time_zone": "America/Chicago", "value": 1642028139}, "departure_time": {"text": "3:21pm", "time_zone": "America/Chicago", "value": 1642022467}, "distance": {"text": "15.0 mi", "value": 24160}, "duration": {"text": "1 hour 35 mins", "value": 5672}, "end_address": "4400 W 18th St, Houston, TX 77092, USA", "end_location": {"lat": 29.8019199, "lng": -95.45428179999999}, "start_address": "7055 Beechnut St #6003, Houston, TX 77074, USA", "start_location": {"lat": 29.6913285, "lng": -95.50828709999999}, "steps": [{"distance": {"text": "0.5 mi", "value": 743}, "duration": {"text": "10 mins", "value": 576}, "end_location": {"lat": 29.6893547, "lng": -95.5035385}, "html_instructions": "Walk to Bissonnet St @ Beechnut St", "polyline": {"points": "yaftDx}|eQWB]B[BE?e@DFwABa@@INmBHi@Fc@Hk@FYHa@BOFUVaARm@HULa@DODIHSDOPc@Rc@DG@CTc@HKBE^q@`@o@@?j@w@x@kAHIBCJKVn@DHFRFLLX"}, "start_location": {"lat": 29.6913285, "lng": -95.50828709999999}, "steps": [{"distance": {"text": "246 ft", "value": 75}, "duration": {"text": "1 min", "value": 57}, "end_location": {"lat": 29.6919566, "lng": -95.5083801}, "html_instructions": "Head <b>north</b> toward <b>Beechnut St</b><div style=\"font-size:0.9em\">Restricted usage road</div>", "polyline": {"points": "yaftDx}|eQWB]B[BE?e@D"}, "start_location": {"lat": 29.6913285, "lng": -95.50828709999999}, "travel_mode": "WALKING"}, {"distance": {"text": "0.4 mi", "value": 599}, "duration": {"text": "8 mins", "value": 456}, "end_location": {"lat": 29.6896546, "lng": -95.50294980000001}, "html_instructions": "Turn <b>right</b> onto <b>Beechnut St</b>", "maneuver": "turn-right", "polyline": {"points": "weftDj~|eQFwABa@@INmBHi@Fc@Hk@FYHa@BOFUVaARm@HULa@DODIHSDOPc@Rc@DG@CTc@HKBE^q@`@o@@?j@w@x@kAHIBCJK"}, "start_location": {"lat": 29.6919566, "lng": -95.5083801}, "travel_mode": "WALKING"}, {"distance": {"text": "226 ft", "value": 69}, "duration": {"text": "1 min", "value": 63}, "end_location": {"lat": 29.6893547, "lng": -95.5035385}, "html_instructions": "Turn <b>right</b> onto <b>Bissonnet St</b>", "maneuver": "turn-right", "polyline": {"points": "iwetDl|{eQVn@DHFRFLLX"}, "start_location": {"lat": 29.6896546, "lng": -95.50294980000001}, "travel_mode": "WALKING"}], "travel_mode": "WALKING"}, {"distance": {"text": "6.4 mi", "value": 10282}, "duration": {"text": "28 mins", "value": 1697}, "end_location": {"lat": 29.7254958, "lng": -95.41073010000001}, "html_instructions": "Bus towards Wheeler TC", "polyline": {"points": "muetDb`|eQGBOc@KWEI[u@OYAEc@aAACq@eBk@uAQa@e@mAYq@O_@GM[w@M[IQOa@Qa@Sg@Ug@O]Sg@O[o@gBQ]Uk@q@aBQ_@Sg@gAoCKUk@wA?AMWe@mAYq@KYiAmCIOMY[o@CGSk@IQOa@Mc@Wo@q@aBk@sAIQ}@qBc@iAEKs@iBQa@Si@aAwBMWe@gAYs@k@uAM[[u@_A}BCEWu@EIWo@m@yAk@sA]w@IUIS?AGQGMUk@KU}@yB}@{B]y@GMGQEGEM[u@MYQe@c@cA[y@ISo@}Aa@aAWm@q@aBm@{Am@wA_@}@O_@Wo@EIQa@k@{AKWgAkCUi@[s@IUWq@Se@]y@Yu@Ug@CG]y@GOYo@Sg@M]MYCECECEMOIOKYa@cAKYc@eAO_@Wo@c@gA?q@?m@?q@?kA?Q?iAC{B?k@@IM_@OYCMAu@EmA\\G\\U@w@@]S?eA@g@?q@?K?S?yA?q@@q@?_@?]w@Qc@MYa@aAMW]y@Sg@GOUi@Um@Sg@Ui@GOw@kBIUWo@m@wAKYc@gAqA}CWm@CIQ_@i@wA]u@O[Qi@EUCICKQa@Uu@Wi@?AEG?AAE_AwBa@eA[u@CEOQiAkC?AIS_@{@CIcBaEaAcCO]EKKWYq@o@{AIQoCyGQe@]y@e@iAM][w@GMWo@KYO_@Qc@MWk@sAKYg@kAeAkCUg@M[c@gAMYEMO]M[CGWk@aAcCEIi@sAQc@wBiFg@qA]y@M[g@mA_@}@wAmDUi@EKEKCQEW_A}BUe@AEc@aAGCCACGMUAEGQEMCEHAGSm@uAQc@a@cAUm@a@cAc@gAGQk@qAWk@]u@k@uAYs@IWKUKWIQEMM[ACc@gA_@}@Qc@Yq@{BqFmAuCWi@KYGQI[CSC[?SAY?gA?K@WC}B?_B?Q?s@?q@AK?iA?OAgCA{ACkC?_A?U?_@A{E?i@CkH?KC}FCuDAsA?UA}CAaC?KAuDA}A?m@?k@Ag@G]?cAAO?K?a@?W?a@?cAAk@?a@?_AAsAAyA?yAAOAyA?_@AiB?cAAuB?E?_@E{KN?"}, "start_location": {"lat": 29.689351, "lng": -95.503536}, "transit_details": {"arrival_stop": {"location": {"lat": 29.7254958, "lng": -95.41073010000001}, "name": "Bissonnet St @ S Shepherd Dr"}, "arrival_time": {"text": "3:59pm", "time_zone": "America/Chicago", "value": 1642024740}, "departure_stop": {"location": {"lat": 29.689351, "lng": -95.503536}, "name": "Bissonnet St @ Beechnut St"}, "departure_time": {"text": "3:30pm", "time_zone": "America/Chicago", "value": 1642023043}, "headsign": "Wheeler TC", "line": {"agencies": [{"name": "Metropolitan Transit Authority of Harris County", "phone": "1 (713) 635-4000", "url": "http://www.ridemetro.org/"}], "color": "#004080", "name": "Bissonnet", "short_name": "65", "text_color": "#ffffff", "url": "https://www.ridemetro.org/MetroPDFs/Schedules/BusSchedules/n065-Bissonnet.pdf", "vehicle": {"icon": "//maps.gstatic.com/mapfiles/transit/iw2/6/bus2.png", "name": "Bus", "type": "BUS"}}, "num_stops": 38, "trip_short_name": "BISSONNET"}, "travel_mode": "TRANSIT"}, {"distance": {"text": "164 ft", "value": 50}, "duration": {"text": "1 min", "value": 45}, "end_location": {"lat": 29.7253171, "lng": -95.41048599999999}, "html_instructions": "Walk to S Shepherd Dr @ Bissonnet St", "polyline": {"points": "swltD`|ieQA_@?Ol@?"}, "start_location": {"lat": 29.72554409999999, "lng": -95.41073209999999}, "steps": [{"distance": {"text": "66 ft", "value": 20}, "duration": {"text": "1 min", "value": 14}, "end_location": {"lat": 29.7255475, "lng": -95.41048649999999}, "html_instructions": "Head <b>east</b> on <b>Bissonnet St</b> toward <b>S Shepherd Dr</b>", "polyline": {"points": "swltD`|ieQA_@?O"}, "start_location": {"lat": 29.72554409999999, "lng": -95.41073209999999}, "travel_mode": "WALKING"}, {"distance": {"text": "98 ft", "value": 30}, "duration": {"text": "1 min", "value": 31}, "end_location": {"lat": 29.7253171, "lng": -95.41048599999999}, "html_instructions": "Turn <b>right</b> onto <b>S Shepherd Dr</b>", "maneuver": "turn-right", "polyline": {"points": "uwltDpzieQl@?"}, "start_location": {"lat": 29.7255475, "lng": -95.41048649999999}, "travel_mode": "WALKING"}], "travel_mode": "WALKING"}, {"distance": {"text": "3.2 mi", "value": 5164}, "duration": {"text": "15 mins", "value": 900}, "end_location": {"lat": 29.770345, "lng": -95.409409}, "html_instructions": "Bus towards N Shepherd P&R", "polyline": {"points": "gvltDjzieQ?Ls@?iD@yB?S?c@@gB?oCBU@eB@e@?]?eA?S?O?U?aA?i@@A?[?A?Y@k@?]?m@?W?iD@c@@aA@eADcAAQ?aA?S@c@?U@y@Ao@AgB?cA@sA?cA@Q?iD@wA?u@@e@?c@?M?_A@]?y@?y@@Y?K?y@@O?s@?y@?eB@cA?y@@O?K?W?I?c@?E?}ABE?q@?gA?]Aa@G[GSCg@AS@M?Y?a@?m@?_A?c@@S?sC@gA@iA?kD?iB?_@?[?Y?q@@gB?{@?Y@qA?eA?I?uD@i@@_A?Q?O?{@?m@?M?g@@y@@g@@Q?[?{@?OGEAGCEEGCECECGEY[OYEKCECGEQ_AuCAEEIQe@IQCEACGIEGEGGIIIEEOKGEQKMEk@Oo@@M?{@?WIgB?KEC?SAYAU?IA]?SAeA?S?g@AcA@EBIFKFA@CBIHCDGHGXQ@aAJa@Da@DC?}AL]D]DK@KEA?A?I?G?M?MAAAA?C?AAE?CAA?OCC?AAM?WA[FE@E@c@HG@YD_@HeAPKBw@TgABW?C?W?k@@_A@K?[@SBe@Dc@@SBa@?eA@[?M?eA@c@?e@?]?_@@Y?k@?M?qCBg@?Q?M@U?e@?M?qCB]?w@@_@?E@AO"}, "start_location": {"lat": 29.7253163, "lng": -95.4104565}, "transit_details": {"arrival_stop": {"location": {"lat": 29.770345, "lng": -95.409409}, "name": "Shepherd Dr @ Washington Ave"}, "arrival_time": {"text": "4:22pm", "time_zone": "America/Chicago", "value": 1642026120}, "departure_stop": {"location": {"lat": 29.7253163, "lng": -95.4104565}, "name": "S Shepherd Dr @ Bissonnet St"}, "departure_time": {"text": "4:07pm", "time_zone": "America/Chicago", "value": 1642025220}, "headsign": "N Shepherd P&R", "line": {"agencies": [{"name": "Metropolitan Transit Authority of Harris County", "phone": "1 (713) 635-4000", "url": "http://www.ridemetro.org/"}], "color": "#004080", "name": "Shepherd", "short_name": "27", "text_color": "#ffffff", "url": "https://www.ridemetro.org/MetroPDFs/Schedules/BusSchedules/n027-Shepherd.pdf", "vehicle": {"icon": "//maps.gstatic.com/mapfiles/transit/iw2/6/bus2.png", "name": "Bus", "type": "BUS"}}, "num_stops": 23, "trip_short_name": "SHEPHERD"}, "travel_mode": "TRANSIT"}, {"distance": {"text": "82 ft", "value": 25}, "duration": {"text": "1 min", "value": 28}, "end_location": {"lat": 29.7704974, "lng": -95.4093594}, "html_instructions": "Walk to Washington Ave @ Shepherd Dr", "polyline": {"points": "soutD~sieQO@O??Q"}, "start_location": {"lat": 29.7703444, "lng": -95.4094437}, "steps": [{"distance": {"text": "43 ft", "value": 13}, "duration": {"text": "1 min", "value": 9}, "end_location": {"lat": 29.7704965, "lng": -95.4094472}, "html_instructions": "Head <b>north</b> on <b>Shepherd Dr</b> toward <b>Washington Ave</b>", "polyline": {"points": "soutD~sieQO@O?"}, "start_location": {"lat": 29.7703444, "lng": -95.4094437}, "travel_mode": "WALKING"}, {"distance": {"text": "39 ft", "value": 12}, "duration": {"text": "1 min", "value": 19}, "end_location": {"lat": 29.7704974, "lng": -95.4093594}, "html_instructions": "Turn <b>right</b> onto <b>Washington Ave</b>", "maneuver": "turn-right", "polyline": {"points": "sputD`tieQ?Q"}, "start_location": {"lat": 29.7704965, "lng": -95.4094472}, "travel_mode": "WALKING"}], "travel_mode": "WALKING"}, {"distance": {"text": "4.4 mi", "value": 7158}, "duration": {"text": "16 mins", "value": 977}, "end_location": {"lat": 29.801027, "lng": -95.45922999999999}, "html_instructions": "Bus towards Hempstead TC", "polyline": {"points": "{putDnsieQN??X?\\?^?X?N?j@?b@@`@?t@@j@?j@?N@`@?z@@dC?V@h@?RARAr@AJ?NAP?RCZAV?FCxA?XExACpAClACnAAj@CvAC|@?NA`@mC@q@Di@H[Hi@NOFA?MDE@C@I@MBMBKBK@KBKBA?M@SBSBK?e@?O@C@O?wA@S?{@@gA@[?A?A?EAmBD}A@S?G@G?OD_B@s@AO?w@?O@S?c@?_@?K?K?wA@oB?c@@}ADs@@oB@a@@_@?KE?AA?C?SCkAKw@Oo@KSCEAA?MAqCY_@?_@?C@C?A?C@C@CBA@A@?@A@?@CT?BAN?P?F@D@FBD@BBB@@B@B@B@D?T@h@@xBJZ@@dJ?FB`F@tCBpL?TBvL?NBjJ@|A?|CBtG?T@`G?b@AP?LCLAFCHGLINGL]n@u@rAkA`CKNsA~BqA`CCBQXMNOPIFABEBKFKFODiAROBa@FE@E@IBGBGBEDCB?@A@?BAB@F@FFH]JSVMNIHIJ?@KRIXu@hAIRA@MPW^MTw@fAa@n@ORMVKPQ^O\\O`@Wn@ENELAFKZMb@A@MDKZw@|BEJO^Yn@i@bAQ\\W`@EJ[d@EHg@x@c@n@OTINSXKP]d@_DxEMRe@r@oAnBQV[f@CDKN]`@ORE@C?C@C@q@bAKNQTs@bAEHEJCB?@AB?@?@CPGHS\\[d@iAbBq@`A_@n@e@r@G@C@C@Yb@q@`A]f@QV_@j@A@?@A@W\\KNABGHOVCBILc@l@W\\GLGHU\\?BABAJOX]d@OVo@dAiAhBa@n@Y`@QXY`@AD{A|B_B~BwAxBMR{A|BU\\W`@sBtCg@z@a@L{@vA]b@Sd@w@lAYh@OQ"}, "start_location": {"lat": 29.770538, "lng": -95.40935999999999}, "transit_details": {"arrival_stop": {"location": {"lat": 29.801027, "lng": -95.45922999999999}, "name": "Hempstead Rd @ W 18th St"}, "arrival_time": {"text": "4:45pm", "time_zone": "America/Chicago", "value": 1642027552}, "departure_stop": {"location": {"lat": 29.770538, "lng": -95.40935999999999}, "name": "Washington Ave @ Shepherd Dr"}, "departure_time": {"text": "4:29pm", "time_zone": "America/Chicago", "value": 1642026575}, "headsign": "Hempstead TC", "line": {"agencies": [{"name": "Metropolitan Transit Authority of Harris County", "phone": "1 (713) 635-4000", "url": "http://www.ridemetro.org/"}], "color": "#004080", "name": "Cottage Grove", "short_name": "71", "text_color": "#ffffff", "url": "https://www.ridemetro.org/MetroPDFs/Schedules/BusSchedules/n071-Cottage-Grove.pdf", "vehicle": {"icon": "//maps.gstatic.com/mapfiles/transit/iw2/6/bus2.png", "name": "Bus", "type": "BUS"}}, "num_stops": 22, "trip_short_name": "COTTGROV"}, "travel_mode": "TRANSIT"}, {"distance": {"text": "0.5 mi", "value": 738}, "duration": {"text": "10 mins", "value": 587}, "end_location": {"lat": 29.8019199, "lng": -95.45428179999999}, "html_instructions": "Walk to 4400 W 18th St, Houston, TX 77092, USA", "polyline": {"points": "mo{tDdkseQKPKKKAK?I@IB?Q?aA?M?QAO?OM?M@M?mED@[Ae@?g@ASDKP]d@}@Xq@B]QOIIOMEKKAQUGGEIAE?C?A@C@EBEV_@KMNWHMJSRa@Ts@R}@Jy@Hy@?G@Q@a@"}, "start_location": {"lat": 29.8010254, "lng": -95.4592253}, "steps": [{"distance": {"text": "49 ft", "value": 15}, "duration": {"text": "1 min", "value": 11}, "end_location": {"lat": 29.8011512, "lng": -95.4592626}, "html_instructions": "Head <b>northwest</b>", "polyline": {"points": "mo{tDdkseQKPKK"}, "start_location": {"lat": 29.8010254, "lng": -95.4592253}, "travel_mode": "WALKING"}, {"distance": {"text": "102 ft", "value": 31}, "duration": {"text": "1 min", "value": 23}, "end_location": {"lat": 29.8013705, "lng": -95.4592806}, "html_instructions": "Turn <b>right</b> toward <b>W 18th St</b>", "maneuver": "turn-right", "polyline": {"points": "ep{tDjkseQKAK?I@IB"}, "start_location": {"lat": 29.8011512, "lng": -95.4592626}, "travel_mode": "WALKING"}, {"distance": {"text": "240 ft", "value": 73}, "duration": {"text": "1 min", "value": 61}, "end_location": {"lat": 29.8014508, "lng": -95.4585436}, "html_instructions": "Turn <b>right</b> onto <b>W 18th St</b>", "maneuver": "turn-right", "polyline": {"points": "qq{tDnkseQ?Q?aA?M?QAO?OM?"}, "start_location": {"lat": 29.8013705, "lng": -95.4592806}, "travel_mode": "WALKING"}, {"distance": {"text": "440 ft", "value": 134}, "duration": {"text": "2 mins", "value": 127}, "end_location": {"lat": 29.80261729999999, "lng": -95.45858140000001}, "html_instructions": "Turn <b>left</b> onto <b>Mangum Rd</b>", "maneuver": "turn-left", "polyline": {"points": "ar{tDzfseQM@M?mED"}, "start_location": {"lat": 29.8014508, "lng": -95.4585436}, "travel_mode": "WALKING"}, {"distance": {"text": "0.1 mi", "value": 168}, "duration": {"text": "2 mins", "value": 133}, "end_location": {"lat": 29.8021725, "lng": -95.45703209999999}, "html_instructions": "Turn <b>right</b>", "maneuver": "turn-right", "polyline": {"points": "ky{tDbgseQ@[Ae@?g@ASDKP]d@}@Xq@B]"}, "start_location": {"lat": 29.80261729999999, "lng": -95.45858140000001}, "travel_mode": "WALKING"}, {"distance": {"text": "348 ft", "value": 106}, "duration": {"text": "1 min", "value": 80}, "end_location": {"lat": 29.8024852, "lng": -95.4562641}, "html_instructions": "Turn <b>left</b><div style=\"font-size:0.9em\">Partial restricted usage road</div>", "maneuver": "turn-left", "polyline": {"points": "qv{tDl}reQQOIIOMEKKAQUGGEIAE?C?A@C@EBEV_@"}, "start_location": {"lat": 29.8021725, "lng": -95.45703209999999}, "travel_mode": "WALKING"}, {"distance": {"text": "33 ft", "value": 10}, "duration": {"text": "1 min", "value": 8}, "end_location": {"lat": 29.8025494, "lng": -95.456192}, "html_instructions": "Turn <b>left</b><div style=\"font-size:0.9em\">Restricted usage road</div>", "maneuver": "turn-left", "polyline": {"points": "qx{tDrxreQKM"}, "start_location": {"lat": 29.8024852, "lng": -95.4562641}, "travel_mode": "WALKING"}, {"distance": {"text": "0.1 mi", "value": 201}, "duration": {"text": "2 mins", "value": 144}, "end_location": {"lat": 29.8019199, "lng": -95.45428179999999}, "html_instructions": "Turn <b>right</b><div style=\"font-size:0.9em\">Restricted usage road</div><div style=\"font-size:0.9em\">Destination will be on the left</div>", "maneuver": "turn-right", "polyline": {"points": "}x{tDdxreQNWHMJSRa@Ts@R}@Jy@Hy@?G@Q@a@"}, "start_location": {"lat": 29.8025494, "lng": -95.456192}, "travel_mode": "WALKING"}], "travel_mode": "WALKING"}], "traffic_speed_entry": [], "via_waypoint": []}], "overview_polyline": {"points": "yaftDx}|eQwAJe@DFwADk@XwCPoA\\aBj@oBVw@Z}@l@sAbAgBhCsDLMJKVn@L\\Tf@GB[{@s@_BcCaG}CuHkAsCcBiE_GqNmAyCmBqE}@uB]eAiAqCwCaH_BaEoCkGuCeH{DqJwDmJuBeFsG}OeEeKcC_GcBgEiCiGYa@cAgCoB}E?}ECcG@IM_@Sg@GcC\\G\\UBuAyA@yB?}E@gDaIwDkJgGgOm@qAQi@EUGUg@wA]u@_CyFSWiAmCqC{GgI_SkDwIkJcUoIwSuDcJKWCQEW_A}BWk@c@aAGCGI]{@CEHAu@iBkByEoBwEmBwEg@mAsAeDuF}Mc@cAQm@Go@Am@AiF?wEIkPEqQIsOGoTAg@G]AsA?gBGiNK_ZN?G?Ao@l@??E?Ls@?cH@w@@sJFoH@qD@gHDiCBsA?gC@oH?eNDgUHqCB}CA}@O{@E}A@wRDoLBcNB_D@oCB{@?OGMEYQa@a@Ue@mAuDc@gAS[]a@WQ_@Qk@Oo@@iA?WIgB?OEmAEkCAkB?OJ[VKNGXQ@cBPe@DeDZYEc@AAASC{@GsEx@cAX_BBgCBaBJw@DgB@sC@}B@oIDuFDe@@AO@D_@@?QG?N??X?|@?xBBnDB|IKpD[`QClAA`@mC@q@Di@HeAXe@Ni@Jo@Lw@HeABwDBmIFO@OD_B@cAAgA@cB?wFBqCFqCB_@?KEAAWCkAKw@OcAOGA_D[_A?MBKHEZAl@HVLHhADtCL@lJH~XN|q@At@CZEPQ\\gDrGuDtG_@h@YX_@VyAXq@J]JQNAPHP]JSVWXILUl@_A|Ag@r@wB`D{@fBs@nB]hAMDKZ}@hCi@nA{@`B_A|AeBnC}EjHuCnEiA~AUTG@sAjBcA|AAHCPGHo@bAaEhGKB]d@aClD[b@oBrCe@x@CNm@~@kDvFgAbBaHjKqBzCkCvDg@z@a@L{@vA]b@Sd@w@lAYh@OQKPKKKAU@IB?Q?oAAa@?OM?[@mED@[AmAB_@v@{AXq@B][YUYKAQUMQAIFQV_@KMXe@^u@Ts@^wBHaABs@"}, "summary": "", "warnings": ["Walking directions are in beta. Use caution \u2013 This route may be missing sidewalks or pedestrian paths."], "waypoint_order": []}, {"bounds": {"northeast": {"lat": 29.8038169, "lng": -95.45427269999999}, "southwest": {"lat": 29.6893547, "lng": -95.5083801}}, "copyrights": "Map data \u00a92022", "legs": [{"arrival_time": {"text": "4:51pm", "time_zone": "America/Chicago", "value": 1642027884}, "departure_time": {"text": "3:21pm", "time_zone": "America/Chicago", "value": 1642022467}, "distance": {"text": "12.5 mi", "value": 20132}, "duration": {"text": "1 hour 30 mins", "value": 5417}, "end_address": "4400 W 18th St, Houston, TX 77092, USA", "end_location": {"lat": 29.8019199, "lng": -95.45428179999999}, "start_address": "7055 Beechnut St #6003, Houston, TX 77074, USA", "start_location": {"lat": 29.6913285, "lng": -95.50828709999999}, "steps": [{"distance": {"text": "0.5 mi", "value": 743}, "duration": {"text": "10 mins", "value": 576}, "end_location": {"lat": 29.6893547, "lng": -95.5035385}, "html_instructions": "Walk to Bissonnet St @ Beechnut St", "polyline": {"points": "yaftDx}|eQWB]B[BE?e@DFwABa@@INmBHi@Fc@Hk@FYHa@BOFUVaARm@HULa@DODIHSDOPc@Rc@DG@CTc@HKBE^q@`@o@@?j@w@x@kAHIBCJKVn@DHFRFLLX"}, "start_location": {"lat": 29.6913285, "lng": -95.50828709999999}, "steps": [{"distance": {"text": "246 ft", "value": 75}, "duration": {"text": "1 min", "value": 57}, "end_location": {"lat": 29.6919566, "lng": -95.5083801}, "html_instructions": "Head <b>north</b> toward <b>Beechnut St</b><div style=\"font-size:0.9em\">Restricted usage road</div>", "polyline": {"points": "yaftDx}|eQWB]B[BE?e@D"}, "start_location": {"lat": 29.6913285, "lng": -95.50828709999999}, "travel_mode": "WALKING"}, {"distance": {"text": "0.4 mi", "value": 599}, "duration": {"text": "8 mins", "value": 456}, "end_location": {"lat": 29.6896546, "lng": -95.50294980000001}, "html_instructions": "Turn <b>right</b> onto <b>Beechnut St</b>", "maneuver": "turn-right", "polyline": {"points": "weftDj~|eQFwABa@@INmBHi@Fc@Hk@FYHa@BOFUVaARm@HULa@DODIHSDOPc@Rc@DG@CTc@HKBE^q@`@o@@?j@w@x@kAHIBCJK"}, "start_location": {"lat": 29.6919566, "lng": -95.5083801}, "travel_mode": "WALKING"}, {"distance": {"text": "226 ft", "value": 69}, "duration": {"text": "1 min", "value": 63}, "end_location": {"lat": 29.6893547, "lng": -95.5035385}, "html_instructions": "Turn <b>right</b> onto <b>Bissonnet St</b>", "maneuver": "turn-right", "polyline": {"points": "iwetDl|{eQVn@DHFRFLLX"}, "start_location": {"lat": 29.6896546, "lng": -95.50294980000001}, "travel_mode": "WALKING"}], "travel_mode": "WALKING"}, {"distance": {"text": "0.7 mi", "value": 1161}, "duration": {"text": "3 mins", "value": 201}, "end_location": {"lat": 29.694603, "lng": -95.493262}, "html_instructions": "Bus towards Wheeler TC", "polyline": {"points": "muetDb`|eQGBOc@KWEI[u@OYAEc@aAACq@eBk@uAQa@e@mAYq@O_@GM[w@M[IQOa@Qa@Sg@Ug@O]Sg@O[o@gBQ]Uk@q@aBQ_@Sg@gAoCKUk@wA?AMWe@mAYq@KYiAmCIOMY[o@CGSk@IQHE"}, "start_location": {"lat": 29.689351, "lng": -95.503536}, "transit_details": {"arrival_stop": {"location": {"lat": 29.694603, "lng": -95.493262}, "name": "Bissonnet St @ Hillcroft Ave"}, "arrival_time": {"text": "3:34pm", "time_zone": "America/Chicago", "value": 1642023244}, "departure_stop": {"location": {"lat": 29.689351, "lng": -95.503536}, "name": "Bissonnet St @ Beechnut St"}, "departure_time": {"text": "3:30pm", "time_zone": "America/Chicago", "value": 1642023043}, "headsign": "Wheeler TC", "line": {"agencies": [{"name": "Metropolitan Transit Authority of Harris County", "phone": "1 (713) 635-4000", "url": "http://www.ridemetro.org/"}], "color": "#004080", "name": "Bissonnet", "short_name": "65", "text_color": "#ffffff", "url": "https://www.ridemetro.org/MetroPDFs/Schedules/BusSchedules/n065-Bissonnet.pdf", "vehicle": {"icon": "//maps.gstatic.com/mapfiles/transit/iw2/6/bus2.png", "name": "Bus", "type": "BUS"}}, "num_stops": 4, "trip_short_name": "BISSONNET"}, "travel_mode": "TRANSIT"}, {"distance": {"text": "151 ft", "value": 46}, "duration": {"text": "1 min", "value": 52}, "end_location": {"lat": 29.6947341, "lng": -95.4929021}, "html_instructions": "Walk to Hillcroft Ave @ Bissonnet St", "polyline": {"points": "kvftD|_zeQIWGOGQEOH?"}, "start_location": {"lat": 29.6946161, "lng": -95.4932705}, "steps": [{"distance": {"text": "125 ft", "value": 38}, "duration": {"text": "1 min", "value": 37}, "end_location": {"lat": 29.6947819, "lng": -95.4928998}, "html_instructions": "Head <b>northeast</b> on <b>Bissonnet St</b> toward <b>Hillcroft Ave</b>", "polyline": {"points": "kvftD|_zeQIWGOGQEO"}, "start_location": {"lat": 29.6946161, "lng": -95.4932705}, "travel_mode": "WALKING"}, {"distance": {"text": "26 ft", "value": 8}, "duration": {"text": "1 min", "value": 15}, "end_location": {"lat": 29.6947341, "lng": -95.4929021}, "html_instructions": "Turn <b>right</b> onto <b>Hillcroft Ave</b>", "maneuver": "turn-right", "polyline": {"points": "kwftDr}yeQH?"}, "start_location": {"lat": 29.6947819, "lng": -95.4928998}, "travel_mode": "WALKING"}], "travel_mode": "WALKING"}, {"distance": {"text": "8.8 mi", "value": 14158}, "duration": {"text": "45 mins", "value": 2716}, "end_location": {"lat": 29.783077, "lng": -95.455467}, "html_instructions": "Bus towards Northwest TC", "polyline": {"points": "awftDl}yeQALK?U@u@AY?Q?_AAi@CUAo@CK?UAM?y@CWAa@?e@A}@@aB?U?mA@Q@I?_A?m@?Y@uC?O?oC@Q?cC@K?K?I?qA@kB?oCBO?iA@]?O?q@@qA@[@m@@U?_@@{AAsA@oBBU@O?UAm@A_A@eA?e@@M?M?c@@u@@C?G?MAi@AM@yA@q@@C?]BoALYFSDu@PeA^EBs@\\_@ROJSLIFQLIFa@\\UTmAxAs@x@]\\KLQR?@ONCD_@h@WZe@l@KNSTUXQPMNMPWXOTIJ_@b@iArAKNQRKLg@l@_@\\YVWVc@j@IJIJQRMPKJABQRABA?A@GHEFCBWZ[\\SV[^q@x@MN_@X[PMHULSJYJUFkAVMDUDQDs@FY@S@uAD_C?mABaA?mA?mBB_A?S?A?g@?cDBaB?M?Y@{A?c@?gA@a@@c@?qA?u@?i@?o@@m@?wA@mA@o@?A?s@@w@?_B@kBB_A?q@@_@?eA@i@?]?m@@[?a@?s@@aA@aAAeABS?y@@i@Ag@AG?QAu@CKAKA_@GMCSEKCk@IKCUAIAKAKAI?a@EMAGCC?KAO?MAa@?S?{@@C?i@@cA?_@@m@?a@?eB?}@?I?WAgA@Y@aAA{ABcA?I?sC@]?kA@_@?E?C?K?yABo@?MAkCBw@@g@?a@?YA]?M?i@@]?O@q@?I?m@?gA@{BBiE?iBB{A@eE?}ADG?yABW?WA_@@a@?sA?kA?gBAk@@sA@]@y@@o@?k@?GIAAC?MEGAEAMEICSIKEGEQK[Oa@m@CC[e@IMS[?AEIEIKWWy@WsAe@aCUoAES_@qBGYKk@o@mDQ}@GUCOY{AScAI]y@qE]gBY{A]kBUgAG_@i@uCk@{CKg@ACGe@G[Gi@?CGo@AOASc@iFC_@WuCG}@CUC[AWW{CEc@Ku@I[GSISIQOYQW[c@iAmAwAiBc@i@{@{@QSm@o@gAsACE_@c@SYyAaBi@k@IKs@w@s@y@KM]a@WYq@_AKQGKAAO[O]Qs@CEEYCSC_@C_@Aa@?S?Q?y@Ay@?uA?ICcEAcD?]AaFC}DCY@Y@O?S@G?G@IB[Fc@F[Nk@JYLa@FQNc@Ja@He@Ho@B]B_@@S@Y?Y?g@?Y?aB@W@SFw@F_@?AH_@Tu@Tg@b@w@LW@?Pc@FQJUFUHWBMFYBS@E@G@Q?IBS?Q@M?OAq@?i@?]AoAAwB?AAY?KAEA]?CAICOE[Kc@Ma@CGGOGQEGIOEISYUYCCYYa@g@QS?AOQIMMYA?Wk@I[IYIc@?CEWCUCQCe@KyAI{@CQEQEOKYUs@Ue@}AiDUi@KW_@y@QLSBY@c@?u@@m@@eCB}DDsCAK?U?}B@_A@yA@wEBeBBU?e@AW?cDBI?K?k@?U@?o@?WAO?qAA_@?UY@oA?]?A?A?G?G?SAEAWAO?Y?c@?c@@gA@a@?kB@c@@aB@m@@}@?kB?c@??RiA?eBDcB?kA@sA@A??@gA?gFDkHBQ?i@Sw@CSKISGOB_B?yA?i@BeCX?V?\\A^?\\?@?b@?BXQ^?f@?j@?d@W?"}, "start_location": {"lat": 29.694733, "lng": -95.492874}, "transit_details": {"arrival_stop": {"location": {"lat": 29.783077, "lng": -95.455467}, "name": "Northwest Transit Center - South Platform"}, "arrival_time": {"text": "4:24pm", "time_zone": "America/Chicago", "value": 1642026240}, "departure_stop": {"location": {"lat": 29.694733, "lng": -95.492874}, "name": "Hillcroft Ave @ Bissonnet St"}, "departure_time": {"text": "3:38pm", "time_zone": "America/Chicago", "value": 1642023524}, "headsign": "Northwest TC", "line": {"agencies": [{"name": "Metropolitan Transit Authority of Harris County", "phone": "1 (713) 635-4000", "url": "http://www.ridemetro.org/"}], "color": "#004080", "name": "Hillcroft", "short_name": "47", "text_color": "#ffffff", "url": "https://www.ridemetro.org/MetroPDFs/Schedules/BusSchedules/n047-Hillcroft.pdf", "vehicle": {"icon": "//maps.gstatic.com/mapfiles/transit/iw2/6/bus2.png", "name": "Bus", "type": "BUS"}}, "num_stops": 43, "trip_short_name": "HILLCROFT"}, "travel_mode": "TRANSIT"}, {"distance": {"text": "0.2 mi", "value": 263}, "duration": {"text": "3 mins", "value": 192}, "end_location": {"lat": 29.7837801, "lng": -95.4554653}, "html_instructions": "Walk to Northwest Transit Center - North Platform", "polyline": {"points": "_}wtDtqreQDUBODIK@]MMMECOKICKAK@E?U?E?_@@m@?AxAAX?f@"}, "start_location": {"lat": 29.7827161, "lng": -95.4551537}, "steps": [{"distance": {"text": "121 ft", "value": 37}, "duration": {"text": "1 min", "value": 26}, "end_location": {"lat": 29.78264219999999, "lng": -95.4549134}, "html_instructions": "Head <b>east</b>", "polyline": {"points": "_}wtDtqreQDUBODI"}, "start_location": {"lat": 29.7827161, "lng": -95.4551537}, "travel_mode": "WALKING"}, {"distance": {"text": "482 ft", "value": 147}, "duration": {"text": "2 mins", "value": 109}, "end_location": {"lat": 29.7837613, "lng": -95.45468609999999}, "html_instructions": "Sharp <b>left</b> toward <b>Old Katy Rd</b>", "maneuver": "turn-sharp-left", "polyline": {"points": "o|wtDdpreQK@]MMMECOKICKAK@E?U?E?_@@m@?"}, "start_location": {"lat": 29.78264219999999, "lng": -95.4549134}, "travel_mode": "WALKING"}, {"distance": {"text": "259 ft", "value": 79}, "duration": {"text": "1 min", "value": 57}, "end_location": {"lat": 29.7837801, "lng": -95.4554653}, "html_instructions": "Turn <b>left</b> onto <b>Old Katy Rd</b>", "maneuver": "turn-left", "polyline": {"points": "ocxtDxnreQAxAAX?f@"}, "start_location": {"lat": 29.7837613, "lng": -95.45468609999999}, "travel_mode": "WALKING"}], "travel_mode": "WALKING"}, {"distance": {"text": "2.0 mi", "value": 3143}, "duration": {"text": "9 mins", "value": 523}, "end_location": {"lat": 29.803817, "lng": -95.458625}, "html_instructions": "Bus towards Dacoma Shuttle", "polyline": {"points": "w~wtDvwreQRwAF@D?DABA@CDIDSB[@g@BUBM@AN]FGJY@K?MCUCKCCA?OGQAGAE?E@GDQJOPMD[BY@W?aAAY@c@?AVAzAAb@?f@?L?ZAn@?`B?R?f@sBNO@Q@Y?W?K@wA@y@@K?u@?wA@U?O?}@@I?Y?_@?_@@oA@oD@eABM?A?a@?c@?qA@W?w@?cA@s@?c@@_@?uA@a@?OAY?q@@c@?_@?[@cA@a@?U?G?C?E?]@S?S@]@c@?}@@M?w@@]?mA@_B@W?E?e@Aa@EQEWG[OUM[QIG_@Ui@i@e@_@OQQQOMCCc@a@MR{A|BU\\W`@sBtCg@z@a@L{@vA]b@Sd@w@lAYh@OVk@r@Yj@EsB?]@aAAU?a@[@uEDaA@gAD_A@e@??I"}, "start_location": {"lat": 29.7830001, "lng": -95.4561157}, "transit_details": {"arrival_stop": {"location": {"lat": 29.803817, "lng": -95.458625}, "name": "Mangum Rd @ W 20th St"}, "arrival_time": {"text": "4:43pm", "time_zone": "America/Chicago", "value": 1642027423}, "departure_stop": {"location": {"lat": 29.7830001, "lng": -95.4561157}, "name": "Northwest Transit Center - North Platform"}, "departure_time": {"text": "4:35pm", "time_zone": "America/Chicago", "value": 1642026900}, "headsign": "Dacoma Shuttle", "line": {"agencies": [{"name": "Metropolitan Transit Authority of Harris County", "phone": "1 (713) 635-4000", "url": "http://www.ridemetro.org/"}], "color": "#004080", "name": "Dacoma", "short_name": "89", "text_color": "#ffffff", "url": "https://www.ridemetro.org/MetroPDFs/Schedules/BusSchedules/n089-Dacoma.pdf", "vehicle": {"icon": "//maps.gstatic.com/mapfiles/transit/iw2/6/bus2.png", "name": "Bus", "type": "BUS"}}, "num_stops": 9, "trip_short_name": "DACOMA"}, "travel_mode": "TRANSIT"}, {"distance": {"text": "0.4 mi", "value": 618}, "duration": {"text": "8 mins", "value": 461}, "end_location": {"lat": 29.8019199, "lng": -95.45428179999999}, "html_instructions": "Walk to 4400 W 18th St, Houston, TX 77092, USA", "polyline": {"points": "{`|tDlgseQd@A~@AdACbAA@[Ae@?g@ASDKP]d@}@Xq@B]QOIIOMEKKAQUGGEIAE?C?A@C@EBEV_@KMNWHMJSRa@Ts@R}@Jy@Hy@?G@Q@a@"}, "start_location": {"lat": 29.8038169, "lng": -95.458628}, "steps": [{"distance": {"text": "436 ft", "value": 133}, "duration": {"text": "2 mins", "value": 96}, "end_location": {"lat": 29.80261729999999, "lng": -95.45858140000001}, "html_instructions": "Head <b>south</b> on <b>Mangum Rd</b>", "polyline": {"points": "{`|tDlgseQd@A~@AdACbAA"}, "start_location": {"lat": 29.8038169, "lng": -95.458628}, "travel_mode": "WALKING"}, {"distance": {"text": "0.1 mi", "value": 168}, "duration": {"text": "2 mins", "value": 133}, "end_location": {"lat": 29.8021725, "lng": -95.45703209999999}, "html_instructions": "Turn <b>left</b>", "maneuver": "turn-left", "polyline": {"points": "ky{tDbgseQ@[Ae@?g@ASDKP]d@}@Xq@B]"}, "start_location": {"lat": 29.80261729999999, "lng": -95.45858140000001}, "travel_mode": "WALKING"}, {"distance": {"text": "348 ft", "value": 106}, "duration": {"text": "1 min", "value": 80}, "end_location": {"lat": 29.8024852, "lng": -95.4562641}, "html_instructions": "Turn <b>left</b><div style=\"font-size:0.9em\">Partial restricted usage road</div>", "maneuver": "turn-left", "polyline": {"points": "qv{tDl}reQQOIIOMEKKAQUGGEIAE?C?A@C@EBEV_@"}, "start_location": {"lat": 29.8021725, "lng": -95.45703209999999}, "travel_mode": "WALKING"}, {"distance": {"text": "33 ft", "value": 10}, "duration": {"text": "1 min", "value": 8}, "end_location": {"lat": 29.8025494, "lng": -95.456192}, "html_instructions": "Turn <b>left</b><div style=\"font-size:0.9em\">Restricted usage road</div>", "maneuver": "turn-left", "polyline": {"points": "qx{tDrxreQKM"}, "start_location": {"lat": 29.8024852, "lng": -95.4562641}, "travel_mode": "WALKING"}, {"distance": {"text": "0.1 mi", "value": 201}, "duration": {"text": "2 mins", "value": 144}, "end_location": {"lat": 29.8019199, "lng": -95.45428179999999}, "html_instructions": "Turn <b>right</b><div style=\"font-size:0.9em\">Restricted usage road</div><div style=\"font-size:0.9em\">Destination will be on the left</div>", "maneuver": "turn-right", "polyline": {"points": "}x{tDdxreQNWHMJSRa@Ts@R}@Jy@Hy@?G@Q@a@"}, "start_location": {"lat": 29.8025494, "lng": -95.456192}, "travel_mode": "WALKING"}], "travel_mode": "WALKING"}], "traffic_speed_entry": [], "via_waypoint": []}], "overview_polyline": {"points": "yaftDx}|eQwAJe@DFwADk@XwCPoA\\aBj@oBVw@Z}@l@sAbAgBhCsDLMJKVn@L\\Tf@GB[{@s@_BcCaG}CuHkAsCcBiE_GqNmAyCmBqE}@uBHEC@Qg@Ma@H??EALK?kA?uCEgBGaCE{E?gKDiLDuIDqDB_CDoD?eCDe@AmB?gC@eBBw@CgBBu@@mBPm@Lu@PeA^y@`@o@^y@j@a@\\cBnBoBxBs@`A}AnBuClDsBdCyBzBwBlCkAtAoB`C{@j@c@Vm@VaB^c@JeALm@BuEDkIFkLDiFBuE?aLFkNH}JFsCA_BImAUwAQiBQsAAmDB}J@{A?_DBgGByID_B@{@AsB@yB@cEDsHBaH@eBDqBBw@?iHAwEF{A?IK_@Iw@YYQ[Oa@m@_@i@]i@Wm@o@mC{@qEy@kE_EaTuEqVYoBKwAiBcUQyAQo@Se@a@q@eBqB{BsCmAoAuBcCqCeD{CiDi@o@iAyAe@{@a@qAI_@MuBGaRA_GGwEDeALqAVgAX{@Vu@TgARaC@uB@yBHkAFa@^uAhAwBl@aBXsADi@DcACiEC_DEq@Ik@YeAYq@OYi@s@qAyAg@{@Yk@Su@SuA]mEIc@Qi@k@yAsBsEk@qAQLSB}@@cBBcIH_DAmHD}HF{@AqEBaA@?gACwCiC@mBEqMJiD?c@??RoDDoD@}CBsOHQ?i@Sw@CSKQc@FiJnBA^?b@?BXQ^?f@?pAW?fA_AHe@DIK@]MMMUOUEm@@mA@CrB?f@zC`CRwAF@JADEJ]DcAFc@P_@Ra@@YGa@ECOGQAMAMFa@\\MD[Bq@@{A?c@?AVC~B?t@A`E?f@sBNa@BuCBaIDoLHcKDwH@sMLkEBgAGi@MwAw@_@Ui@i@u@q@iAeAwCpEsBtCg@z@a@L{@vA]b@Sd@qAvB{@jAYj@EsB@_BAw@{JNeB@?GnFIA}BVi@~@oBB]QOYWEKKAY]GU^o@KMNWTa@Ra@Ts@R}@TsB@Y@a@"}, "summary": "", "warnings": ["Walking directions are in beta. Use caution \u2013 This route may be missing sidewalks or pedestrian paths."], "waypoint_order": []}], "status": "OK"}