{"geocoded_waypoints": [{"geocoder_status": "OK", "place_id": "ChIJa0Ku0PfbQIYR5AXXU6dCp1U", "types": ["establishment", "point_of_interest", "school", "secondary_school"]}, {"geocoder_status": "OK", "place_id": "ChIJ9_tphxzHQIYRIMyPy_d3VZU", "types": ["establishment", "point_of_interest"]}], "routes": [{"bounds": {"northeast": {"lat": 29.803205, "lng": -95.4519566}, "southwest": {"lat": 29.7461492, "lng": -95.62902129999999}}, "copyrights": "Map data \u00a92022", "legs": [{"arrival_time": {"text": "4:34pm", "time_zone": "America/Chicago", "value": 1642026867}, "departure_time": {"text": "3:08pm", "time_zone": "America/Chicago", "value": 1642021703}, "distance": {"text": "17.7 mi", "value": 28475}, "duration": {"text": "1 hour 26 mins", "value": 5164}, "end_address": "4400 W 18th St, Houston, TX 77092, USA", "end_location": {"lat": 29.8019199, "lng": -95.45428179999999}, "start_address": "13733 Brimhurst Dr, Houston, TX 77077, USA", "start_location": {"lat": 29.760472, "lng": -95.629015}, "steps": [{"distance": {"text": "0.3 mi", "value": 504}, "duration": {"text": "7 mins", "value": 391}, "end_location": {"lat": 29.7611334, "lng": -95.6252234}, "html_instructions": "Walk to Eldridge Pkwy @ Brimhurst Dr", "polyline": {"points": "}qstDjptfQG?cA?CACACG?w@?k@G??O?GwBABOLu@NoADk@Da@Bo@Dw@Aw@AwD?O?O@OH?RA"}, "start_location": {"lat": 29.760472, "lng": -95.629015}, "steps": [{"distance": {"text": "377 ft", "value": 115}, "duration": {"text": "1 min", "value": 88}, "end_location": {"lat": 29.7609516, "lng": -95.628343}, "html_instructions": "Head <b>north</b> toward <b>Park Bayou Dr</b>", "polyline": {"points": "}qstDjptfQG?cA?CACACG?w@?k@G??O?G"}, "start_location": {"lat": 29.760472, "lng": -95.629015}, "travel_mode": "WALKING"}, {"distance": {"text": "240 ft", "value": 73}, "duration": {"text": "1 min", "value": 53}, "end_location": {"lat": 29.7615285, "lng": -95.6282462}, "html_instructions": "Turn <b>left</b> onto <b>Park Bayou Dr</b>", "maneuver": "turn-left", "polyline": {"points": "}tstDbltfQwBABO"}, "start_location": {"lat": 29.7609516, "lng": -95.628343}, "travel_mode": "WALKING"}, {"distance": {"text": "0.2 mi", "value": 294}, "duration": {"text": "4 mins", "value": 224}, "end_location": {"lat": 29.761284, "lng": -95.6252301}, "html_instructions": "Turn <b>right</b> onto <b>Brimhurst Dr</b>", "maneuver": "turn-right", "polyline": {"points": "qxstDpktfQLu@NoADk@Da@Bo@Dw@Aw@AwD?O?O@O"}, "start_location": {"lat": 29.7615285, "lng": -95.6282462}, "travel_mode": "WALKING"}, {"distance": {"text": "72 ft", "value": 22}, "duration": {"text": "1 min", "value": 26}, "end_location": {"lat": 29.7611334, "lng": -95.6252234}, "html_instructions": "Turn <b>right</b> onto <b>Eldridge Pkwy S</b>", "maneuver": "turn-right", "polyline": {"points": "_wstDtxsfQH?RA"}, "start_location": {"lat": 29.761284, "lng": -95.6252301}, "travel_mode": "WALKING"}], "travel_mode": "WALKING"}, {"distance": {"text": "5.2 mi", "value": 8389}, "duration": {"text": "18 mins", "value": 1083}, "end_location": {"lat": 29.747849, "lng": -95.572446}, "html_instructions": "Bus towards Wheeler TC", "polyline": {"points": "avstDnxsfQ?JS@S?U?A?m@?aG?kABmA?M?G?UA?_B?sA?uA?i@AcD?g@?QBqE?[\\@NAT?XCHATE^IVMNENKNKPMHIHIFEBCHKHKT[JSJYFMHWFS@IFWPm@LWRa@NQJMJKHIFEVSTKXMDAJCl@K`@@n@AfAAdA@`@?V?~@?fAAbD@|B?\\@VA~@?d@Cf@C^CBAj@IpBSXCj@CH?|@AR?Z?dACh@IhB?^@jARjBj@l@NP@r@H\\@h@Bl@CZCHAFAf@Gv@YDAPGXIVIx@QPENAJAJAN?hA@`CBd@ARBX?XILMRQvAvARTRPNFJDRDXHLiAFe@JkA?C@YDQ?W@O?C?g@?C?e@?K?YCa@AkBCcDAkD?]IiJ?[?MA_A?UAg@?CCmC?S?SA{A?U@WBU@IDM\\{@JYBM@G@C@U?C?I?G?]?O?IAq@AcB?U?OA[AgB?WAm@?EBQBM?C?o@Aq@?a@?]SAU?i@?k@AC?_BIo@?gCDQ?iABU@cB@i@?_CBeBAq@?Y?sA?C?_B@qDBuABe@@E?cAA@aC@gC@wA?w@DaH?]BwBB{@@SBi@H_AHy@pA}KBWReBDg@Fg@PiADWDc@VsBLoARgBJs@Lw@H[P{@^qA\\cA@Eb@kAl@mAb@}@`@u@LQ|CkExC{DBG|ByCr@eA`@m@LQNYf@y@Xo@Tk@^}@Nc@f@{AJYH[@?Lk@BGR_A@IN_AHs@F]@OFm@BUDa@F}@D}@BeA@qA?[Am@As@EyAAOKkAEm@AKM_AAOAEQgAEUy@mEWwAQuACYMsAKeBCwBCqAAa@@_B?kDAyCA_AAiC?o@A_A?m@F?"}, "start_location": {"lat": 29.761135, "lng": -95.62520099999999}, "transit_details": {"arrival_stop": {"location": {"lat": 29.747849, "lng": -95.572446}, "name": "Briar Forest Dr @ Wilcrest Dr"}, "arrival_time": {"text": "3:32pm", "time_zone": "America/Chicago", "value": 1642023177}, "departure_stop": {"location": {"lat": 29.761135, "lng": -95.62520099999999}, "name": "Eldridge Pkwy @ Brimhurst Dr"}, "departure_time": {"text": "3:14pm", "time_zone": "America/Chicago", "value": 1642022094}, "headsign": "Wheeler TC", "line": {"agencies": [{"name": "Metropolitan Transit Authority of Harris County", "phone": "1 (713) 635-4000", "url": "http://www.ridemetro.org/"}], "color": "#004080", "name": "Harwin Express", "short_name": "153", "text_color": "#ffffff", "url": "https://www.ridemetro.org/MetroPDFs/Schedules/BusSchedules/n153-Harwin-Express.pdf", "vehicle": {"icon": "//maps.gstatic.com/mapfiles/transit/iw2/6/bus2.png", "name": "Bus", "type": "BUS"}}, "num_stops": 27, "trip_short_name": "HARWINEXP"}, "travel_mode": "TRANSIT"}, {"distance": {"text": "253 ft", "value": 77}, "duration": {"text": "1 min", "value": 76}, "end_location": {"lat": 29.7475815, "lng": -95.5719512}, "html_instructions": "Walk to Wilcrest Dr @ Briar Forest Dr", "polyline": {"points": "ccqtDxnifQ?q@?O@O?Ot@A"}, "start_location": {"lat": 29.7478567, "lng": -95.5724462}, "steps": [{"distance": {"text": "141 ft", "value": 43}, "duration": {"text": "1 min", "value": 41}, "end_location": {"lat": 29.7478506, "lng": -95.5719582}, "html_instructions": "Head <b>east</b> on <b>Briar Forest Dr</b> toward <b>Wilcrest Dr</b>", "polyline": {"points": "ccqtDxnifQ?q@?O@O?O"}, "start_location": {"lat": 29.7478567, "lng": -95.5724462}, "travel_mode": "WALKING"}, {"distance": {"text": "112 ft", "value": 34}, "duration": {"text": "1 min", "value": 35}, "end_location": {"lat": 29.7475815, "lng": -95.5719512}, "html_instructions": "Turn <b>right</b> onto <b>Wilcrest Dr</b>", "maneuver": "turn-right", "polyline": {"points": "acqtDvkifQt@A"}, "start_location": {"lat": 29.7478506, "lng": -95.5719582}, "travel_mode": "WALKING"}], "travel_mode": "WALKING"}, {"distance": {"text": "5.4 mi", "value": 8657}, "duration": {"text": "18 mins", "value": 1099}, "end_location": {"lat": 29.782613, "lng": -95.543797}, "html_instructions": "Bus towards Downtown TC", "polyline": {"points": "kaqtDpkifQ?J}@@[?uA@s@?mA?uA?K?U?aCJQ@a@DkAPQDk@Nc@LSFIBYJk@Vq@XWLeBz@YL]Pi@XIDUJu@^e@Vi@\\c@\\GDGDOJu@x@_BnBUXa@Za@\\YNuB~@SHg@Nq@No@Ng@@m@Do@@I?kA?cB@s@?C?S@oB@Y?m@?i@?eAEMAu@GOCWGWGYMGAcAa@m@SWGo@Mc@GM?g@Gs@Ai@?a@@K?[Bk@Fi@J_@F[Hc@Hg@H]Di@FYBM@M?[@_@?[?a@AKAWACAKAIAQAMC{@Ms@O]Ia@Ic@Ia@Ea@Ee@E]Cm@A]AeC@Y?W?q@@_@@[@a@BS@a@DUD]DQDg@HWDQDOBK@]DS@SBQBM?U@Y@C?]@E?]@?sA?qA?S?q@?i@?q@?M?a@Ag@?mAAcB?K?Q?e@?_A?I?YAM?a@?s@?C?gA?W?w@A_@?iA?[?y@AWAmE?Y?C?e@A_CCiDAmA?mBAMA}CAo@C{B?wBAi@?g@?]?Y?C?KAU?A?C?K?i@Eq@?K?c@?QA_@?]@[?[@W@IBi@@[R_ABOFY@E?CDKDQJW@ANc@N]DMDGBGHO@AZi@f@o@TYr@i@JGFEXOTM^OXKTIb@Kb@GZEr@GPAhECfDCR?RANCn@KPGRIXMRK^Y\\[PUJMBGJOLWBERg@Pu@Fc@@QBg@@[?OAiB?QAO?K?[?kACsBAeBAm@Ae@AwB?Y?A?[AeA@KAA?i@?_@AkA?C?g@?uA?SAaBAkFASBk@BQ?CBW@CBWHa@Nk@J[HSFKBEHMPYTYb@c@@ARS|@s@VSb@_@PSNODILONSh@{@FQp@yAJ[aAOwAMgAGs@?}@?qA?Q?iD?sCBS?oF?oC?U?_B?iA@oCBU?gD?yABkA@yA?u@@W?mA?oA?sC@W?qD?A?c@?mADi@Ac@@A?M?m@Ac@?c@?OA]?c@Ac@?]?k@?y@?[?G?c@?e@AE?sAEu@EA?aAKkASc@GOC{@MICWCWCWCWC_@C@S"}, "start_location": {"lat": 29.7475818, "lng": -95.5719309}, "transit_details": {"arrival_stop": {"location": {"lat": 29.782613, "lng": -95.543797}, "name": "Gessner Rd @ Katy Fwy"}, "arrival_time": {"text": "3:56pm", "time_zone": "America/Chicago", "value": 1642024560}, "departure_stop": {"location": {"lat": 29.7475818, "lng": -95.5719309}, "name": "Wilcrest Dr @ Briar Forest Dr"}, "departure_time": {"text": "3:37pm", "time_zone": "America/Chicago", "value": 1642023461}, "headsign": "Downtown TC", "line": {"agencies": [{"name": "Metropolitan Transit Authority of Harris County", "phone": "1 (713) 635-4000", "url": "http://www.ridemetro.org/"}], "color": "#004080", "name": "Wilcrest Express", "short_name": "161", "text_color": "#ffffff", "url": "https://www.ridemetro.org/MetroPDFs/Schedules/BusSchedules/n161-Wilcrest-Express.pdf", "vehicle": {"icon": "//maps.gstatic.com/mapfiles/transit/iw2/6/bus2.png", "name": "Bus", "type": "BUS"}}, "num_stops": 32, "trip_short_name": "WILCRESEXP"}, "travel_mode": "TRANSIT"}, {"distance": {"text": "6.5 mi", "value": 10474}, "duration": {"text": "25 mins", "value": 1522}, "end_location": {"lat": 29.80140099999999, "lng": -95.45297}, "html_instructions": "Bus towards Kashmere TC", "polyline": {"points": "i|wtDv{cfQARSAk@ASAOAg@?[AA?}@@_@Aw@?u@AC?i@?aA?QAaADA?g@D{@Da@DO@Y@S@A?w@BM@Y@S@U@SBYBI@OBA?QBUDE@k@L_@LIBSF]FYFC?c@DSB]Ba@@s@@c@?gABw@?W?[@_@?U?S?E?o@@m@AeB@S?y@@gA@c@?c@@k@?m@@oA@E?W?s@@BeB?g@?oB@Q?qA?Y?]?eB?q@@mA@}BA]?_A?a@LoA@KDWBY@Y?wAAy@?K?o@Ac@?Q?sA?_@Ec@?AO}@ACEWY}AUmA?AESCQUiA[kBMq@EUCK[gBQgAGc@EYIe@G[G]Qw@Ia@UqAQ}@]sBSeASeACSMm@AGG[Ki@G_@Ki@G_@A?Ko@o@mDMo@_@wBMs@Ie@Qq@YsAACGU_@yAAEGUM_@Om@EUOm@EQMe@Oo@EQCOIYEQK_@COEMCMGUAICMGSEQMk@Sy@QuACOEc@Ge@C]CKE_@Eg@COE_@O{AQ}Aa@uDCUc@eEE]UqBKkAGc@MqAOwA_@sDGm@@I?K?IEoAMw@Gy@Ee@CUE]Ie@GUGUGSKUKWEKKU_@o@q@mA_@k@QWKQe@e@_@YCAWQMI[SCCQKUMGGGGWWWa@AASc@Sk@ACEQGUE]EY?EAM?GCs@?YIsBGaBAi@Cg@?_@?C?[B}B?[?mB@a@@gB@y@?WB}F?qA@qB?K?M?oA?YAq@?S?wC?aAAsF@sA?WA}D?c@?MAi@?e@COAW?i@Ay@?Y@k@?S@SES?G@]@I?[@_@?I?[@a@?]@E?m@@e@@y@?O?Y@o@@sB@g@?I@_B?s@@W?a@?Y@aA?S@i@?e@@}@@eA?g@@s@?s@?M?K?Y?U?U?GAK?GAI?E@Q?c@?K?E?A?C?A?A@C?E?Y@U?o@@uA@k@?a@?_@@[?Q?c@?O?]?e@@S?[?U?SAa@@S?y@?GAo@?_@?Q?S@_@?[@_A?[?oAAk@?O?Q?Q?[?c@?S?I@y@?G?Q?i@AuA?_A?aA?I?gAAw@?W?s@?U?U?m@?i@?o@Ag@?I?{A?O?q@?e@?eB?{A?UA]?kHAeI?EAY?kG?IAiC?s@?_BAoC?g@?qC?_CAoA?eA?M?s@AuC?Q?c@?e@?G?Q?I?oA?q@?i@?O?a@?c@?OAK?G?IAICGCECCEC?AKIEEOO`@o@FKt@gAb@q@HM`A{Ah@w@dA_Bh@y@@]EsB?]@g@?YAU?a@AyE?I?IAgA?uAAuC?o@@W?uC?W?]AuAAi@?iA?_B?AH?"}, "start_location": {"lat": 29.782613, "lng": -95.543797}, "transit_details": {"arrival_stop": {"location": {"lat": 29.80140099999999, "lng": -95.45297}, "name": "W 18th St @ Northwest Fwy"}, "arrival_time": {"text": "4:29pm", "time_zone": "America/Chicago", "value": 1642026562}, "departure_stop": {"location": {"lat": 29.782613, "lng": -95.543797}, "name": "Gessner Rd @ Katy Fwy"}, "departure_time": {"text": "4:04pm", "time_zone": "America/Chicago", "value": 1642025040}, "headsign": "Kashmere TC", "line": {"agencies": [{"name": "Metropolitan Transit Authority of Harris County", "phone": "1 (713) 635-4000", "url": "http://www.ridemetro.org/"}], "color": "#004080", "name": "Long Point / Cavalcade", "short_name": "26", "text_color": "#ffffff", "url": "https://www.ridemetro.org/MetroPDFs/Schedules/BusSchedules/n026-Long-Point-Cavalcade.pdf", "vehicle": {"icon": "//maps.gstatic.com/mapfiles/transit/iw2/6/bus2.png", "name": "Bus", "type": "BUS"}}, "num_stops": 42, "trip_short_name": "LONGPOINT"}, "travel_mode": "TRANSIT"}, {"distance": {"text": "0.2 mi", "value": 374}, "duration": {"text": "5 mins", "value": 304}, "end_location": {"lat": 29.8019199, "lng": -95.45428179999999}, "html_instructions": "Walk to 4400 W 18th St, Houston, TX 77092, USA", "polyline": {"points": "{q{tD`dreQ@]?g@@mACu@MDSFMD?j@?h@BnAAV@|@@hBYDe@F@D@R@f@?D"}, "start_location": {"lat": 29.8014155, "lng": -95.4529697}, "steps": [{"distance": {"text": "328 ft", "value": 100}, "duration": {"text": "1 min", "value": 78}, "end_location": {"lat": 29.8014885, "lng": -95.45198769999999}, "html_instructions": "Head <b>east</b> on <b>W 18th St</b>/<wbr/><b>NW Mall</b> toward <b>W Loop S Fwy</b><div style=\"font-size:0.9em\">Pass by Burger King (on the right in 279&nbsp;ft)</div>", "polyline": {"points": "{q{tD`dreQ@]?g@@mACu@MD"}, "start_location": {"lat": 29.8014155, "lng": -95.4529697}, "travel_mode": "WALKING"}, {"distance": {"text": "0.1 mi", "value": 198}, "duration": {"text": "3 mins", "value": 165}, "end_location": {"lat": 29.8016283, "lng": -95.4538499}, "html_instructions": "Cross the road", "polyline": {"points": "ir{tD|}qeQSFMD?j@?h@BnAAV@|@@hB"}, "start_location": {"lat": 29.8014885, "lng": -95.45198769999999}, "travel_mode": "WALKING"}, {"distance": {"text": "131 ft", "value": 40}, "duration": {"text": "1 min", "value": 34}, "end_location": {"lat": 29.80194599999999, "lng": -95.4539156}, "html_instructions": "Turn <b>right</b><div style=\"font-size:0.9em\">Restricted usage road</div>", "maneuver": "turn-right", "polyline": {"points": "es{tDpireQYDe@F"}, "start_location": {"lat": 29.8016283, "lng": -95.4538499}, "travel_mode": "WALKING"}, {"distance": {"text": "118 ft", "value": 36}, "duration": {"text": "1 min", "value": 27}, "end_location": {"lat": 29.8019199, "lng": -95.45428179999999}, "html_instructions": "Turn <b>left</b><div style=\"font-size:0.9em\">Restricted usage road</div><div style=\"font-size:0.9em\">Destination will be on the right</div>", "maneuver": "turn-left", "polyline": {"points": "eu{tD~ireQ@D@R@f@?D"}, "start_location": {"lat": 29.80194599999999, "lng": -95.4539156}, "travel_mode": "WALKING"}], "travel_mode": "WALKING"}], "traffic_speed_entry": [], "via_waypoint": []}], "overview_polyline": {"points": "}qstDjptfQkA?GCCG?w@?k@G??WwBABO\\eCJmAHgBCoF?_@@OH?RA?C?JS@i@?o@?iLB]A?sDAkIBcF?[\\@d@Ab@Et@Of@Sz@o@^_@^g@Vm@ZcAXeA`@y@p@u@^Yn@YPEl@K`@@vBCfB@bI?rF?pBM|C]dAGvBAdACh@IhC@jARjBj@~@PpAJvA?tAOhBm@pA[`@GVCxA@fD@l@BXILMRQvAvAf@f@ZLl@NToBR{B@sA?oAK}MIqLIsK@m@D_@b@iANg@De@?_AGaJAs@F_@AgC?]SA_A?o@AoCIyFJmC@eF@cD?mKJiAABiGFoMFsDD}@RyBtAuLr@_Gp@_G^{CVsAp@mC^iAb@kAl@mAdAsBjD}E|CcEpD_Fn@_Av@sAn@{An@aBr@uB\\oATiAXsBTqBL_BHcC@mBCaBGiBQyBSaBW}AqAeHUoBYyDGiE?aCEoOAoB?m@F?Aq@@_@?Ot@A?C?JyA@iC@eE?sCLmBVuBj@aC`AuHtDoAt@k@b@WPuChDw@t@{@l@iChAyA^o@Ng@@}AFmF@aDBwA?eAEcAIg@Kq@UkAc@eA[sAUu@G}AAm@@gAJiCf@iCZwABaBEk@G{Ck@eAScAKoCMiFBqBHgBVaBXqALoAFeAB?wJEqPOm`@KmTEsB?uBHgB`@oBVy@f@qATa@Zi@f@o@TYr@i@JG`@UdBs@fASnAMvKIb@E`ASl@Wr@e@n@q@NUXg@Vm@XyADy@?gDKqLGqSC_GF}@Hw@XmATo@f@y@x@}@TUtAgAt@s@r@}@p@mA|@uByC]{BGkI?gPBoIDyQFmL@e@?wBBaB?uBAsGAk@AiCKsDg@mBYgBO@SAR_ACgBE{FAsAAcADuCRyDNwBXiBf@w@Ng@Dq@FuAB{DBoHBgKH]?s@@BeB?wC@cB?oE@iH?a@LoAFc@Ds@AqCAqB?sBEe@q@wD_@uBeA}F_@sBYkB_@yBcAiFmBoKgBwJiAcGcAgEqAeFaCcKw@aH{BySw@sHo@kGGm@@I?UEoAMw@M_BIs@a@eBi@oAcCaEq@w@c@[eAs@w@i@o@y@Ue@c@wAMkAMiEMsEByDJkWAcLC_TEg@AcBBmBE[Bg@@aBF}FPoW@oEAeB@s@FwH@qE?wBAuBBwCA}C@cEE}TG_p@Ew_@A}G?QEQMOQOOO`@o@|@sAl@_AzEmHCqC@eACkHAqDAeE@mDCuD?iDHAA]@uBCu@MDa@L@|DBfD_ALDfA"}, "summary": "", "warnings": ["Walking directions are in beta. Use caution \u2013 This route may be missing sidewalks or pedestrian paths."], "waypoint_order": []}, {"bounds": {"northeast": {"lat": 29.8026484, "lng": -95.45427269999999}, "southwest": {"lat": 29.7461492, "lng": -95.62902129999999}}, "copyrights": "Map data \u00a92022", "legs": [{"arrival_time": {"text": "4:35pm", "time_zone": "America/Chicago", "value": 1642026935}, "departure_time": {"text": "3:08pm", "time_zone": "America/Chicago", "value": 1642021703}, "distance": {"text": "18.9 mi", "value": 30460}, "duration": {"text": "1 hour 27 mins", "value": 5232}, "end_address": "4400 W 18th St, Houston, TX 77092, USA", "end_location": {"lat": 29.8019199, "lng": -95.45428179999999}, "start_address": "13733 Brimhurst Dr, Houston, TX 77077, USA", "start_location": {"lat": 29.760472, "lng": -95.629015}, "steps": [{"distance": {"text": "0.3 mi", "value": 504}, "duration": {"text": "7 mins", "value": 391}, "end_location": {"lat": 29.7611334, "lng": -95.6252234}, "html_instructions": "Walk to Eldridge Pkwy @ Brimhurst Dr", "polyline": {"points": "}qstDjptfQG?cA?CACACG?w@?k@G??O?GwBABOLu@NoADk@Da@Bo@Dw@Aw@AwD?O?O@OH?RA"}, "start_location": {"lat": 29.760472, "lng": -95.629015}, "steps": [{"distance": {"text": "377 ft", "value": 115}, "duration": {"text": "1 min", "value": 88}, "end_location": {"lat": 29.7609516, "lng": -95.628343}, "html_instructions": "Head <b>north</b> toward <b>Park Bayou Dr</b>", "polyline": {"points": "}qstDjptfQG?cA?CACACG?w@?k@G??O?G"}, "start_location": {"lat": 29.760472, "lng": -95.629015}, "travel_mode": "WALKING"}, {"distance": {"text": "240 ft", "value": 73}, "duration": {"text": "1 min", "value": 53}, "end_location": {"lat": 29.7615285, "lng": -95.6282462}, "html_instructions": "Turn <b>left</b> onto <b>Park Bayou Dr</b>", "maneuver": "turn-left", "polyline": {"points": "}tstDbltfQwBABO"}, "start_location": {"lat": 29.7609516, "lng": -95.628343}, "travel_mode": "WALKING"}, {"distance": {"text": "0.2 mi", "value": 294}, "duration": {"text": "4 mins", "value": 224}, "end_location": {"lat": 29.761284, "lng": -95.6252301}, "html_instructions": "Turn <b>right</b> onto <b>Brimhurst Dr</b>", "maneuver": "turn-right", "polyline": {"points": "qxstDpktfQLu@NoADk@Da@Bo@Dw@Aw@AwD?O?O@O"}, "start_location": {"lat": 29.7615285, "lng": -95.6282462}, "travel_mode": "WALKING"}, {"distance": {"text": "72 ft", "value": 22}, "duration": {"text": "1 min", "value": 26}, "end_location": {"lat": 29.7611334, "lng": -95.6252234}, "html_instructions": "Turn <b>right</b> onto <b>Eldridge Pkwy S</b>", "maneuver": "turn-right", "polyline": {"points": "_wstDtxsfQH?RA"}, "start_location": {"lat": 29.761284, "lng": -95.6252301}, "travel_mode": "WALKING"}], "travel_mode": "WALKING"}, {"distance": {"text": "5.2 mi", "value": 8389}, "duration": {"text": "18 mins", "value": 1083}, "end_location": {"lat": 29.747849, "lng": -95.572446}, "html_instructions": "Bus towards Wheeler TC", "polyline": {"points": "avstDnxsfQ?JS@S?U?A?m@?aG?kABmA?M?G?UA?_B?sA?uA?i@AcD?g@?QBqE?[\\@NAT?XCHATE^IVMNENKNKPMHIHIFEBCHKHKT[JSJYFMHWFS@IFWPm@LWRa@NQJMJKHIFEVSTKXMDAJCl@K`@@n@AfAAdA@`@?V?~@?fAAbD@|B?\\@VA~@?d@Cf@C^CBAj@IpBSXCj@CH?|@AR?Z?dACh@IhB?^@jARjBj@l@NP@r@H\\@h@Bl@CZCHAFAf@Gv@YDAPGXIVIx@QPENAJAJAN?hA@`CBd@ARBX?XILMRQvAvARTRPNFJDRDXHLiAFe@JkA?C@YDQ?W@O?C?g@?C?e@?K?YCa@AkBCcDAkD?]IiJ?[?MA_A?UAg@?CCmC?S?SA{A?U@WBU@IDM\\{@JYBM@G@C@U?C?I?G?]?O?IAq@AcB?U?OA[AgB?WAm@?EBQBM?C?o@Aq@?a@?]SAU?i@?k@AC?_BIo@?gCDQ?iABU@cB@i@?_CBeBAq@?Y?sA?C?_B@qDBuABe@@E?cAA@aC@gC@wA?w@DaH?]BwBB{@@SBi@H_AHy@pA}KBWReBDg@Fg@PiADWDc@VsBLoARgBJs@Lw@H[P{@^qA\\cA@Eb@kAl@mAb@}@`@u@LQ|CkExC{DBG|ByCr@eA`@m@LQNYf@y@Xo@Tk@^}@Nc@f@{AJYH[@?Lk@BGR_A@IN_AHs@F]@OFm@BUDa@F}@D}@BeA@qA?[Am@As@EyAAOKkAEm@AKM_AAOAEQgAEUy@mEWwAQuACYMsAKeBCwBCqAAa@@_B?kDAyCA_AAiC?o@A_A?m@F?"}, "start_location": {"lat": 29.761135, "lng": -95.62520099999999}, "transit_details": {"arrival_stop": {"location": {"lat": 29.747849, "lng": -95.572446}, "name": "Briar Forest Dr @ Wilcrest Dr"}, "arrival_time": {"text": "3:32pm", "time_zone": "America/Chicago", "value": 1642023177}, "departure_stop": {"location": {"lat": 29.761135, "lng": -95.62520099999999}, "name": "Eldridge Pkwy @ Brimhurst Dr"}, "departure_time": {"text": "3:14pm", "time_zone": "America/Chicago", "value": 1642022094}, "headsign": "Wheeler TC", "line": {"agencies": [{"name": "Metropolitan Transit Authority of Harris County", "phone": "1 (713) 635-4000", "url": "http://www.ridemetro.org/"}], "color": "#004080", "name": "Harwin Express", "short_name": "153", "text_color": "#ffffff", "url": "https://www.ridemetro.org/MetroPDFs/Schedules/BusSchedules/n153-Harwin-Express.pdf", "vehicle": {"icon": "//maps.gstatic.com/mapfiles/transit/iw2/6/bus2.png", "name": "Bus", "type": "BUS"}}, "num_stops": 27, "trip_short_name": "HARWINEXP"}, "travel_mode": "TRANSIT"}, {"distance": {"text": "253 ft", "value": 77}, "duration": {"text": "1 min", "value": 76}, "end_location": {"lat": 29.7475815, "lng": -95.5719512}, "html_instructions": "Walk to Wilcrest Dr @ Briar Forest Dr", "polyline": {"points": "ccqtDxnifQ?q@?O@O?Ot@A"}, "start_location": {"lat": 29.7478567, "lng": -95.5724462}, "steps": [{"distance": {"text": "141 ft", "value": 43}, "duration": {"text": "1 min", "value": 41}, "end_location": {"lat": 29.7478506, "lng": -95.5719582}, "html_instructions": "Head <b>east</b> on <b>Briar Forest Dr</b> toward <b>Wilcrest Dr</b>", "polyline": {"points": "ccqtDxnifQ?q@?O@O?O"}, "start_location": {"lat": 29.7478567, "lng": -95.5724462}, "travel_mode": "WALKING"}, {"distance": {"text": "112 ft", "value": 34}, "duration": {"text": "1 min", "value": 35}, "end_location": {"lat": 29.7475815, "lng": -95.5719512}, "html_instructions": "Turn <b>right</b> onto <b>Wilcrest Dr</b>", "maneuver": "turn-right", "polyline": {"points": "acqtDvkifQt@A"}, "start_location": {"lat": 29.7478506, "lng": -95.5719582}, "travel_mode": "WALKING"}], "travel_mode": "WALKING"}, {"distance": {"text": "11.2 mi", "value": 18074}, "duration": {"text": "28 mins", "value": 1699}, "end_location": {"lat": 29.7830001, "lng": -95.4561157}, "html_instructions": "Bus towards Downtown TC", "polyline": {"points": "kaqtDpkifQ?J}@@[?uA@s@?mA?uA?K?U?aCJQ@a@DkAPQDk@Nc@LSFIBYJk@Vq@XWLeBz@YL]Pi@XIDUJu@^e@Vi@\\c@\\GDGDOJu@x@_BnBUXa@Za@\\YNuB~@SHg@Nq@No@Ng@@m@Do@@I?kA?cB@s@?C?S@oB@Y?m@?i@?eAEMAu@GOCWGWGYMGAcAa@m@SWGo@Mc@GM?g@Gs@Ai@?a@@K?[Bk@Fi@J_@F[Hc@Hg@H]Di@FYBM@M?[@_@?[?a@AKAWACAKAIAQAMC{@Ms@O]Ia@Ic@Ia@Ea@Ee@E]Cm@A]AeC@Y?W?q@@_@@[@a@BS@a@DUD]DQDg@HWDQDOBK@]DS@SBQBM?U@Y@C?]@E?]@?sA?qA?S?q@?i@?q@?M?a@Ag@?mAAcB?K?Q?e@?_A?I?YAM?a@?s@?C?gA?W?w@A_@?iA?[?y@AWAmE?Y?C?e@A_CCiDAmA?mBAMA}CAo@C{B?wBAi@?g@?]?Y?C?KAU?A?C?K?i@Eq@?K?c@?QA_@?]@[?[@W@IBi@@[R_ABOFY@E?CDKDQJW@ANc@N]DMDGBGHO@AZi@f@o@TYr@i@JGFEXOTM^OXKTIb@Kb@GZEr@GPAhECfDCR?RANCn@KPGRIXMRK^Y\\[PUJMBGJOLWBERg@Pu@Fc@@QBg@@[?OAiB?QAO?K?[?kACsBAeBAm@Ae@AwB?Y?A?[AeA@KAA?i@?_@AkA?C?g@?uA?SAaBAkFASBk@BQ?CBW@CBWHa@Nk@J[HSFKBEHMPYTYb@c@@ARS|@s@VSb@_@PSNODILONSh@{@FQp@yAJ[aAOwAMgAGs@?}@?qA?Q?iD?sCBS?oF?oC?U?_B?iA@oCBU?gD?yABkA@yA?u@@W?mA?oA?sC@W?qD?A?c@?mADi@Ac@@A?M?m@Ac@?c@?OA]?c@Ac@?]?k@?y@?[?G?c@?e@AE?sAEu@EA?aAKkASc@GOC{@MICWCWCWCWC_@C?Rm@C_A?eA@g@?k@??e@?cA?yIMgFGiGA{HB{O?eHc@yEDsHEmT@sGGqCGiNEcFDi_@?mEC{DEgHQ{KGuGAmD?uI@sM@_JDqHBiDFmDLiHXaNDeDLgR@kG?}FCqE?cA?eBByB@gBDmCHoDFmALeENsGNcLBiC@cE?yDEwEG{FOiFc@iK]{JIiEA_C?mB@}D@kH@iIAsG@cAFkAFcALeAV}BDs@?_ACw@G_AKeBCk@Bo@Bk@ZcE@mA@_A@_@?cCBeCX?V?Z^?r@Ap@?bAAtA?R?d@?XEAw@B?u@@S?_@AcA@cA@w@@k@ZA^@DA`AAN??H?P?f@?j@?l@?d@GrA"}, "start_location": {"lat": 29.7475818, "lng": -95.5719309}, "transit_details": {"arrival_stop": {"location": {"lat": 29.7830001, "lng": -95.4561157}, "name": "Northwest Transit Center - North Platform"}, "arrival_time": {"text": "4:06pm", "time_zone": "America/Chicago", "value": 1642025160}, "departure_stop": {"location": {"lat": 29.7475818, "lng": -95.5719309}, "name": "Wilcrest Dr @ Briar Forest Dr"}, "departure_time": {"text": "3:37pm", "time_zone": "America/Chicago", "value": 1642023461}, "headsign": "Downtown TC", "line": {"agencies": [{"name": "Metropolitan Transit Authority of Harris County", "phone": "1 (713) 635-4000", "url": "http://www.ridemetro.org/"}], "color": "#004080", "name": "Wilcrest Express", "short_name": "161", "text_color": "#ffffff", "url": "https://www.ridemetro.org/MetroPDFs/Schedules/BusSchedules/n161-Wilcrest-Express.pdf", "vehicle": {"icon": "//maps.gstatic.com/mapfiles/transit/iw2/6/bus2.png", "name": "Bus", "type": "BUS"}}, "num_stops": 33, "trip_short_name": "WILCRESEXP"}, "travel_mode": "TRANSIT"}, {"distance": {"text": "1.7 mi", "value": 2678}, "duration": {"text": "7 mins", "value": 408}, "end_location": {"lat": 29.801027, "lng": -95.45922999999999}, "html_instructions": "Bus towards SH 249", "polyline": {"points": "w~wtDvwreQRwAF@D?DABA@CDIDSB[@g@BUBM@AN]FGJY@K?MCUCKCCA?OGQAGAE?E@GDQJOPMD[BY@W?aAAY@c@?AVAzAAb@?f@?L?ZAn@?`B?R?f@sBNO@Q@Y?W?K@wA@y@@K?u@?wA@U?O?}@@I?Y?_@?_@@oA@oD@eABM?A?a@?c@?qA@W?w@?cA@s@?c@@_@?uA@a@?OAY?q@@c@?_@?[@cA@a@?U?G?C?E?]@S?S@]@c@?}@@M?w@@]?mA@_B@W?E?e@Aa@EQEWG[OUM[QIG_@Ui@i@e@_@OQQQOMCCc@a@MR{A|BU\\W`@sBtCg@z@a@L{@vA]b@Sd@w@lAYh@OQ"}, "start_location": {"lat": 29.7830001, "lng": -95.4561157}, "transit_details": {"arrival_stop": {"location": {"lat": 29.801027, "lng": -95.45922999999999}, "name": "Hempstead Rd @ W 18th St"}, "arrival_time": {"text": "4:25pm", "time_zone": "America/Chicago", "value": 1642026348}, "departure_stop": {"location": {"lat": 29.7830001, "lng": -95.4561157}, "name": "Northwest Transit Center - North Platform"}, "departure_time": {"text": "4:19pm", "time_zone": "America/Chicago", "value": 1642025940}, "headsign": "SH 249", "line": {"agencies": [{"name": "Metropolitan Transit Authority of Harris County", "phone": "1 (713) 635-4000", "url": "http://www.ridemetro.org/"}], "color": "#004080", "name": "Antoine / Washington", "short_name": "85", "text_color": "#ffffff", "url": "https://www.ridemetro.org/MetroPDFs/Schedules/BusSchedules/n085-Antoine-Washington.pdf", "vehicle": {"icon": "//maps.gstatic.com/mapfiles/transit/iw2/6/bus2.png", "name": "Bus", "type": "BUS"}}, "num_stops": 8, "trip_short_name": "ANTOINWAS"}, "travel_mode": "TRANSIT"}, {"distance": {"text": "0.5 mi", "value": 738}, "duration": {"text": "10 mins", "value": 587}, "end_location": {"lat": 29.8019199, "lng": -95.45428179999999}, "html_instructions": "Walk to 4400 W 18th St, Houston, TX 77092, USA", "polyline": {"points": "mo{tDdkseQKPKKKAK?I@IB?Q?aA?M?QAO?OM?M@M?mED@[Ae@?g@ASDKP]d@}@Xq@B]QOIIOMEKKAQUGGEIAE?C?A@C@EBEV_@KMNWHMJSRa@Ts@R}@Jy@Hy@?G@Q@a@"}, "start_location": {"lat": 29.8010254, "lng": -95.4592253}, "steps": [{"distance": {"text": "49 ft", "value": 15}, "duration": {"text": "1 min", "value": 11}, "end_location": {"lat": 29.8011512, "lng": -95.4592626}, "html_instructions": "Head <b>northwest</b>", "polyline": {"points": "mo{tDdkseQKPKK"}, "start_location": {"lat": 29.8010254, "lng": -95.4592253}, "travel_mode": "WALKING"}, {"distance": {"text": "102 ft", "value": 31}, "duration": {"text": "1 min", "value": 23}, "end_location": {"lat": 29.8013705, "lng": -95.4592806}, "html_instructions": "Turn <b>right</b> toward <b>W 18th St</b>", "maneuver": "turn-right", "polyline": {"points": "ep{tDjkseQKAK?I@IB"}, "start_location": {"lat": 29.8011512, "lng": -95.4592626}, "travel_mode": "WALKING"}, {"distance": {"text": "240 ft", "value": 73}, "duration": {"text": "1 min", "value": 61}, "end_location": {"lat": 29.8014508, "lng": -95.4585436}, "html_instructions": "Turn <b>right</b> onto <b>W 18th St</b>", "maneuver": "turn-right", "polyline": {"points": "qq{tDnkseQ?Q?aA?M?QAO?OM?"}, "start_location": {"lat": 29.8013705, "lng": -95.4592806}, "travel_mode": "WALKING"}, {"distance": {"text": "440 ft", "value": 134}, "duration": {"text": "2 mins", "value": 127}, "end_location": {"lat": 29.80261729999999, "lng": -95.45858140000001}, "html_instructions": "Turn <b>left</b> onto <b>Mangum Rd</b>", "maneuver": "turn-left", "polyline": {"points": "ar{tDzfseQM@M?mED"}, "start_location": {"lat": 29.8014508, "lng": -95.4585436}, "travel_mode": "WALKING"}, {"distance": {"text": "0.1 mi", "value": 168}, "duration": {"text": "2 mins", "value": 133}, "end_location": {"lat": 29.8021725, "lng": -95.45703209999999}, "html_instructions": "Turn <b>right</b>", "maneuver": "turn-right", "polyline": {"points": "ky{tDbgseQ@[Ae@?g@ASDKP]d@}@Xq@B]"}, "start_location": {"lat": 29.80261729999999, "lng": -95.45858140000001}, "travel_mode": "WALKING"}, {"distance": {"text": "348 ft", "value": 106}, "duration": {"text": "1 min", "value": 80}, "end_location": {"lat": 29.8024852, "lng": -95.4562641}, "html_instructions": "Turn <b>left</b><div style=\"font-size:0.9em\">Partial restricted usage road</div>", "maneuver": "turn-left", "polyline": {"points": "qv{tDl}reQQOIIOMEKKAQUGGEIAE?C?A@C@EBEV_@"}, "start_location": {"lat": 29.8021725, "lng": -95.45703209999999}, "travel_mode": "WALKING"}, {"distance": {"text": "33 ft", "value": 10}, "duration": {"text": "1 min", "value": 8}, "end_location": {"lat": 29.8025494, "lng": -95.456192}, "html_instructions": "Turn <b>left</b><div style=\"font-size:0.9em\">Restricted usage road</div>", "maneuver": "turn-left", "polyline": {"points": "qx{tDrxreQKM"}, "start_location": {"lat": 29.8024852, "lng": -95.4562641}, "travel_mode": "WALKING"}, {"distance": {"text": "0.1 mi", "value": 201}, "duration": {"text": "2 mins", "value": 144}, "end_location": {"lat": 29.8019199, "lng": -95.45428179999999}, "html_instructions": "Turn <b>right</b><div style=\"font-size:0.9em\">Restricted usage road</div><div style=\"font-size:0.9em\">Destination will be on the left</div>", "maneuver": "turn-right", "polyline": {"points": "}x{tDdxreQNWHMJSRa@Ts@R}@Jy@Hy@?G@Q@a@"}, "start_location": {"lat": 29.8025494, "lng": -95.456192}, "travel_mode": "WALKING"}], "travel_mode": "WALKING"}], "traffic_speed_entry": [], "via_waypoint": []}], "overview_polyline": {"points": "}qstDjptfQkA?GCCG?w@?k@G??WwBABO\\eCJmAHgBCoF?_@@OH?RA?C?JS@i@?o@?iLB]A?sDAkIBcF?[\\@d@Ab@Et@Of@Sz@o@^_@^g@Vm@ZcAXeA`@y@p@u@^Yn@YPEl@K`@@vBCfB@bI?rF?pBM|C]dAGvBAdACh@IhC@jARjBj@~@PpAJvA?tAOhBm@pA[`@GVCxA@fD@l@BXILMRQvAvAf@f@ZLl@NToBR{B@sA?oAK}MIqLIsK@m@D_@b@iANg@De@?_AGaJAs@F_@AgC?]SA_A?o@AoCIyFJmC@eF@cD?mKJiAABiGFoMFsDD}@RyBtAuLr@_Gp@_G^{CVsAp@mC^iAb@kAl@mAdAsBjD}E|CcEpD_Fn@_Av@sAn@{An@aBr@uB\\oATiAXsBTqBL_BHcC@mBCaBGiBQyBSaBW}AqAeHUoBYyDGiE?aCEoOAoB?m@F?Aq@@_@?Ot@A?C?JyA@iC@eE?sCLmBVuBj@aC`AuHtDoAt@k@b@WPuChDw@t@{@l@iChAyA^o@Ng@@}AFmF@aDBwA?eAEcAIg@Kq@UkAc@eA[sAUu@G}AAm@@gAJiCf@iCZwABaBEk@G{Ck@eAScAKoCMiFBqBHgBVaBXqALoAFeAB?wJEqPOm`@KmTEsB?uBHgB`@oBVy@f@qATa@Zi@f@o@TYr@i@JG`@UdBs@fASnAMvKIb@E`ASl@Wr@e@n@q@NUXg@Vm@XyADy@?gDKqLGqSC_GF}@Hw@XmATo@f@y@x@}@TUtAgAt@s@r@}@p@mA|@uByC]{BGkI?gPBoIDyQFmL@e@?wBBaB?uBAsGAk@AiCKsDg@mBYgBO?Rm@CeC@sA??iB?yIMgFIeQBaYc@yEDsHCa]GqCGiNEcFDi_@CiKEgHQ{KIcM@iXFqSJwIf@kWRmW@iOCuGB_FFuFP}F\\yMRmP@}JMsMOiFc@iK]{JIiEAmFBiN?}QHoCr@{HCwBSeD?{A^oFDqHBeCX?V?Z^AdBAxC?x@?XEAw@B?u@@s@?gCBcBz@?fACN??H?x@?xAGxBRwAF@JADEJ]DcAFc@d@aA@YGa@ECOGQAMAMFa@\\MD[Bq@@{A?c@?AVC~BA`C?tB?f@sBNa@Bq@?iDDsD@gNJ{HBmEB}B?gFBkABmCBcGD]?gAGi@Mq@]e@Y_@Ui@i@u@q@a@_@g@e@iBpCm@~@sBtCg@z@a@L{@vA]b@Sd@qAvBOQKPKKWASD?sAA_AwFFA}BVi@~@oBB]QOYWEKKAY]GU^o@KMNWTa@Ra@Ts@R}@TsB@Y@a@"}, "summary": "", "warnings": ["Walking directions are in beta. Use caution \u2013 This route may be missing sidewalks or pedestrian paths."], "waypoint_order": []}, {"bounds": {"northeast": {"lat": 29.803205, "lng": -95.4519566}, "southwest": {"lat": 29.7461492, "lng": -95.62902129999999}}, "copyrights": "Map data \u00a92022", "legs": [{"arrival_time": {"text": "4:04pm", "time_zone": "America/Chicago", "value": 1642025067}, "departure_time": {"text": "2:38pm", "time_zone": "America/Chicago", "value": 1642019903}, "distance": {"text": "17.7 mi", "value": 28475}, "duration": {"text": "1 hour 26 mins", "value": 5164}, "end_address": "4400 W 18th St, Houston, TX 77092, USA", "end_location": {"lat": 29.8019199, "lng": -95.45428179999999}, "start_address": "13733 Brimhurst Dr, Houston, TX 77077, USA", "start_location": {"lat": 29.760472, "lng": -95.629015}, "steps": [{"distance": {"text": "0.3 mi", "value": 504}, "duration": {"text": "7 mins", "value": 391}, "end_location": {"lat": 29.7611334, "lng": -95.6252234}, "html_instructions": "Walk to Eldridge Pkwy @ Brimhurst Dr", "polyline": {"points": "}qstDjptfQG?cA?CACACG?w@?k@G??O?GwBABOLu@NoADk@Da@Bo@Dw@Aw@AwD?O?O@OH?RA"}, "start_location": {"lat": 29.760472, "lng": -95.629015}, "steps": [{"distance": {"text": "377 ft", "value": 115}, "duration": {"text": "1 min", "value": 88}, "end_location": {"lat": 29.7609516, "lng": -95.628343}, "html_instructions": "Head <b>north</b> toward <b>Park Bayou Dr</b>", "polyline": {"points": "}qstDjptfQG?cA?CACACG?w@?k@G??O?G"}, "start_location": {"lat": 29.760472, "lng": -95.629015}, "travel_mode": "WALKING"}, {"distance": {"text": "240 ft", "value": 73}, "duration": {"text": "1 min", "value": 53}, "end_location": {"lat": 29.7615285, "lng": -95.6282462}, "html_instructions": "Turn <b>left</b> onto <b>Park Bayou Dr</b>", "maneuver": "turn-left", "polyline": {"points": "}tstDbltfQwBABO"}, "start_location": {"lat": 29.7609516, "lng": -95.628343}, "travel_mode": "WALKING"}, {"distance": {"text": "0.2 mi", "value": 294}, "duration": {"text": "4 mins", "value": 224}, "end_location": {"lat": 29.761284, "lng": -95.6252301}, "html_instructions": "Turn <b>right</b> onto <b>Brimhurst Dr</b>", "maneuver": "turn-right", "polyline": {"points": "qxstDpktfQLu@NoADk@Da@Bo@Dw@Aw@AwD?O?O@O"}, "start_location": {"lat": 29.7615285, "lng": -95.6282462}, "travel_mode": "WALKING"}, {"distance": {"text": "72 ft", "value": 22}, "duration": {"text": "1 min", "value": 26}, "end_location": {"lat": 29.7611334, "lng": -95.6252234}, "html_instructions": "Turn <b>right</b> onto <b>Eldridge Pkwy S</b>", "maneuver": "turn-right", "polyline": {"points": "_wstDtxsfQH?RA"}, "start_location": {"lat": 29.761284, "lng": -95.6252301}, "travel_mode": "WALKING"}], "travel_mode": "WALKING"}, {"distance": {"text": "5.2 mi", "value": 8389}, "duration": {"text": "18 mins", "value": 1083}, "end_location": {"lat": 29.747849, "lng": -95.572446}, "html_instructions": "Bus towards Wheeler TC", "polyline": {"points": "avstDnxsfQ?JS@S?U?A?m@?aG?kABmA?M?G?UA?_B?sA?uA?i@AcD?g@?QBqE?[\\@NAT?XCHATE^IVMNENKNKPMHIHIFEBCHKHKT[JSJYFMHWFS@IFWPm@LWRa@NQJMJKHIFEVSTKXMDAJCl@K`@@n@AfAAdA@`@?V?~@?fAAbD@|B?\\@VA~@?d@Cf@C^CBAj@IpBSXCj@CH?|@AR?Z?dACh@IhB?^@jARjBj@l@NP@r@H\\@h@Bl@CZCHAFAf@Gv@YDAPGXIVIx@QPENAJAJAN?hA@`CBd@ARBX?XILMRQvAvARTRPNFJDRDXHLiAFe@JkA?C@YDQ?W@O?C?g@?C?e@?K?YCa@AkBCcDAkD?]IiJ?[?MA_A?UAg@?CCmC?S?SA{A?U@WBU@IDM\\{@JYBM@G@C@U?C?I?G?]?O?IAq@AcB?U?OA[AgB?WAm@?EBQBM?C?o@Aq@?a@?]SAU?i@?k@AC?_BIo@?gCDQ?iABU@cB@i@?_CBeBAq@?Y?sA?C?_B@qDBuABe@@E?cAA@aC@gC@wA?w@DaH?]BwBB{@@SBi@H_AHy@pA}KBWReBDg@Fg@PiADWDc@VsBLoARgBJs@Lw@H[P{@^qA\\cA@Eb@kAl@mAb@}@`@u@LQ|CkExC{DBG|ByCr@eA`@m@LQNYf@y@Xo@Tk@^}@Nc@f@{AJYH[@?Lk@BGR_A@IN_AHs@F]@OFm@BUDa@F}@D}@BeA@qA?[Am@As@EyAAOKkAEm@AKM_AAOAEQgAEUy@mEWwAQuACYMsAKeBCwBCqAAa@@_B?kDAyCA_AAiC?o@A_A?m@F?"}, "start_location": {"lat": 29.761135, "lng": -95.62520099999999}, "transit_details": {"arrival_stop": {"location": {"lat": 29.747849, "lng": -95.572446}, "name": "Briar Forest Dr @ Wilcrest Dr"}, "arrival_time": {"text": "3:02pm", "time_zone": "America/Chicago", "value": 1642021377}, "departure_stop": {"location": {"lat": 29.761135, "lng": -95.62520099999999}, "name": "Eldridge Pkwy @ Brimhurst Dr"}, "departure_time": {"text": "2:44pm", "time_zone": "America/Chicago", "value": 1642020294}, "headsign": "Wheeler TC", "line": {"agencies": [{"name": "Metropolitan Transit Authority of Harris County", "phone": "1 (713) 635-4000", "url": "http://www.ridemetro.org/"}], "color": "#004080", "name": "Harwin Express", "short_name": "153", "text_color": "#ffffff", "url": "https://www.ridemetro.org/MetroPDFs/Schedules/BusSchedules/n153-Harwin-Express.pdf", "vehicle": {"icon": "//maps.gstatic.com/mapfiles/transit/iw2/6/bus2.png", "name": "Bus", "type": "BUS"}}, "num_stops": 27, "trip_short_name": "HARWINEXP"}, "travel_mode": "TRANSIT"}, {"distance": {"text": "253 ft", "value": 77}, "duration": {"text": "1 min", "value": 76}, "end_location": {"lat": 29.7475815, "lng": -95.5719512}, "html_instructions": "Walk to Wilcrest Dr @ Briar Forest Dr", "polyline": {"points": "ccqtDxnifQ?q@?O@O?Ot@A"}, "start_location": {"lat": 29.7478567, "lng": -95.5724462}, "steps": [{"distance": {"text": "141 ft", "value": 43}, "duration": {"text": "1 min", "value": 41}, "end_location": {"lat": 29.7478506, "lng": -95.5719582}, "html_instructions": "Head <b>east</b> on <b>Briar Forest Dr</b> toward <b>Wilcrest Dr</b>", "polyline": {"points": "ccqtDxnifQ?q@?O@O?O"}, "start_location": {"lat": 29.7478567, "lng": -95.5724462}, "travel_mode": "WALKING"}, {"distance": {"text": "112 ft", "value": 34}, "duration": {"text": "1 min", "value": 35}, "end_location": {"lat": 29.7475815, "lng": -95.5719512}, "html_instructions": "Turn <b>right</b> onto <b>Wilcrest Dr</b>", "maneuver": "turn-right", "polyline": {"points": "acqtDvkifQt@A"}, "start_location": {"lat": 29.7478506, "lng": -95.5719582}, "travel_mode": "WALKING"}], "travel_mode": "WALKING"}, {"distance": {"text": "5.4 mi", "value": 8657}, "duration": {"text": "18 mins", "value": 1099}, "end_location": {"lat": 29.782613, "lng": -95.543797}, "html_instructions": "Bus towards Downtown TC", "polyline": {"points": "kaqtDpkifQ?J}@@[?uA@s@?mA?uA?K?U?aCJQ@a@DkAPQDk@Nc@LSFIBYJk@Vq@XWLeBz@YL]Pi@XIDUJu@^e@Vi@\\c@\\GDGDOJu@x@_BnBUXa@Za@\\YNuB~@SHg@Nq@No@Ng@@m@Do@@I?kA?cB@s@?C?S@oB@Y?m@?i@?eAEMAu@GOCWGWGYMGAcAa@m@SWGo@Mc@GM?g@Gs@Ai@?a@@K?[Bk@Fi@J_@F[Hc@Hg@H]Di@FYBM@M?[@_@?[?a@AKAWACAKAIAQAMC{@Ms@O]Ia@Ic@Ia@Ea@Ee@E]Cm@A]AeC@Y?W?q@@_@@[@a@BS@a@DUD]DQDg@HWDQDOBK@]DS@SBQBM?U@Y@C?]@E?]@?sA?qA?S?q@?i@?q@?M?a@Ag@?mAAcB?K?Q?e@?_A?I?YAM?a@?s@?C?gA?W?w@A_@?iA?[?y@AWAmE?Y?C?e@A_CCiDAmA?mBAMA}CAo@C{B?wBAi@?g@?]?Y?C?KAU?A?C?K?i@Eq@?K?c@?QA_@?]@[?[@W@IBi@@[R_ABOFY@E?CDKDQJW@ANc@N]DMDGBGHO@AZi@f@o@TYr@i@JGFEXOTM^OXKTIb@Kb@GZEr@GPAhECfDCR?RANCn@KPGRIXMRK^Y\\[PUJMBGJOLWBERg@Pu@Fc@@QBg@@[?OAiB?QAO?K?[?kACsBAeBAm@Ae@AwB?Y?A?[AeA@KAA?i@?_@AkA?C?g@?uA?SAaBAkFASBk@BQ?CBW@CBWHa@Nk@J[HSFKBEHMPYTYb@c@@ARS|@s@VSb@_@PSNODILONSh@{@FQp@yAJ[aAOwAMgAGs@?}@?qA?Q?iD?sCBS?oF?oC?U?_B?iA@oCBU?gD?yABkA@yA?u@@W?mA?oA?sC@W?qD?A?c@?mADi@Ac@@A?M?m@Ac@?c@?OA]?c@Ac@?]?k@?y@?[?G?c@?e@AE?sAEu@EA?aAKkASc@GOC{@MICWCWCWCWC_@C@S"}, "start_location": {"lat": 29.7475818, "lng": -95.5719309}, "transit_details": {"arrival_stop": {"location": {"lat": 29.782613, "lng": -95.543797}, "name": "Gessner Rd @ Katy Fwy"}, "arrival_time": {"text": "3:26pm", "time_zone": "America/Chicago", "value": 1642022760}, "departure_stop": {"location": {"lat": 29.7475818, "lng": -95.5719309}, "name": "Wilcrest Dr @ Briar Forest Dr"}, "departure_time": {"text": "3:07pm", "time_zone": "America/Chicago", "value": 1642021661}, "headsign": "Downtown TC", "line": {"agencies": [{"name": "Metropolitan Transit Authority of Harris County", "phone": "1 (713) 635-4000", "url": "http://www.ridemetro.org/"}], "color": "#004080", "name": "Wilcrest Express", "short_name": "161", "text_color": "#ffffff", "url": "https://www.ridemetro.org/MetroPDFs/Schedules/BusSchedules/n161-Wilcrest-Express.pdf", "vehicle": {"icon": "//maps.gstatic.com/mapfiles/transit/iw2/6/bus2.png", "name": "Bus", "type": "BUS"}}, "num_stops": 32, "trip_short_name": "WILCRESEXP"}, "travel_mode": "TRANSIT"}, {"distance": {"text": "6.5 mi", "value": 10474}, "duration": {"text": "25 mins", "value": 1522}, "end_location": {"lat": 29.80140099999999, "lng": -95.45297}, "html_instructions": "Bus towards Kashmere TC", "polyline": {"points": "i|wtDv{cfQARSAk@ASAOAg@?[AA?}@@_@Aw@?u@AC?i@?aA?QAaADA?g@D{@Da@DO@Y@S@A?w@BM@Y@S@U@SBYBI@OBA?QBUDE@k@L_@LIBSF]FYFC?c@DSB]Ba@@s@@c@?gABw@?W?[@_@?U?S?E?o@@m@AeB@S?y@@gA@c@?c@@k@?m@@oA@E?W?s@@BeB?g@?oB@Q?qA?Y?]?eB?q@@mA@}BA]?_A?a@LoA@KDWBY@Y?wAAy@?K?o@Ac@?Q?sA?_@Ec@?AO}@ACEWY}AUmA?AESCQUiA[kBMq@EUCK[gBQgAGc@EYIe@G[G]Qw@Ia@UqAQ}@]sBSeASeACSMm@AGG[Ki@G_@Ki@G_@A?Ko@o@mDMo@_@wBMs@Ie@Qq@YsAACGU_@yAAEGUM_@Om@EUOm@EQMe@Oo@EQCOIYEQK_@COEMCMGUAICMGSEQMk@Sy@QuACOEc@Ge@C]CKE_@Eg@COE_@O{AQ}Aa@uDCUc@eEE]UqBKkAGc@MqAOwA_@sDGm@@I?K?IEoAMw@Gy@Ee@CUE]Ie@GUGUGSKUKWEKKU_@o@q@mA_@k@QWKQe@e@_@YCAWQMI[SCCQKUMGGGGWWWa@AASc@Sk@ACEQGUE]EY?EAM?GCs@?YIsBGaBAi@Cg@?_@?C?[B}B?[?mB@a@@gB@y@?WB}F?qA@qB?K?M?oA?YAq@?S?wC?aAAsF@sA?WA}D?c@?MAi@?e@COAW?i@Ay@?Y@k@?S@SES?G@]@I?[@_@?I?[@a@?]@E?m@@e@@y@?O?Y@o@@sB@g@?I@_B?s@@W?a@?Y@aA?S@i@?e@@}@@eA?g@@s@?s@?M?K?Y?U?U?GAK?GAI?E@Q?c@?K?E?A?C?A?A@C?E?Y@U?o@@uA@k@?a@?_@@[?Q?c@?O?]?e@@S?[?U?SAa@@S?y@?GAo@?_@?Q?S@_@?[@_A?[?oAAk@?O?Q?Q?[?c@?S?I@y@?G?Q?i@AuA?_A?aA?I?gAAw@?W?s@?U?U?m@?i@?o@Ag@?I?{A?O?q@?e@?eB?{A?UA]?kHAeI?EAY?kG?IAiC?s@?_BAoC?g@?qC?_CAoA?eA?M?s@AuC?Q?c@?e@?G?Q?I?oA?q@?i@?O?a@?c@?OAK?G?IAICGCECCEC?AKIEEOO`@o@FKt@gAb@q@HM`A{Ah@w@dA_Bh@y@@]EsB?]@g@?YAU?a@AyE?I?IAgA?uAAuC?o@@W?uC?W?]AuAAi@?iA?_B?AH?"}, "start_location": {"lat": 29.782613, "lng": -95.543797}, "transit_details": {"arrival_stop": {"location": {"lat": 29.80140099999999, "lng": -95.45297}, "name": "W 18th St @ Northwest Fwy"}, "arrival_time": {"text": "3:59pm", "time_zone": "America/Chicago", "value": 1642024762}, "departure_stop": {"location": {"lat": 29.782613, "lng": -95.543797}, "name": "Gessner Rd @ Katy Fwy"}, "departure_time": {"text": "3:34pm", "time_zone": "America/Chicago", "value": 1642023240}, "headsign": "Kashmere TC", "line": {"agencies": [{"name": "Metropolitan Transit Authority of Harris County", "phone": "1 (713) 635-4000", "url": "http://www.ridemetro.org/"}], "color": "#004080", "name": "Long Point / Cavalcade", "short_name": "26", "text_color": "#ffffff", "url": "https://www.ridemetro.org/MetroPDFs/Schedules/BusSchedules/n026-Long-Point-Cavalcade.pdf", "vehicle": {"icon": "//maps.gstatic.com/mapfiles/transit/iw2/6/bus2.png", "name": "Bus", "type": "BUS"}}, "num_stops": 42, "trip_short_name": "LONGPOINT"}, "travel_mode": "TRANSIT"}, {"distance": {"text": "0.2 mi", "value": 374}, "duration": {"text": "5 mins", "value": 304}, "end_location": {"lat": 29.8019199, "lng": -95.45428179999999}, "html_instructions": "Walk to 4400 W 18th St, Houston, TX 77092, USA", "polyline": {"points": "{q{tD`dreQ@]?g@@mACu@MDSFMD?j@?h@BnAAV@|@@hBYDe@F@D@R@f@?D"}, "start_location": {"lat": 29.8014155, "lng": -95.4529697}, "steps": [{"distance": {"text": "328 ft", "value": 100}, "duration": {"text": "1 min", "value": 78}, "end_location": {"lat": 29.8014885, "lng": -95.45198769999999}, "html_instructions": "Head <b>east</b> on <b>W 18th St</b>/<wbr/><b>NW Mall</b> toward <b>W Loop S Fwy</b><div style=\"font-size:0.9em\">Pass by Burger King (on the right in 279&nbsp;ft)</div>", "polyline": {"points": "{q{tD`dreQ@]?g@@mACu@MD"}, "start_location": {"lat": 29.8014155, "lng": -95.4529697}, "travel_mode": "WALKING"}, {"distance": {"text": "0.1 mi", "value": 198}, "duration": {"text": "3 mins", "value": 165}, "end_location": {"lat": 29.8016283, "lng": -95.4538499}, "html_instructions": "Cross the road", "polyline": {"points": "ir{tD|}qeQSFMD?j@?h@BnAAV@|@@hB"}, "start_location": {"lat": 29.8014885, "lng": -95.45198769999999}, "travel_mode": "WALKING"}, {"distance": {"text": "131 ft", "value": 40}, "duration": {"text": "1 min", "value": 34}, "end_location": {"lat": 29.80194599999999, "lng": -95.4539156}, "html_instructions": "Turn <b>right</b><div style=\"font-size:0.9em\">Restricted usage road</div>", "maneuver": "turn-right", "polyline": {"points": "es{tDpireQYDe@F"}, "start_location": {"lat": 29.8016283, "lng": -95.4538499}, "travel_mode": "WALKING"}, {"distance": {"text": "118 ft", "value": 36}, "duration": {"text": "1 min", "value": 27}, "end_location": {"lat": 29.8019199, "lng": -95.45428179999999}, "html_instructions": "Turn <b>left</b><div style=\"font-size:0.9em\">Restricted usage road</div><div style=\"font-size:0.9em\">Destination will be on the right</div>", "maneuver": "turn-left", "polyline": {"points": "eu{tD~ireQ@D@R@f@?D"}, "start_location": {"lat": 29.80194599999999, "lng": -95.4539156}, "travel_mode": "WALKING"}], "travel_mode": "WALKING"}], "traffic_speed_entry": [], "via_waypoint": []}], "overview_polyline": {"points": "}qstDjptfQkA?GCCG?w@?k@G??WwBABO\\eCJmAHgBCoF?_@@OH?RA?C?JS@i@?o@?iLB]A?sDAkIBcF?[\\@d@Ab@Et@Of@Sz@o@^_@^g@Vm@ZcAXeA`@y@p@u@^Yn@YPEl@K`@@vBCfB@bI?rF?pBM|C]dAGvBAdACh@IhC@jARjBj@~@PpAJvA?tAOhBm@pA[`@GVCxA@fD@l@BXILMRQvAvAf@f@ZLl@NToBR{B@sA?oAK}MIqLIsK@m@D_@b@iANg@De@?_AGaJAs@F_@AgC?]SA_A?o@AoCIyFJmC@eF@cD?mKJiAABiGFoMFsDD}@RyBtAuLr@_Gp@_G^{CVsAp@mC^iAb@kAl@mAdAsBjD}E|CcEpD_Fn@_Av@sAn@{An@aBr@uB\\oATiAXsBTqBL_BHcC@mBCaBGiBQyBSaBW}AqAeHUoBYyDGiE?aCEoOAoB?m@F?Aq@@_@?Ot@A?C?JyA@iC@eE?sCLmBVuBj@aC`AuHtDoAt@k@b@WPuChDw@t@{@l@iChAyA^o@Ng@@}AFmF@aDBwA?eAEcAIg@Kq@UkAc@eA[sAUu@G}AAm@@gAJiCf@iCZwABaBEk@G{Ck@eAScAKoCMiFBqBHgBVaBXqALoAFeAB?wJEqPOm`@KmTEsB?uBHgB`@oBVy@f@qATa@Zi@f@o@TYr@i@JG`@UdBs@fASnAMvKIb@E`ASl@Wr@e@n@q@NUXg@Vm@XyADy@?gDKqLGqSC_GF}@Hw@XmATo@f@y@x@}@TUtAgAt@s@r@}@p@mA|@uByC]{BGkI?gPBoIDyQFmL@e@?wBBaB?uBAsGAk@AiCKsDg@mBYgBO@SAR_ACgBE{FAsAAcADuCRyDNwBXiBf@w@Ng@Dq@FuAB{DBoHBgKH]?s@@BeB?wC@cB?oE@iH?a@LoAFc@Ds@AqCAqB?sBEe@q@wD_@uBeA}F_@sBYkB_@yBcAiFmBoKgBwJiAcGcAgEqAeFaCcKw@aH{BySw@sHo@kGGm@@I?UEoAMw@M_BIs@a@eBi@oAcCaEq@w@c@[eAs@w@i@o@y@Ue@c@wAMkAMiEMsEByDJkWAcLC_TEg@AcBBmBE[Bg@@aBF}FPoW@oEAeB@s@FwH@qE?wBAuBBwCA}C@cEE}TG_p@Ew_@A}G?QEQMOQOOO`@o@|@sAl@_AzEmHCqC@eACkHAqDAeE@mDCuD?iDHAA]@uBCu@MDa@L@|DBfD_ALDfA"}, "summary": "", "warnings": ["Walking directions are in beta. Use caution \u2013 This route may be missing sidewalks or pedestrian paths."], "waypoint_order": []}, {"bounds": {"northeast": {"lat": 29.8038169, "lng": -95.45427269999999}, "southwest": {"lat": 29.7461492, "lng": -95.629015}}, "copyrights": "Map data \u00a92022", "legs": [{"arrival_time": {"text": "4:06pm", "time_zone": "America/Chicago", "value": 1642025184}, "departure_time": {"text": "2:38pm", "time_zone": "America/Chicago", "value": 1642019903}, "distance": {"text": "19.1 mi", "value": 30805}, "duration": {"text": "1 hour 28 mins", "value": 5281}, "end_address": "4400 W 18th St, Houston, TX 77092, USA", "end_location": {"lat": 29.8019199, "lng": -95.45428179999999}, "start_address": "13733 Brimhurst Dr, Houston, TX 77077, USA", "start_location": {"lat": 29.760472, "lng": -95.629015}, "steps": [{"distance": {"text": "0.3 mi", "value": 504}, "duration": {"text": "7 mins", "value": 391}, "end_location": {"lat": 29.7611334, "lng": -95.6252234}, "html_instructions": "Walk to Eldridge Pkwy @ Brimhurst Dr", "polyline": {"points": "}qstDjptfQG?cA?CACACG?w@?k@G??O?GwBABOLu@NoADk@Da@Bo@Dw@Aw@AwD?O?O@OH?RA"}, "start_location": {"lat": 29.760472, "lng": -95.629015}, "steps": [{"distance": {"text": "377 ft", "value": 115}, "duration": {"text": "1 min", "value": 88}, "end_location": {"lat": 29.7609516, "lng": -95.628343}, "html_instructions": "Head <b>north</b> toward <b>Park Bayou Dr</b>", "polyline": {"points": "}qstDjptfQG?cA?CACACG?w@?k@G??O?G"}, "start_location": {"lat": 29.760472, "lng": -95.629015}, "travel_mode": "WALKING"}, {"distance": {"text": "240 ft", "value": 73}, "duration": {"text": "1 min", "value": 53}, "end_location": {"lat": 29.7615285, "lng": -95.6282462}, "html_instructions": "Turn <b>left</b> onto <b>Park Bayou Dr</b>", "maneuver": "turn-left", "polyline": {"points": "}tstDbltfQwBABO"}, "start_location": {"lat": 29.7609516, "lng": -95.628343}, "travel_mode": "WALKING"}, {"distance": {"text": "0.2 mi", "value": 294}, "duration": {"text": "4 mins", "value": 224}, "end_location": {"lat": 29.761284, "lng": -95.6252301}, "html_instructions": "Turn <b>right</b> onto <b>Brimhurst Dr</b>", "maneuver": "turn-right", "polyline": {"points": "qxstDpktfQLu@NoADk@Da@Bo@Dw@Aw@AwD?O?O@O"}, "start_location": {"lat": 29.7615285, "lng": -95.6282462}, "travel_mode": "WALKING"}, {"distance": {"text": "72 ft", "value": 22}, "duration": {"text": "1 min", "value": 26}, "end_location": {"lat": 29.7611334, "lng": -95.6252234}, "html_instructions": "Turn <b>right</b> onto <b>Eldridge Pkwy S</b>", "maneuver": "turn-right", "polyline": {"points": "_wstDtxsfQH?RA"}, "start_location": {"lat": 29.761284, "lng": -95.6252301}, "travel_mode": "WALKING"}], "travel_mode": "WALKING"}, {"distance": {"text": "5.2 mi", "value": 8389}, "duration": {"text": "18 mins", "value": 1083}, "end_location": {"lat": 29.747849, "lng": -95.572446}, "html_instructions": "Bus towards Wheeler TC", "polyline": {"points": "avstDnxsfQ?JS@S?U?A?m@?aG?kABmA?M?G?UA?_B?sA?uA?i@AcD?g@?QBqE?[\\@NAT?XCHATE^IVMNENKNKPMHIHIFEBCHKHKT[JSJYFMHWFS@IFWPm@LWRa@NQJMJKHIFEVSTKXMDAJCl@K`@@n@AfAAdA@`@?V?~@?fAAbD@|B?\\@VA~@?d@Cf@C^CBAj@IpBSXCj@CH?|@AR?Z?dACh@IhB?^@jARjBj@l@NP@r@H\\@h@Bl@CZCHAFAf@Gv@YDAPGXIVIx@QPENAJAJAN?hA@`CBd@ARBX?XILMRQvAvARTRPNFJDRDXHLiAFe@JkA?C@YDQ?W@O?C?g@?C?e@?K?YCa@AkBCcDAkD?]IiJ?[?MA_A?UAg@?CCmC?S?SA{A?U@WBU@IDM\\{@JYBM@G@C@U?C?I?G?]?O?IAq@AcB?U?OA[AgB?WAm@?EBQBM?C?o@Aq@?a@?]SAU?i@?k@AC?_BIo@?gCDQ?iABU@cB@i@?_CBeBAq@?Y?sA?C?_B@qDBuABe@@E?cAA@aC@gC@wA?w@DaH?]BwBB{@@SBi@H_AHy@pA}KBWReBDg@Fg@PiADWDc@VsBLoARgBJs@Lw@H[P{@^qA\\cA@Eb@kAl@mAb@}@`@u@LQ|CkExC{DBG|ByCr@eA`@m@LQNYf@y@Xo@Tk@^}@Nc@f@{AJYH[@?Lk@BGR_A@IN_AHs@F]@OFm@BUDa@F}@D}@BeA@qA?[Am@As@EyAAOKkAEm@AKM_AAOAEQgAEUy@mEWwAQuACYMsAKeBCwBCqAAa@@_B?kDAyCA_AAiC?o@A_A?m@F?"}, "start_location": {"lat": 29.761135, "lng": -95.62520099999999}, "transit_details": {"arrival_stop": {"location": {"lat": 29.747849, "lng": -95.572446}, "name": "Briar Forest Dr @ Wilcrest Dr"}, "arrival_time": {"text": "3:02pm", "time_zone": "America/Chicago", "value": 1642021377}, "departure_stop": {"location": {"lat": 29.761135, "lng": -95.62520099999999}, "name": "Eldridge Pkwy @ Brimhurst Dr"}, "departure_time": {"text": "2:44pm", "time_zone": "America/Chicago", "value": 1642020294}, "headsign": "Wheeler TC", "line": {"agencies": [{"name": "Metropolitan Transit Authority of Harris County", "phone": "1 (713) 635-4000", "url": "http://www.ridemetro.org/"}], "color": "#004080", "name": "Harwin Express", "short_name": "153", "text_color": "#ffffff", "url": "https://www.ridemetro.org/MetroPDFs/Schedules/BusSchedules/n153-Harwin-Express.pdf", "vehicle": {"icon": "//maps.gstatic.com/mapfiles/transit/iw2/6/bus2.png", "name": "Bus", "type": "BUS"}}, "num_stops": 27, "trip_short_name": "HARWINEXP"}, "travel_mode": "TRANSIT"}, {"distance": {"text": "253 ft", "value": 77}, "duration": {"text": "1 min", "value": 76}, "end_location": {"lat": 29.7475815, "lng": -95.5719512}, "html_instructions": "Walk to Wilcrest Dr @ Briar Forest Dr", "polyline": {"points": "ccqtDxnifQ?q@?O@O?Ot@A"}, "start_location": {"lat": 29.7478567, "lng": -95.5724462}, "steps": [{"distance": {"text": "141 ft", "value": 43}, "duration": {"text": "1 min", "value": 41}, "end_location": {"lat": 29.7478506, "lng": -95.5719582}, "html_instructions": "Head <b>east</b> on <b>Briar Forest Dr</b> toward <b>Wilcrest Dr</b>", "polyline": {"points": "ccqtDxnifQ?q@?O@O?O"}, "start_location": {"lat": 29.7478567, "lng": -95.5724462}, "travel_mode": "WALKING"}, {"distance": {"text": "112 ft", "value": 34}, "duration": {"text": "1 min", "value": 35}, "end_location": {"lat": 29.7475815, "lng": -95.5719512}, "html_instructions": "Turn <b>right</b> onto <b>Wilcrest Dr</b>", "maneuver": "turn-right", "polyline": {"points": "acqtDvkifQt@A"}, "start_location": {"lat": 29.7478506, "lng": -95.5719582}, "travel_mode": "WALKING"}], "travel_mode": "WALKING"}, {"distance": {"text": "11.2 mi", "value": 18074}, "duration": {"text": "28 mins", "value": 1699}, "end_location": {"lat": 29.7830001, "lng": -95.4561157}, "html_instructions": "Bus towards Downtown TC", "polyline": {"points": "kaqtDpkifQ?J}@@[?uA@s@?mA?uA?K?U?aCJQ@a@DkAPQDk@Nc@LSFIBYJk@Vq@XWLeBz@YL]Pi@XIDUJu@^e@Vi@\\c@\\GDGDOJu@x@_BnBUXa@Za@\\YNuB~@SHg@Nq@No@Ng@@m@Do@@I?kA?cB@s@?C?S@oB@Y?m@?i@?eAEMAu@GOCWGWGYMGAcAa@m@SWGo@Mc@GM?g@Gs@Ai@?a@@K?[Bk@Fi@J_@F[Hc@Hg@H]Di@FYBM@M?[@_@?[?a@AKAWACAKAIAQAMC{@Ms@O]Ia@Ic@Ia@Ea@Ee@E]Cm@A]AeC@Y?W?q@@_@@[@a@BS@a@DUD]DQDg@HWDQDOBK@]DS@SBQBM?U@Y@C?]@E?]@?sA?qA?S?q@?i@?q@?M?a@Ag@?mAAcB?K?Q?e@?_A?I?YAM?a@?s@?C?gA?W?w@A_@?iA?[?y@AWAmE?Y?C?e@A_CCiDAmA?mBAMA}CAo@C{B?wBAi@?g@?]?Y?C?KAU?A?C?K?i@Eq@?K?c@?QA_@?]@[?[@W@IBi@@[R_ABOFY@E?CDKDQJW@ANc@N]DMDGBGHO@AZi@f@o@TYr@i@JGFEXOTM^OXKTIb@Kb@GZEr@GPAhECfDCR?RANCn@KPGRIXMRK^Y\\[PUJMBGJOLWBERg@Pu@Fc@@QBg@@[?OAiB?QAO?K?[?kACsBAeBAm@Ae@AwB?Y?A?[AeA@KAA?i@?_@AkA?C?g@?uA?SAaBAkFASBk@BQ?CBW@CBWHa@Nk@J[HSFKBEHMPYTYb@c@@ARS|@s@VSb@_@PSNODILONSh@{@FQp@yAJ[aAOwAMgAGs@?}@?qA?Q?iD?sCBS?oF?oC?U?_B?iA@oCBU?gD?yABkA@yA?u@@W?mA?oA?sC@W?qD?A?c@?mADi@Ac@@A?M?m@Ac@?c@?OA]?c@Ac@?]?k@?y@?[?G?c@?e@AE?sAEu@EA?aAKkASc@GOC{@MICWCWCWCWC_@C?Rm@C_A?eA@g@?k@??e@?cA?yIMgFGiGA{HB{O?eHc@yEDsHEmT@sGGqCGiNEcFDi_@?mEC{DEgHQ{KGuGAmD?uI@sM@_JDqHBiDFmDLiHXaNDeDLgR@kG?}FCqE?cA?eBByB@gBDmCHoDFmALeENsGNcLBiC@cE?yDEwEG{FOiFc@iK]{JIiEA_C?mB@}D@kH@iIAsG@cAFkAFcALeAV}BDs@?_ACw@G_AKeBCk@Bo@Bk@ZcE@mA@_A@_@?cCBeCX?V?Z^?r@Ap@?bAAtA?R?d@?XEAw@B?u@@S?_@AcA@cA@w@@k@ZA^@DA`AAN??H?P?f@?j@?l@?d@GrA"}, "start_location": {"lat": 29.7475818, "lng": -95.5719309}, "transit_details": {"arrival_stop": {"location": {"lat": 29.7830001, "lng": -95.4561157}, "name": "Northwest Transit Center - North Platform"}, "arrival_time": {"text": "3:36pm", "time_zone": "America/Chicago", "value": 1642023360}, "departure_stop": {"location": {"lat": 29.7475818, "lng": -95.5719309}, "name": "Wilcrest Dr @ Briar Forest Dr"}, "departure_time": {"text": "3:07pm", "time_zone": "America/Chicago", "value": 1642021661}, "headsign": "Downtown TC", "line": {"agencies": [{"name": "Metropolitan Transit Authority of Harris County", "phone": "1 (713) 635-4000", "url": "http://www.ridemetro.org/"}], "color": "#004080", "name": "Wilcrest Express", "short_name": "161", "text_color": "#ffffff", "url": "https://www.ridemetro.org/MetroPDFs/Schedules/BusSchedules/n161-Wilcrest-Express.pdf", "vehicle": {"icon": "//maps.gstatic.com/mapfiles/transit/iw2/6/bus2.png", "name": "Bus", "type": "BUS"}}, "num_stops": 33, "trip_short_name": "WILCRESEXP"}, "travel_mode": "TRANSIT"}, {"distance": {"text": "2.0 mi", "value": 3143}, "duration": {"text": "9 mins", "value": 523}, "end_location": {"lat": 29.803817, "lng": -95.458625}, "html_instructions": "Bus towards Dacoma Shuttle", "polyline": {"points": "w~wtDvwreQRwAF@D?DABA@CDIDSB[@g@BUBM@AN]FGJY@K?MCUCKCCA?OGQAGAE?E@GDQJOPMD[BY@W?aAAY@c@?AVAzAAb@?f@?L?ZAn@?`B?R?f@sBNO@Q@Y?W?K@wA@y@@K?u@?wA@U?O?}@@I?Y?_@?_@@oA@oD@eABM?A?a@?c@?qA@W?w@?cA@s@?c@@_@?uA@a@?OAY?q@@c@?_@?[@cA@a@?U?G?C?E?]@S?S@]@c@?}@@M?w@@]?mA@_B@W?E?e@Aa@EQEWG[OUM[QIG_@Ui@i@e@_@OQQQOMCCc@a@MR{A|BU\\W`@sBtCg@z@a@L{@vA]b@Sd@w@lAYh@OVk@r@Yj@EsB?]@aAAU?a@[@uEDaA@gAD_A@e@??I"}, "start_location": {"lat": 29.7830001, "lng": -95.4561157}, "transit_details": {"arrival_stop": {"location": {"lat": 29.803817, "lng": -95.458625}, "name": "Mangum Rd @ W 20th St"}, "arrival_time": {"text": "3:58pm", "time_zone": "America/Chicago", "value": 1642024723}, "departure_stop": {"location": {"lat": 29.7830001, "lng": -95.4561157}, "name": "Northwest Transit Center - North Platform"}, "departure_time": {"text": "3:50pm", "time_zone": "America/Chicago", "value": 1642024200}, "headsign": "Dacoma Shuttle", "line": {"agencies": [{"name": "Metropolitan Transit Authority of Harris County", "phone": "1 (713) 635-4000", "url": "http://www.ridemetro.org/"}], "color": "#004080", "name": "Dacoma", "short_name": "89", "text_color": "#ffffff", "url": "https://www.ridemetro.org/MetroPDFs/Schedules/BusSchedules/n089-Dacoma.pdf", "vehicle": {"icon": "//maps.gstatic.com/mapfiles/transit/iw2/6/bus2.png", "name": "Bus", "type": "BUS"}}, "num_stops": 9, "trip_short_name": "DACOMA"}, "travel_mode": "TRANSIT"}, {"distance": {"text": "0.4 mi", "value": 618}, "duration": {"text": "8 mins", "value": 461}, "end_location": {"lat": 29.8019199, "lng": -95.45428179999999}, "html_instructions": "Walk to 4400 W 18th St, Houston, TX 77092, USA", "polyline": {"points": "{`|tDlgseQd@A~@AdACbAA@[Ae@?g@ASDKP]d@}@Xq@B]QOIIOMEKKAQUGGEIAE?C?A@C@EBEV_@KMNWHMJSRa@Ts@R}@Jy@Hy@?G@Q@a@"}, "start_location": {"lat": 29.8038169, "lng": -95.458628}, "steps": [{"distance": {"text": "436 ft", "value": 133}, "duration": {"text": "2 mins", "value": 96}, "end_location": {"lat": 29.80261729999999, "lng": -95.45858140000001}, "html_instructions": "Head <b>south</b> on <b>Mangum Rd</b>", "polyline": {"points": "{`|tDlgseQd@A~@AdACbAA"}, "start_location": {"lat": 29.8038169, "lng": -95.458628}, "travel_mode": "WALKING"}, {"distance": {"text": "0.1 mi", "value": 168}, "duration": {"text": "2 mins", "value": 133}, "end_location": {"lat": 29.8021725, "lng": -95.45703209999999}, "html_instructions": "Turn <b>left</b>", "maneuver": "turn-left", "polyline": {"points": "ky{tDbgseQ@[Ae@?g@ASDKP]d@}@Xq@B]"}, "start_location": {"lat": 29.80261729999999, "lng": -95.45858140000001}, "travel_mode": "WALKING"}, {"distance": {"text": "348 ft", "value": 106}, "duration": {"text": "1 min", "value": 80}, "end_location": {"lat": 29.8024852, "lng": -95.4562641}, "html_instructions": "Turn <b>left</b><div style=\"font-size:0.9em\">Partial restricted usage road</div>", "maneuver": "turn-left", "polyline": {"points": "qv{tDl}reQQOIIOMEKKAQUGGEIAE?C?A@C@EBEV_@"}, "start_location": {"lat": 29.8021725, "lng": -95.45703209999999}, "travel_mode": "WALKING"}, {"distance": {"text": "33 ft", "value": 10}, "duration": {"text": "1 min", "value": 8}, "end_location": {"lat": 29.8025494, "lng": -95.456192}, "html_instructions": "Turn <b>left</b><div style=\"font-size:0.9em\">Restricted usage road</div>", "maneuver": "turn-left", "polyline": {"points": "qx{tDrxreQKM"}, "start_location": {"lat": 29.8024852, "lng": -95.4562641}, "travel_mode": "WALKING"}, {"distance": {"text": "0.1 mi", "value": 201}, "duration": {"text": "2 mins", "value": 144}, "end_location": {"lat": 29.8019199, "lng": -95.45428179999999}, "html_instructions": "Turn <b>right</b><div style=\"font-size:0.9em\">Restricted usage road</div><div style=\"font-size:0.9em\">Destination will be on the left</div>", "maneuver": "turn-right", "polyline": {"points": "}x{tDdxreQNWHMJSRa@Ts@R}@Jy@Hy@?G@Q@a@"}, "start_location": {"lat": 29.8025494, "lng": -95.456192}, "travel_mode": "WALKING"}], "travel_mode": "WALKING"}], "traffic_speed_entry": [], "via_waypoint": []}], "overview_polyline": {"points": "}qstDjptfQsACCG?w@?k@G??WwBABO\\eCJmAHgBCoF?_@@OH?RA?C?JS@i@?o@?iLB]A?sDAkIBcF?[\\@d@Ab@Et@Of@Sz@o@^_@v@uAZcAXeA`@y@p@u@^Yn@YPEl@K`@@vBCfB@bI?rF?pBM|C]dAGvBAdACh@IhC@jARjBj@~@PpAJvA?tAOhBm@rBc@pBAfD@l@BXILMRQvAvAf@f@ZLl@NToBR{B@cDUo[IsK@m@D_@r@qBDe@?_AGaJAs@F_@AgC?]SA_A?_EKyFJsJBcD?mKJiAABiGFoMLqFRyBtAuLr@_Gp@_G^{CVsAp@mC^iApAyCdAsBjD}E|CcEpD_Fn@_Av@sAn@{AbBwE\\oATiAXsBTqBL_BHcCAoEGiBQyBSaBiBcKUoBYyDGkIEoOAoB?m@F?Aq@@_@?Ot@A?FcFBeE?sCLmBVuBj@aC`AuHtDoAt@k@b@WPuChDw@t@{@l@iChAyA^o@Ng@@}AFmF@aDB}CEkBUq@UkAc@eA[sAUu@G}AAuBLiCf@iCZwABaBEk@G{Ck@iC_@oCMiFBqBHgBVaBXqALuCJ?wJEqPOm`@KmTEsB?uBHgB`@oBVy@f@qATa@bAyATYr@i@JG`@UdBs@fASnAMvKIb@E`ASl@Wr@e@n@q@NUp@uAXyADy@?gDKqLGqSC_GF}@Hw@XmATo@f@y@nAsAjC{Br@}@p@mA|@uByC]{BGkI?gPBoIDyQFmL@}CBwEAsGAuDMsDg@mBYgBO?Rm@CeC@sA??iB?yIMgFIeQBaYc@yEDsHCa]GqCGiNEcFDi_@CiKWcUIcM@iXFqSJwIf@kWRmW@iOCuGB_FFuFP}F\\yMRmP@}JMsMs@sRg@eQAmFBiN?}QHoCr@{HCwBSeD?{A^oFDqHBeCX?V?Z^AdBAxC?x@?XEAw@B?u@@s@BkFbCCN??H?x@?xAGxBRwAF@JADEJ]DcAFc@d@aA@YGa@ECa@IMAMFa@\\i@HmC@c@?AVC~BA`C?tB?f@sBNa@Bq@?iDDsD@gNJ{HBsPFyEFcGD]?gAGi@Mq@]e@YiA_AwAqAg@e@iBpCm@~@{CpEa@L{@vA]b@Sd@qAvB{@jAYj@EsB@_BAw@qFFoFH?GdBChCE?aAA{@Vi@~@oBB]QOYWEKKAY]GOBOZe@KMNWTa@Ra@h@qBTsBB{@"}, "summary": "", "warnings": ["Walking directions are in beta. Use caution \u2013 This route may be missing sidewalks or pedestrian paths."], "waypoint_order": []}], "status": "OK"}