{"geocoded_waypoints": [{"geocoder_status": "OK", "place_id": "ChIJV15spBTGQIYRBIMg-uH1WBw", "types": ["establishment", "point_of_interest", "primary_school", "school"]}, {"geocoder_status": "OK", "place_id": "ChIJ9_tphxzHQIYRIMyPy_d3VZU", "types": ["establishment", "point_of_interest"]}], "routes": [{"bounds": {"northeast": {"lat": 29.83926859999999, "lng": -95.45428179999999}, "southwest": {"lat": 29.80040469999999, "lng": -95.4744766}}, "copyrights": "Map data \u00a92022", "legs": [{"arrival_time": {"text": "3:50pm", "time_zone": "America/Chicago", "value": 1642024234}, "departure_time": {"text": "3:11pm", "time_zone": "America/Chicago", "value": 1642021878}, "distance": {"text": "4.3 mi", "value": 6916}, "duration": {"text": "39 mins", "value": 2356}, "end_address": "4400 W 18th St, Houston, TX 77092, USA", "end_location": {"lat": 29.8019199, "lng": -95.45428179999999}, "start_address": "4802 Chrystell Ln, Houston, TX 77092, USA", "start_location": {"lat": 29.83926859999999, "lng": -95.4621202}, "steps": [{"distance": {"text": "0.8 mi", "value": 1357}, "duration": {"text": "17 mins", "value": 1020}, "end_location": {"lat": 29.83695089999999, "lng": -95.4732562}, "html_instructions": "Walk to Antoine Dr @ Acorn St", "polyline": {"points": "m~buDf}seQLAD@h@?V?HDBF?^?f@An@@\\r@CNFhAIL?hAEb@CF?TA^C^ALA@lA?b@?P?z@@p@?D?p@?dA?B@dAAv@BlBM@@L?d@?X?D@jE?dDBdIL??FB|F?bB?`@?|@?l@?rA@r@?N?X?NG@W?"}, "start_location": {"lat": 29.83926859999999, "lng": -95.4621202}, "steps": [{"distance": {"text": "430 ft", "value": 131}, "duration": {"text": "2 mins", "value": 95}, "end_location": {"lat": 29.8387723, "lng": -95.46294139999999}, "html_instructions": "Head <b>south</b> toward <b>Mangum Rd</b>", "polyline": {"points": "m~buDf}seQLAD@h@?V?HDBF?^?f@An@@\\"}, "start_location": {"lat": 29.83926859999999, "lng": -95.4621202}, "travel_mode": "WALKING"}, {"distance": {"text": "0.1 mi", "value": 205}, "duration": {"text": "3 mins", "value": 152}, "end_location": {"lat": 29.8369002, "lng": -95.4628141}, "html_instructions": "Turn <b>left</b> onto <b>Mangum Rd</b>", "maneuver": "turn-left", "polyline": {"points": "i{buDjbteQr@CNFhAIL?hAEb@CF?TA^C^ALA"}, "start_location": {"lat": 29.8387723, "lng": -95.46294139999999}, "travel_mode": "WALKING"}, {"distance": {"text": "0.6 mi", "value": 1007}, "duration": {"text": "13 mins", "value": 751}, "end_location": {"lat": 29.8368294, "lng": -95.473255}, "html_instructions": "Turn <b>right</b> onto <b>Acorn St</b>", "maneuver": "turn-right", "polyline": {"points": "sobuDpateQ@lA?b@?P?z@@p@?D?p@?dA?B@dAAv@BlBM@@L?d@?X?D@jE?dDBdIL??FB|F?bB?`@?|@?l@?rA@r@?N?X?NG@"}, "start_location": {"lat": 29.8369002, "lng": -95.4628141}, "travel_mode": "WALKING"}, {"distance": {"text": "46 ft", "value": 14}, "duration": {"text": "1 min", "value": 22}, "end_location": {"lat": 29.83695089999999, "lng": -95.4732562}, "html_instructions": "Turn <b>right</b> onto <b>Antoine Dr</b>", "maneuver": "turn-right", "polyline": {"points": "eobuDzbveQW?"}, "start_location": {"lat": 29.8368294, "lng": -95.473255}, "travel_mode": "WALKING"}], "travel_mode": "WALKING"}, {"distance": {"text": "3.0 mi", "value": 4785}, "duration": {"text": "12 mins", "value": 700}, "end_location": {"lat": 29.800487, "lng": -95.458969}, "html_instructions": "Bus towards Downtown", "polyline": {"points": "}obuDzbveQ?IV?ZA`@C`@C`AEDAvAAvB?f@?xDA`AApACJ?PAdD?tCCL?z@AjBAbDApCAP?pB?vDApCAR?hD?b@?b@@Z?Z@t@Hb@HJBTFj@Px@X@?RHB?THv@Vp@NRFD@B@RBD?l@J`@D`@@lADx@@dAArAAhAA~AAL?`@A`@?L?D?DAX@bACh@At@?hCCX?|@AXA`AAX?v@An@?d@AT?ZA~@A|@AdBAfBC\\?T?H?@?H@N?J@D?ZBh@LTDj@Nd@PTJ`@RNHFBJHv@f@LQJQr@eAd@q@z@sADI~@uAjC{DR]lAkB|@uAFI`CqD@Ax@oAz@qAbA{Al@{@p@eA|@qAt@gAx@qA@AhDiFbFuHT_@r@cA^k@FKPSz@qAPU`@o@FKt@gAb@q@HM`A{Ah@w@dA_Bh@y@n@{@d@s@HM`@o@Zc@LQFF"}, "start_location": {"lat": 29.836951, "lng": -95.47325599999999}, "transit_details": {"arrival_stop": {"location": {"lat": 29.800487, "lng": -95.458969}, "name": "Hempstead Rd @ Mangum Rd"}, "arrival_time": {"text": "3:39pm", "time_zone": "America/Chicago", "value": 1642023598}, "departure_stop": {"location": {"lat": 29.836951, "lng": -95.47325599999999}, "name": "Antoine Dr @ Acorn St"}, "departure_time": {"text": "3:28pm", "time_zone": "America/Chicago", "value": 1642022898}, "headsign": "Downtown", "line": {"agencies": [{"name": "Metropolitan Transit Authority of Harris County", "phone": "1 (713) 635-4000", "url": "http://www.ridemetro.org/"}], "color": "#004080", "name": "Antoine / Washington", "short_name": "85", "text_color": "#ffffff", "url": "https://www.ridemetro.org/MetroPDFs/Schedules/BusSchedules/n085-Antoine-Washington.pdf", "vehicle": {"icon": "//maps.gstatic.com/mapfiles/transit/iw2/6/bus2.png", "name": "Bus", "type": "BUS"}}, "num_stops": 18, "trip_short_name": "ANTOINWAS"}, "travel_mode": "TRANSIT"}, {"distance": {"text": "0.5 mi", "value": 774}, "duration": {"text": "11 mins", "value": 636}, "end_location": {"lat": 29.8019199, "lng": -95.45428179999999}, "html_instructions": "Walk to 4400 W 18th St, Houston, TX 77092, USA", "polyline": {"points": "cl{tDliseQR[KIK?S?y@BM?c@@O?Y??QAO?OM?M@M?mED@[Ae@?g@ASDKP]d@}@Xq@B]QOIIOMEKKAQUGGEIAE?C?A@C@EBEV_@KMNWHMJSRa@Ts@R}@Jy@Hy@?G@Q@a@"}, "start_location": {"lat": 29.8005042, "lng": -95.4589534}, "steps": [{"distance": {"text": "85 ft", "value": 26}, "duration": {"text": "1 min", "value": 19}, "end_location": {"lat": 29.8004607, "lng": -95.458759}, "html_instructions": "Head <b>southeast</b> on <b>Hempstead Rd</b> toward <b>Mangum Rd</b>", "polyline": {"points": "cl{tDliseQR[KI"}, "start_location": {"lat": 29.8005042, "lng": -95.4589534}, "travel_mode": "WALKING"}, {"distance": {"text": "371 ft", "value": 113}, "duration": {"text": "2 mins", "value": 104}, "end_location": {"lat": 29.8013728, "lng": -95.458705}, "html_instructions": "Turn <b>left</b> onto <b>Mangum Rd</b>", "maneuver": "turn-left", "polyline": {"points": "{k{tDfhseQK?S?y@BM?c@@O?Y??Q"}, "start_location": {"lat": 29.8004607, "lng": -95.458759}, "travel_mode": "WALKING"}, {"distance": {"text": "52 ft", "value": 16}, "duration": {"text": "1 min", "value": 21}, "end_location": {"lat": 29.8014508, "lng": -95.4585436}, "html_instructions": "Turn <b>right</b> onto <b>W 18th St</b>", "maneuver": "turn-right", "polyline": {"points": "qq{tDzgseQAO?OM?"}, "start_location": {"lat": 29.8013728, "lng": -95.458705}, "travel_mode": "WALKING"}, {"distance": {"text": "440 ft", "value": 134}, "duration": {"text": "2 mins", "value": 127}, "end_location": {"lat": 29.80261729999999, "lng": -95.45858140000001}, "html_instructions": "Turn <b>left</b> onto <b>Mangum Rd</b>", "maneuver": "turn-left", "polyline": {"points": "ar{tDzfseQM@M?mED"}, "start_location": {"lat": 29.8014508, "lng": -95.4585436}, "travel_mode": "WALKING"}, {"distance": {"text": "0.1 mi", "value": 168}, "duration": {"text": "2 mins", "value": 133}, "end_location": {"lat": 29.8021725, "lng": -95.45703209999999}, "html_instructions": "Turn <b>right</b>", "maneuver": "turn-right", "polyline": {"points": "ky{tDbgseQ@[Ae@?g@ASDKP]d@}@Xq@B]"}, "start_location": {"lat": 29.80261729999999, "lng": -95.45858140000001}, "travel_mode": "WALKING"}, {"distance": {"text": "348 ft", "value": 106}, "duration": {"text": "1 min", "value": 80}, "end_location": {"lat": 29.8024852, "lng": -95.4562641}, "html_instructions": "Turn <b>left</b><div style=\"font-size:0.9em\">Partial restricted usage road</div>", "maneuver": "turn-left", "polyline": {"points": "qv{tDl}reQQOIIOMEKKAQUGGEIAE?C?A@C@EBEV_@"}, "start_location": {"lat": 29.8021725, "lng": -95.45703209999999}, "travel_mode": "WALKING"}, {"distance": {"text": "33 ft", "value": 10}, "duration": {"text": "1 min", "value": 8}, "end_location": {"lat": 29.8025494, "lng": -95.456192}, "html_instructions": "Turn <b>left</b><div style=\"font-size:0.9em\">Restricted usage road</div>", "maneuver": "turn-left", "polyline": {"points": "qx{tDrxreQKM"}, "start_location": {"lat": 29.8024852, "lng": -95.4562641}, "travel_mode": "WALKING"}, {"distance": {"text": "0.1 mi", "value": 201}, "duration": {"text": "2 mins", "value": 144}, "end_location": {"lat": 29.8019199, "lng": -95.45428179999999}, "html_instructions": "Turn <b>right</b><div style=\"font-size:0.9em\">Restricted usage road</div><div style=\"font-size:0.9em\">Destination will be on the left</div>", "maneuver": "turn-right", "polyline": {"points": "}x{tDdxreQNWHMJSRa@Ts@R}@Jy@Hy@?G@Q@a@"}, "start_location": {"lat": 29.8025494, "lng": -95.456192}, "travel_mode": "WALKING"}], "travel_mode": "WALKING"}], "traffic_speed_entry": [], "via_waypoint": []}], "overview_polyline": {"points": "m~buDf}seQtA?LL?fA?lAr@CNFvAIlBI|AGLA@lA?t@@dD?fEBlBM@@r@@pKBdIL?BdG?pF@pD?NG@W??IV?|@EbBI|ACzKCtGEdWKfOC~BBxAR`@JzBt@XHv@Vp@NXHVDr@JbAFfCFxCCxEEz@AxLKzIItIE|@D~@RpA`@nAl@bAp@Xc@zCuElH{KpLmQdSsZdFsHdDcFhEmGlBuCLQFFACR[KIK?mAB{A@Aa@?OM?[@mED@[AmAB_@v@{AXq@B][YUYKAQUMQ?ODKV_@KMXe@^u@Ts@^wBHaABs@"}, "summary": "", "warnings": ["Walking directions are in beta. Use caution \u2013 This route may be missing sidewalks or pedestrian paths."], "waypoint_order": []}, {"bounds": {"northeast": {"lat": 29.83926859999999, "lng": -95.4519566}, "southwest": {"lat": 29.8013804, "lng": -95.4744766}}, "copyrights": "Map data \u00a92022", "legs": [{"arrival_time": {"text": "3:49pm", "time_zone": "America/Chicago", "value": 1642024167}, "departure_time": {"text": "3:11pm", "time_zone": "America/Chicago", "value": 1642021878}, "distance": {"text": "4.4 mi", "value": 7070}, "duration": {"text": "38 mins", "value": 2289}, "end_address": "4400 W 18th St, Houston, TX 77092, USA", "end_location": {"lat": 29.8019199, "lng": -95.45428179999999}, "start_address": "4802 Chrystell Ln, Houston, TX 77092, USA", "start_location": {"lat": 29.83926859999999, "lng": -95.4621202}, "steps": [{"distance": {"text": "0.8 mi", "value": 1357}, "duration": {"text": "17 mins", "value": 1020}, "end_location": {"lat": 29.83695089999999, "lng": -95.4732562}, "html_instructions": "Walk to Antoine Dr @ Acorn St", "polyline": {"points": "m~buDf}seQLAD@h@?V?HDBF?^?f@An@@\\r@CNFhAIL?hAEb@CF?TA^C^ALA@lA?b@?P?z@@p@?D?p@?dA?B@dAAv@BlBM@@L?d@?X?D@jE?dDBdIL??FB|F?bB?`@?|@?l@?rA@r@?N?X?NG@W?"}, "start_location": {"lat": 29.83926859999999, "lng": -95.4621202}, "steps": [{"distance": {"text": "430 ft", "value": 131}, "duration": {"text": "2 mins", "value": 95}, "end_location": {"lat": 29.8387723, "lng": -95.46294139999999}, "html_instructions": "Head <b>south</b> toward <b>Mangum Rd</b>", "polyline": {"points": "m~buDf}seQLAD@h@?V?HDBF?^?f@An@@\\"}, "start_location": {"lat": 29.83926859999999, "lng": -95.4621202}, "travel_mode": "WALKING"}, {"distance": {"text": "0.1 mi", "value": 205}, "duration": {"text": "3 mins", "value": 152}, "end_location": {"lat": 29.8369002, "lng": -95.4628141}, "html_instructions": "Turn <b>left</b> onto <b>Mangum Rd</b>", "maneuver": "turn-left", "polyline": {"points": "i{buDjbteQr@CNFhAIL?hAEb@CF?TA^C^ALA"}, "start_location": {"lat": 29.8387723, "lng": -95.46294139999999}, "travel_mode": "WALKING"}, {"distance": {"text": "0.6 mi", "value": 1007}, "duration": {"text": "13 mins", "value": 751}, "end_location": {"lat": 29.8368294, "lng": -95.473255}, "html_instructions": "Turn <b>right</b> onto <b>Acorn St</b>", "maneuver": "turn-right", "polyline": {"points": "sobuDpateQ@lA?b@?P?z@@p@?D?p@?dA?B@dAAv@BlBM@@L?d@?X?D@jE?dDBdIL??FB|F?bB?`@?|@?l@?rA@r@?N?X?NG@"}, "start_location": {"lat": 29.8369002, "lng": -95.4628141}, "travel_mode": "WALKING"}, {"distance": {"text": "46 ft", "value": 14}, "duration": {"text": "1 min", "value": 22}, "end_location": {"lat": 29.83695089999999, "lng": -95.4732562}, "html_instructions": "Turn <b>right</b> onto <b>Antoine Dr</b>", "maneuver": "turn-right", "polyline": {"points": "eobuDzbveQW?"}, "start_location": {"lat": 29.8368294, "lng": -95.473255}, "travel_mode": "WALKING"}], "travel_mode": "WALKING"}, {"distance": {"text": "2.8 mi", "value": 4441}, "duration": {"text": "11 mins", "value": 649}, "end_location": {"lat": 29.802494, "lng": -95.461699}, "html_instructions": "Bus towards Downtown", "polyline": {"points": "}obuDzbveQ?IV?ZA`@C`@C`AEDAvAAvB?f@?xDA`AApACJ?PAdD?tCCL?z@AjBAbDApCAP?pB?vDApCAR?hD?b@?b@@Z?Z@t@Hb@HJBTFj@Px@X@?RHB?THv@Vp@NRFD@B@RBD?l@J`@D`@@lADx@@dAArAAhAA~AAL?`@A`@?L?D?DAX@bACh@At@?hCCX?|@AXA`AAX?v@An@?d@AT?ZA~@A|@AdBAfBC\\?T?H?@?H@N?J@D?ZBh@LTDj@Nd@PTJ`@RNHFBJHv@f@LQJQr@eAd@q@z@sADI~@uAjC{DR]lAkB|@uAFI`CqD@Ax@oAz@qAbA{Al@{@p@eA|@qAt@gAx@qA@AhDiFbFuHT_@r@cA^k@FKPSz@qAPU`@o@FKt@gAb@q@HH"}, "start_location": {"lat": 29.836951, "lng": -95.47325599999999}, "transit_details": {"arrival_stop": {"location": {"lat": 29.802494, "lng": -95.461699}, "name": "Hempstead Rd @ Long Point Rd"}, "arrival_time": {"text": "3:39pm", "time_zone": "America/Chicago", "value": 1642023547}, "departure_stop": {"location": {"lat": 29.836951, "lng": -95.47325599999999}, "name": "Antoine Dr @ Acorn St"}, "departure_time": {"text": "3:28pm", "time_zone": "America/Chicago", "value": 1642022898}, "headsign": "Downtown", "line": {"agencies": [{"name": "Metropolitan Transit Authority of Harris County", "phone": "1 (713) 635-4000", "url": "http://www.ridemetro.org/"}], "color": "#004080", "name": "Antoine / Washington", "short_name": "85", "text_color": "#ffffff", "url": "https://www.ridemetro.org/MetroPDFs/Schedules/BusSchedules/n085-Antoine-Washington.pdf", "vehicle": {"icon": "//maps.gstatic.com/mapfiles/transit/iw2/6/bus2.png", "name": "Bus", "type": "BUS"}}, "num_stops": 17, "trip_short_name": "ANTOINWAS"}, "travel_mode": "TRANSIT"}, {"distance": {"text": "0.6 mi", "value": 898}, "duration": {"text": "2 mins", "value": 133}, "end_location": {"lat": 29.80140099999999, "lng": -95.45297}, "html_instructions": "Bus towards Kashmere TC", "polyline": {"points": "qx{tDrzseQIIHM`A{Ah@w@dA_Bh@y@@]EsB?]@g@?YAU?a@AyE?I?IAgA?uAAuC?o@@W?uC?W?]AuAAi@?iA?_B?AH?"}, "start_location": {"lat": 29.802494, "lng": -95.461699}, "transit_details": {"arrival_stop": {"location": {"lat": 29.80140099999999, "lng": -95.45297}, "name": "W 18th St @ Northwest Fwy"}, "arrival_time": {"text": "3:44pm", "time_zone": "America/Chicago", "value": 1642023862}, "departure_stop": {"location": {"lat": 29.802494, "lng": -95.461699}, "name": "Hempstead Rd @ Long Point Rd"}, "departure_time": {"text": "3:42pm", "time_zone": "America/Chicago", "value": 1642023729}, "headsign": "Kashmere TC", "line": {"agencies": [{"name": "Metropolitan Transit Authority of Harris County", "phone": "1 (713) 635-4000", "url": "http://www.ridemetro.org/"}], "color": "#004080", "name": "Long Point / Cavalcade", "short_name": "26", "text_color": "#ffffff", "url": "https://www.ridemetro.org/MetroPDFs/Schedules/BusSchedules/n026-Long-Point-Cavalcade.pdf", "vehicle": {"icon": "//maps.gstatic.com/mapfiles/transit/iw2/6/bus2.png", "name": "Bus", "type": "BUS"}}, "num_stops": 3, "trip_short_name": "LONGPOINT"}, "travel_mode": "TRANSIT"}, {"distance": {"text": "0.2 mi", "value": 374}, "duration": {"text": "5 mins", "value": 304}, "end_location": {"lat": 29.8019199, "lng": -95.45428179999999}, "html_instructions": "Walk to 4400 W 18th St, Houston, TX 77092, USA", "polyline": {"points": "{q{tD`dreQ@]?g@@mACu@MDSFMD?j@?h@BnAAV@|@@hBYDe@F@D@R@f@?D"}, "start_location": {"lat": 29.8014155, "lng": -95.4529697}, "steps": [{"distance": {"text": "328 ft", "value": 100}, "duration": {"text": "1 min", "value": 78}, "end_location": {"lat": 29.8014885, "lng": -95.45198769999999}, "html_instructions": "Head <b>east</b> on <b>W 18th St</b>/<wbr/><b>NW Mall</b> toward <b>W Loop S Fwy</b><div style=\"font-size:0.9em\">Pass by Burger King (on the right in 279&nbsp;ft)</div>", "polyline": {"points": "{q{tD`dreQ@]?g@@mACu@MD"}, "start_location": {"lat": 29.8014155, "lng": -95.4529697}, "travel_mode": "WALKING"}, {"distance": {"text": "0.1 mi", "value": 198}, "duration": {"text": "3 mins", "value": 165}, "end_location": {"lat": 29.8016283, "lng": -95.4538499}, "html_instructions": "Cross the road", "polyline": {"points": "ir{tD|}qeQSFMD?j@?h@BnAAV@|@@hB"}, "start_location": {"lat": 29.8014885, "lng": -95.45198769999999}, "travel_mode": "WALKING"}, {"distance": {"text": "131 ft", "value": 40}, "duration": {"text": "1 min", "value": 34}, "end_location": {"lat": 29.80194599999999, "lng": -95.4539156}, "html_instructions": "Turn <b>right</b><div style=\"font-size:0.9em\">Restricted usage road</div>", "maneuver": "turn-right", "polyline": {"points": "es{tDpireQYDe@F"}, "start_location": {"lat": 29.8016283, "lng": -95.4538499}, "travel_mode": "WALKING"}, {"distance": {"text": "118 ft", "value": 36}, "duration": {"text": "1 min", "value": 27}, "end_location": {"lat": 29.8019199, "lng": -95.45428179999999}, "html_instructions": "Turn <b>left</b><div style=\"font-size:0.9em\">Restricted usage road</div><div style=\"font-size:0.9em\">Destination will be on the right</div>", "maneuver": "turn-left", "polyline": {"points": "eu{tD~ireQ@D@R@f@?D"}, "start_location": {"lat": 29.80194599999999, "lng": -95.4539156}, "travel_mode": "WALKING"}], "travel_mode": "WALKING"}], "traffic_speed_entry": [], "via_waypoint": []}], "overview_polyline": {"points": "m~buDf}seQtA?LL?fA?lAr@CNFvAIlBI|AGLA@lA?t@@dD?fEBlBM@@r@@pKBdIL?BdG?pF@pD?NG@W??IV?|@EbBI|ACzKCtGEdWKfOC~BBxAR`@JzBt@XHv@Vp@NXHVDr@JbAFfCFxCCxEEz@AxLKzIItIE|@D~@RpA`@nAl@bAp@Xc@zCuElH{KpLmQdSsZdFsHxAyBHHIIjAiBnBwCh@y@@]EqC?yBCuHAkF@gAAaHAuED?@eAAcCa@LMD?j@BxB?tA@hBYDe@F@DBz@?D"}, "summary": "", "warnings": ["Walking directions are in beta. Use caution \u2013 This route may be missing sidewalks or pedestrian paths."], "waypoint_order": []}, {"bounds": {"northeast": {"lat": 29.83926859999999, "lng": -95.45428179999999}, "southwest": {"lat": 29.80040469999999, "lng": -95.4744766}}, "copyrights": "Map data \u00a92022", "legs": [{"arrival_time": {"text": "4:05pm", "time_zone": "America/Chicago", "value": 1642025134}, "departure_time": {"text": "3:26pm", "time_zone": "America/Chicago", "value": 1642022778}, "distance": {"text": "4.3 mi", "value": 6916}, "duration": {"text": "39 mins", "value": 2356}, "end_address": "4400 W 18th St, Houston, TX 77092, USA", "end_location": {"lat": 29.8019199, "lng": -95.45428179999999}, "start_address": "4802 Chrystell Ln, Houston, TX 77092, USA", "start_location": {"lat": 29.83926859999999, "lng": -95.4621202}, "steps": [{"distance": {"text": "0.8 mi", "value": 1357}, "duration": {"text": "17 mins", "value": 1020}, "end_location": {"lat": 29.83695089999999, "lng": -95.4732562}, "html_instructions": "Walk to Antoine Dr @ Acorn St", "polyline": {"points": "m~buDf}seQLAD@h@?V?HDBF?^?f@An@@\\r@CNFhAIL?hAEb@CF?TA^C^ALA@lA?b@?P?z@@p@?D?p@?dA?B@dAAv@BlBM@@L?d@?X?D@jE?dDBdIL??FB|F?bB?`@?|@?l@?rA@r@?N?X?NG@W?"}, "start_location": {"lat": 29.83926859999999, "lng": -95.4621202}, "steps": [{"distance": {"text": "430 ft", "value": 131}, "duration": {"text": "2 mins", "value": 95}, "end_location": {"lat": 29.8387723, "lng": -95.46294139999999}, "html_instructions": "Head <b>south</b> toward <b>Mangum Rd</b>", "polyline": {"points": "m~buDf}seQLAD@h@?V?HDBF?^?f@An@@\\"}, "start_location": {"lat": 29.83926859999999, "lng": -95.4621202}, "travel_mode": "WALKING"}, {"distance": {"text": "0.1 mi", "value": 205}, "duration": {"text": "3 mins", "value": 152}, "end_location": {"lat": 29.8369002, "lng": -95.4628141}, "html_instructions": "Turn <b>left</b> onto <b>Mangum Rd</b>", "maneuver": "turn-left", "polyline": {"points": "i{buDjbteQr@CNFhAIL?hAEb@CF?TA^C^ALA"}, "start_location": {"lat": 29.8387723, "lng": -95.46294139999999}, "travel_mode": "WALKING"}, {"distance": {"text": "0.6 mi", "value": 1007}, "duration": {"text": "13 mins", "value": 751}, "end_location": {"lat": 29.8368294, "lng": -95.473255}, "html_instructions": "Turn <b>right</b> onto <b>Acorn St</b>", "maneuver": "turn-right", "polyline": {"points": "sobuDpateQ@lA?b@?P?z@@p@?D?p@?dA?B@dAAv@BlBM@@L?d@?X?D@jE?dDBdIL??FB|F?bB?`@?|@?l@?rA@r@?N?X?NG@"}, "start_location": {"lat": 29.8369002, "lng": -95.4628141}, "travel_mode": "WALKING"}, {"distance": {"text": "46 ft", "value": 14}, "duration": {"text": "1 min", "value": 22}, "end_location": {"lat": 29.83695089999999, "lng": -95.4732562}, "html_instructions": "Turn <b>right</b> onto <b>Antoine Dr</b>", "maneuver": "turn-right", "polyline": {"points": "eobuDzbveQW?"}, "start_location": {"lat": 29.8368294, "lng": -95.473255}, "travel_mode": "WALKING"}], "travel_mode": "WALKING"}, {"distance": {"text": "3.0 mi", "value": 4785}, "duration": {"text": "12 mins", "value": 700}, "end_location": {"lat": 29.800487, "lng": -95.458969}, "html_instructions": "Bus towards Downtown", "polyline": {"points": "}obuDzbveQ?IV?ZA`@C`@C`AEDAvAAvB?f@?xDA`AApACJ?PAdD?tCCL?z@AjBAbDApCAP?pB?vDApCAR?hD?b@?b@@Z?Z@t@Hb@HJBTFj@Px@X@?RHB?THv@Vp@NRFD@B@RBD?l@J`@D`@@lADx@@dAArAAhAA~AAL?`@A`@?L?D?DAX@bACh@At@?hCCX?|@AXA`AAX?v@An@?d@AT?ZA~@A|@AdBAfBC\\?T?H?@?H@N?J@D?ZBh@LTDj@Nd@PTJ`@RNHFBJHv@f@LQJQr@eAd@q@z@sADI~@uAjC{DR]lAkB|@uAFI`CqD@Ax@oAz@qAbA{Al@{@p@eA|@qAt@gAx@qA@AhDiFbFuHT_@r@cA^k@FKPSz@qAPU`@o@FKt@gAb@q@HM`A{Ah@w@dA_Bh@y@n@{@d@s@HM`@o@Zc@LQFF"}, "start_location": {"lat": 29.836951, "lng": -95.47325599999999}, "transit_details": {"arrival_stop": {"location": {"lat": 29.800487, "lng": -95.458969}, "name": "Hempstead Rd @ Mangum Rd"}, "arrival_time": {"text": "3:54pm", "time_zone": "America/Chicago", "value": 1642024498}, "departure_stop": {"location": {"lat": 29.836951, "lng": -95.47325599999999}, "name": "Antoine Dr @ Acorn St"}, "departure_time": {"text": "3:43pm", "time_zone": "America/Chicago", "value": 1642023798}, "headsign": "Downtown", "line": {"agencies": [{"name": "Metropolitan Transit Authority of Harris County", "phone": "1 (713) 635-4000", "url": "http://www.ridemetro.org/"}], "color": "#004080", "name": "Antoine / Washington", "short_name": "85", "text_color": "#ffffff", "url": "https://www.ridemetro.org/MetroPDFs/Schedules/BusSchedules/n085-Antoine-Washington.pdf", "vehicle": {"icon": "//maps.gstatic.com/mapfiles/transit/iw2/6/bus2.png", "name": "Bus", "type": "BUS"}}, "num_stops": 18, "trip_short_name": "ANTOINWAS"}, "travel_mode": "TRANSIT"}, {"distance": {"text": "0.5 mi", "value": 774}, "duration": {"text": "11 mins", "value": 636}, "end_location": {"lat": 29.8019199, "lng": -95.45428179999999}, "html_instructions": "Walk to 4400 W 18th St, Houston, TX 77092, USA", "polyline": {"points": "cl{tDliseQR[KIK?S?y@BM?c@@O?Y??QAO?OM?M@M?mED@[Ae@?g@ASDKP]d@}@Xq@B]QOIIOMEKKAQUGGEIAE?C?A@C@EBEV_@KMNWHMJSRa@Ts@R}@Jy@Hy@?G@Q@a@"}, "start_location": {"lat": 29.8005042, "lng": -95.4589534}, "steps": [{"distance": {"text": "85 ft", "value": 26}, "duration": {"text": "1 min", "value": 19}, "end_location": {"lat": 29.8004607, "lng": -95.458759}, "html_instructions": "Head <b>southeast</b> on <b>Hempstead Rd</b> toward <b>Mangum Rd</b>", "polyline": {"points": "cl{tDliseQR[KI"}, "start_location": {"lat": 29.8005042, "lng": -95.4589534}, "travel_mode": "WALKING"}, {"distance": {"text": "371 ft", "value": 113}, "duration": {"text": "2 mins", "value": 104}, "end_location": {"lat": 29.8013728, "lng": -95.458705}, "html_instructions": "Turn <b>left</b> onto <b>Mangum Rd</b>", "maneuver": "turn-left", "polyline": {"points": "{k{tDfhseQK?S?y@BM?c@@O?Y??Q"}, "start_location": {"lat": 29.8004607, "lng": -95.458759}, "travel_mode": "WALKING"}, {"distance": {"text": "52 ft", "value": 16}, "duration": {"text": "1 min", "value": 21}, "end_location": {"lat": 29.8014508, "lng": -95.4585436}, "html_instructions": "Turn <b>right</b> onto <b>W 18th St</b>", "maneuver": "turn-right", "polyline": {"points": "qq{tDzgseQAO?OM?"}, "start_location": {"lat": 29.8013728, "lng": -95.458705}, "travel_mode": "WALKING"}, {"distance": {"text": "440 ft", "value": 134}, "duration": {"text": "2 mins", "value": 127}, "end_location": {"lat": 29.80261729999999, "lng": -95.45858140000001}, "html_instructions": "Turn <b>left</b> onto <b>Mangum Rd</b>", "maneuver": "turn-left", "polyline": {"points": "ar{tDzfseQM@M?mED"}, "start_location": {"lat": 29.8014508, "lng": -95.4585436}, "travel_mode": "WALKING"}, {"distance": {"text": "0.1 mi", "value": 168}, "duration": {"text": "2 mins", "value": 133}, "end_location": {"lat": 29.8021725, "lng": -95.45703209999999}, "html_instructions": "Turn <b>right</b>", "maneuver": "turn-right", "polyline": {"points": "ky{tDbgseQ@[Ae@?g@ASDKP]d@}@Xq@B]"}, "start_location": {"lat": 29.80261729999999, "lng": -95.45858140000001}, "travel_mode": "WALKING"}, {"distance": {"text": "348 ft", "value": 106}, "duration": {"text": "1 min", "value": 80}, "end_location": {"lat": 29.8024852, "lng": -95.4562641}, "html_instructions": "Turn <b>left</b><div style=\"font-size:0.9em\">Partial restricted usage road</div>", "maneuver": "turn-left", "polyline": {"points": "qv{tDl}reQQOIIOMEKKAQUGGEIAE?C?A@C@EBEV_@"}, "start_location": {"lat": 29.8021725, "lng": -95.45703209999999}, "travel_mode": "WALKING"}, {"distance": {"text": "33 ft", "value": 10}, "duration": {"text": "1 min", "value": 8}, "end_location": {"lat": 29.8025494, "lng": -95.456192}, "html_instructions": "Turn <b>left</b><div style=\"font-size:0.9em\">Restricted usage road</div>", "maneuver": "turn-left", "polyline": {"points": "qx{tDrxreQKM"}, "start_location": {"lat": 29.8024852, "lng": -95.4562641}, "travel_mode": "WALKING"}, {"distance": {"text": "0.1 mi", "value": 201}, "duration": {"text": "2 mins", "value": 144}, "end_location": {"lat": 29.8019199, "lng": -95.45428179999999}, "html_instructions": "Turn <b>right</b><div style=\"font-size:0.9em\">Restricted usage road</div><div style=\"font-size:0.9em\">Destination will be on the left</div>", "maneuver": "turn-right", "polyline": {"points": "}x{tDdxreQNWHMJSRa@Ts@R}@Jy@Hy@?G@Q@a@"}, "start_location": {"lat": 29.8025494, "lng": -95.456192}, "travel_mode": "WALKING"}], "travel_mode": "WALKING"}], "traffic_speed_entry": [], "via_waypoint": []}], "overview_polyline": {"points": "m~buDf}seQtA?LL?fA?lAr@CNFvAIlBI|AGLA@lA?t@@dD?fEBlBM@@r@@pKBdIL?BdG?pF@pD?NG@W??IV?|@EbBI|ACzKCtGEdWKfOC~BBxAR`@JzBt@XHv@Vp@NXHVDr@JbAFfCFxCCxEEz@AxLKzIItIE|@D~@RpA`@nAl@bAp@Xc@zCuElH{KpLmQdSsZdFsHdDcFhEmGlBuCLQFFACR[KIK?mAB{A@Aa@?OM?[@mED@[AmAB_@v@{AXq@B][YUYKAQUMQ?ODKV_@KMXe@^u@Ts@^wBHaABs@"}, "summary": "", "warnings": ["Walking directions are in beta. Use caution \u2013 This route may be missing sidewalks or pedestrian paths."], "waypoint_order": []}, {"bounds": {"northeast": {"lat": 29.83926859999999, "lng": -95.38748149999999}, "southwest": {"lat": 29.8015904, "lng": -95.46295529999999}}, "copyrights": "Map data \u00a92022", "legs": [{"arrival_time": {"text": "4:04pm", "time_zone": "America/Chicago", "value": 1642025097}, "departure_time": {"text": "3:00pm", "time_zone": "America/Chicago", "value": 1642021214}, "distance": {"text": "10.6 mi", "value": 17015}, "duration": {"text": "1 hour 5 mins", "value": 3883}, "end_address": "4400 W 18th St, Houston, TX 77092, USA", "end_location": {"lat": 29.8019199, "lng": -95.45428179999999}, "start_address": "4802 Chrystell Ln, Houston, TX 77092, USA", "start_location": {"lat": 29.83926859999999, "lng": -95.4621202}, "steps": [{"distance": {"text": "0.6 mi", "value": 919}, "duration": {"text": "12 mins", "value": 693}, "end_location": {"lat": 29.8323474, "lng": -95.4616439}, "html_instructions": "Walk to W 43rd St @ Pinon Dr", "polyline": {"points": "m~buDf}seQLAD@h@?V?HDBF?^?f@An@@\\r@CNFhAIL?hAEb@CF?TA^C^AAOFAlBGZCL?pAEjBGL?zCMLAfBEr@CLAZ?z@C`AEL?J?X?N??I?W@EAW?yA"}, "start_location": {"lat": 29.83926859999999, "lng": -95.4621202}, "steps": [{"distance": {"text": "430 ft", "value": 131}, "duration": {"text": "2 mins", "value": 95}, "end_location": {"lat": 29.8387723, "lng": -95.46294139999999}, "html_instructions": "Head <b>south</b> toward <b>Mangum Rd</b>", "polyline": {"points": "m~buDf}seQLAD@h@?V?HDBF?^?f@An@@\\"}, "start_location": {"lat": 29.83926859999999, "lng": -95.4621202}, "travel_mode": "WALKING"}, {"distance": {"text": "0.4 mi", "value": 711}, "duration": {"text": "9 mins", "value": 534}, "end_location": {"lat": 29.8323539, "lng": -95.46241470000001}, "html_instructions": "Turn <b>left</b> onto <b>Mangum Rd</b>", "maneuver": "turn-left", "polyline": {"points": "i{buDjbteQr@CNFhAIL?hAEb@CF?TA^C^AAOFAlBGZCL?pAEjBGL?zCMLAfBEr@CLAZ?z@C`AEL?J?X?N?"}, "start_location": {"lat": 29.8387723, "lng": -95.46294139999999}, "travel_mode": "WALKING"}, {"distance": {"text": "253 ft", "value": 77}, "duration": {"text": "1 min", "value": 64}, "end_location": {"lat": 29.8323474, "lng": -95.4616439}, "html_instructions": "Turn <b>left</b> onto <b>W 43rd St</b><div style=\"font-size:0.9em\">Destination will be on the right</div>", "maneuver": "turn-left", "polyline": {"points": "esauD`_teQ?I?W@EAW?yA"}, "start_location": {"lat": 29.8323539, "lng": -95.46241470000001}, "travel_mode": "WALKING"}], "travel_mode": "WALKING"}, {"distance": {"text": "4.0 mi", "value": 6370}, "duration": {"text": "16 mins", "value": 951}, "end_location": {"lat": 29.828287, "lng": -95.39790599999999}, "html_instructions": "Bus towards Northline TC", "polyline": {"points": "csauDfzseQG??[CeG?aB?GAqBAyDAYCqEAyBAq@CC?AAA?EAE?ECi@JD?e@AyDAoAAg@AwB?_@?S?YAW?]A_AAc@?Q?a@CuCCkB?GAiC?SAmB?A?]AY?e@?yAAc@?M?q@AW?uBAaA?EAeD?M?a@?[ASAQ?]AQAqA?U@i@?g@Aw@@o@@m@B[BYBUDQBSDUDMJa@BIJ_@Xo@\\m@f@{@pAeCHSbBwC\\m@`AiB`@s@~@cBvAkCHM`BwCTe@NWVm@Re@FQPm@HYJe@DUD[Dg@@OB{@@oAG[?s@?SAQ?{@?E?QAqA?c@?K?a@AmC?cB?O?[As@?W?{B?K?Q?oAAU?]?[?[?K?QCc@Ei@CWAOKaAIq@SoBEYASE_@?ACYAMC[?AEy@Cw@GgBCy@AeAAeE@[@y@@c@Dk@LqAL{@RmATiAFWZgABGBML]Ro@@EBIDOFUFS?CPs@@IHYx@mFTeBb@oEF}@F{@F{A@e@@E@Q@aBCyACsAe@iIGoADS?GE}@Aw@?]AuB?]C}DAe@?k@Ku@M_AACMe@Sw@Qo@Oo@Mk@Ou@Ea@Gq@CqCAw@?aA?m@?a@AeB?W?S?w@C}B?w@?q@?G?sBC}DAsAAe@A{B?[CYAe@CgAUuDGgAD?"}, "start_location": {"lat": 29.832343, "lng": -95.461643}, "transit_details": {"arrival_stop": {"location": {"lat": 29.828287, "lng": -95.39790599999999}, "name": "Crosstimbers St @ Main St"}, "arrival_time": {"text": "3:27pm", "time_zone": "America/Chicago", "value": 1642022859}, "departure_stop": {"location": {"lat": 29.832343, "lng": -95.461643}, "name": "W 43rd St @ Pinon Dr"}, "departure_time": {"text": "3:11pm", "time_zone": "America/Chicago", "value": 1642021908}, "headsign": "Northline TC", "line": {"agencies": [{"name": "Metropolitan Transit Authority of Harris County", "phone": "1 (713) 635-4000", "url": "http://www.ridemetro.org/"}], "color": "#004080", "name": "Clay - W 43rd", "short_name": "23", "text_color": "#ffffff", "url": "https://www.ridemetro.org/MetroPDFs/Schedules/BusSchedules/n023-Clay-West-43rd.pdf", "vehicle": {"icon": "//maps.gstatic.com/mapfiles/transit/iw2/6/bus2.png", "name": "Bus", "type": "BUS"}}, "num_stops": 22, "trip_short_name": "CLAY43RD"}, "travel_mode": "TRANSIT"}, {"distance": {"text": "1.9 mi", "value": 3002}, "duration": {"text": "7 mins", "value": 440}, "end_location": {"lat": 29.803195, "lng": -95.38754999999999}, "html_instructions": "Bus towards Downtown", "polyline": {"points": "yy`uD|kgeQE?Ci@jAe@VMhCcA`@QjBs@bAa@x@]BATINIpAm@|@a@lCmAzAu@f@Wx@Y`@Oh@M`Bc@ZIbDy@lCq@VGh@Ov@SbAY~Ac@BA`AWt@QnBg@|@WlAYTGlCs@VIHCBCPE\\KZIj@O^IhBe@\\IBABATEx@U^Ir@S@?@?z@WVIdBc@NErBg@^IhCq@XGnA]hA[JCnCs@TGf@MzBm@pCu@RGbD{@`AUTG\\KjCs@b@Kp@Qt@Qv@Uv@SnA[PGRGRERAb@IJQFI\\W`Au@FL"}, "start_location": {"lat": 29.828287, "lng": -95.39790599999999}, "transit_details": {"arrival_stop": {"location": {"lat": 29.803195, "lng": -95.38754999999999}, "name": "N Main St @ Kern St"}, "arrival_time": {"text": "3:43pm", "time_zone": "America/Chicago", "value": 1642023823}, "departure_stop": {"location": {"lat": 29.828287, "lng": -95.39790599999999}, "name": "Crosstimbers St @ Main St"}, "departure_time": {"text": "3:36pm", "time_zone": "America/Chicago", "value": 1642023383}, "headsign": "Downtown", "line": {"agencies": [{"name": "Metropolitan Transit Authority of Harris County", "phone": "1 (713) 635-4000", "url": "http://www.ridemetro.org/"}], "color": "#004080", "name": "Acres Homes", "short_name": "44", "text_color": "#ffffff", "url": "https://www.ridemetro.org/MetroPDFs/Schedules/BusSchedules/n044-Acres-Homes.pdf", "vehicle": {"icon": "//maps.gstatic.com/mapfiles/transit/iw2/6/bus2.png", "name": "Bus", "type": "BUS"}}, "num_stops": 15, "trip_short_name": "ACRESHOM"}, "travel_mode": "TRANSIT"}, {"distance": {"text": "417 ft", "value": 127}, "duration": {"text": "2 mins", "value": 124}, "end_location": {"lat": 29.8040987, "lng": -95.3879358}, "html_instructions": "Walk to W Cavalcade St @ N Main St", "polyline": {"points": "c}{tD~jeeQ{@n@KHUPGHCDQ?UBOBC?O@DO?A"}, "start_location": {"lat": 29.803216, "lng": -95.3875158}, "steps": [{"distance": {"text": "377 ft", "value": 115}, "duration": {"text": "2 mins", "value": 105}, "end_location": {"lat": 29.8041286, "lng": -95.38803279999999}, "html_instructions": "Head <b>northwest</b> on <b>N Main St</b> toward <b>Studewood St</b>", "polyline": {"points": "c}{tD~jeeQ{@n@KHUPGHCDQ?UBOBC?O@"}, "start_location": {"lat": 29.803216, "lng": -95.3875158}, "travel_mode": "WALKING"}, {"distance": {"text": "39 ft", "value": 12}, "duration": {"text": "1 min", "value": 19}, "end_location": {"lat": 29.8040987, "lng": -95.3879358}, "html_instructions": "Turn <b>right</b> onto <b>W Cavalcade St</b>", "maneuver": "turn-right", "polyline": {"points": "yb|tDdneeQDO?A"}, "start_location": {"lat": 29.8041286, "lng": -95.38803279999999}, "travel_mode": "WALKING"}], "travel_mode": "WALKING"}, {"distance": {"text": "4.0 mi", "value": 6499}, "duration": {"text": "14 mins", "value": 864}, "end_location": {"lat": 29.80163, "lng": -95.454342}, "html_instructions": "Bus towards Memorial City", "polyline": {"points": "wb|tDpmeeQJBA@ETC\\Af@?P?P?LA`@@\\BpA?^@j@?H@tA?n@?b@@b@?X?P?V@`A?v@@dA?V?vA@T?lB@jB@tA?XB|E?~A@zB@nB?V?V@t@?L?R?L@R?N?f@?h@@|@?\\?d@?b@@n@?pA@|B?d@?`@@t@?T?pA@v@@rA?v@@bD@~@?nA@H?tB@^@dC?P?j@@x@?x@?t@@P?dA@|A?\\?^@dC@zB?xA?N@V?fA@`ABfE?tABtJ?pB@rA?r@?H?|@?jB?@?j@@h@AL?\\?J@f@?|B?h@?|@?n@?N?|G?J@tE?d@@dC?p@AL@J?V@P@H?B?D@F@HBH@JDPDLDLDHDJDJHLFHFHLL?@TVTVn@v@NRh@h@NPVX^f@BJBFBFf@v@P`@DZDVBT@F?D@F?H?P@P?X?N?F?j@@pAIpB@f@?V?fA?j@?V@h@AjA?h@@~@?b@@^Af@@d@?X?bA?jA?b@@nC?J?d@Aj@?v@?P@dB?jA?bC?`A?\\@dH?`D?dC@fE?jD?T@`F@vB?jD?vC?X?`E@V@zCAb@?fAAX@fB@fA?T@|B?l@A~A?x@?XAzB?`A?dB?l@?P?F?H@^?Z?@?H?@?Z?h@?f@?j@?^?t@@j@BnAAV@|@@fB?bBG?"}, "start_location": {"lat": 29.804119, "lng": -95.38793299999999}, "transit_details": {"arrival_stop": {"location": {"lat": 29.80163, "lng": -95.454342}, "name": "W 18th St @ Northwest Fwy"}, "arrival_time": {"text": "4:03pm", "time_zone": "America/Chicago", "value": 1642025020}, "departure_stop": {"location": {"lat": 29.804119, "lng": -95.38793299999999}, "name": "W Cavalcade St @ N Main St"}, "departure_time": {"text": "3:49pm", "time_zone": "America/Chicago", "value": 1642024156}, "headsign": "Memorial City", "line": {"agencies": [{"name": "Metropolitan Transit Authority of Harris County", "phone": "1 (713) 635-4000", "url": "http://www.ridemetro.org/"}], "color": "#004080", "name": "Long Point / Cavalcade", "short_name": "26", "text_color": "#ffffff", "url": "https://www.ridemetro.org/MetroPDFs/Schedules/BusSchedules/n026-Long-Point-Cavalcade.pdf", "vehicle": {"icon": "//maps.gstatic.com/mapfiles/transit/iw2/6/bus2.png", "name": "Bus", "type": "BUS"}}, "num_stops": 24, "trip_short_name": "LONGPOINT"}, "travel_mode": "TRANSIT"}, {"distance": {"text": "322 ft", "value": 98}, "duration": {"text": "1 min", "value": 77}, "end_location": {"lat": 29.8019199, "lng": -95.45428179999999}, "html_instructions": "Walk to 4400 W 18th St, Houston, TX 77092, USA", "polyline": {"points": "es{tDrlreQ?z@YEc@E?G@Q@a@"}, "start_location": {"lat": 29.8016264, "lng": -95.454342}, "steps": [{"distance": {"text": "95 ft", "value": 29}, "duration": {"text": "1 min", "value": 22}, "end_location": {"lat": 29.8016252, "lng": -95.45463819999999}, "html_instructions": "Head <b>west</b> on <b>W 18th St</b>/<wbr/><b>NW Mall</b>", "polyline": {"points": "es{tDrlreQ?z@"}, "start_location": {"lat": 29.8016264, "lng": -95.454342}, "travel_mode": "WALKING"}, {"distance": {"text": "131 ft", "value": 40}, "duration": {"text": "1 min", "value": 33}, "end_location": {"lat": 29.8019405, "lng": -95.4545788}, "html_instructions": "Turn <b>right</b><div style=\"font-size:0.9em\">Restricted usage road</div>", "maneuver": "turn-right", "polyline": {"points": "es{tDnnreQYEc@E"}, "start_location": {"lat": 29.8016252, "lng": -95.45463819999999}, "travel_mode": "WALKING"}, {"distance": {"text": "95 ft", "value": 29}, "duration": {"text": "1 min", "value": 22}, "end_location": {"lat": 29.8019199, "lng": -95.45428179999999}, "html_instructions": "Turn <b>right</b><div style=\"font-size:0.9em\">Restricted usage road</div><div style=\"font-size:0.9em\">Destination will be on the left</div>", "maneuver": "turn-right", "polyline": {"points": "cu{tDbnreQ?G@Q@a@"}, "start_location": {"lat": 29.8019405, "lng": -95.4545788}, "travel_mode": "WALKING"}], "travel_mode": "WALKING"}], "traffic_speed_entry": [], "via_waypoint": []}], "overview_polyline": {"points": "m~buDf}seQtA?LL?fA?lAr@CNFvAIlBI|AGAOFAhCKxEMdIYfDKbA??_A@yAG??[CgJAyBI_PAq@CCACAQCi@JDA_FEoGE{FQa]C{FCcBCwC@yDDiAFo@TiANk@J_@Xo@dAiBzAyCdFcJbGuKd@}@j@sAX_AT_ARiBDkCG[?s@Ae@?aAAsCCgOAeFMwBk@sFWuCUsGAgHB}AR}B`@iC\\aBp@{B^oA`@aBJc@nAsIj@mGNwCBk@BsBGmDm@yKD[GuBEoJAqAYuBu@qC]{AUwAGq@CqCAyBAmEGmREqGE_ACgAUuDGgAD?E?Ci@bBs@jDuAlFuBtDcBhFcCf@Wx@YjA]|Bm@rJcC~EsAnPiE|@YpEiAjEgAhNoDhO}Dp]cJv@KR[~AmAFLCEgAx@]ZCDQ?e@FS@DQCAJBGVEhBB~CD|HDnJNl`@JhZNn`@DhOJx]?xH@lG?hJBrL@bABZLp@Vp@^l@bDtDf@j@^f@BJFNf@v@P`@Jr@D\\@h@@bA@|BIpB@f@?~A?bA?tB@hB@pC?lE@hNBdd@Df\\A`HDbIA`FApI@lB?xCDpE@`HG??z@YEc@E?GBs@"}, "summary": "", "warnings": ["Walking directions are in beta. Use caution \u2013 This route may be missing sidewalks or pedestrian paths."], "waypoint_order": []}], "status": "OK"}