{"geocoded_waypoints": [{"geocoder_status": "OK", "place_id": "ChIJKXChhIi3QIYRMdYz_bqxcRM", "types": ["establishment", "point_of_interest", "school", "secondary_school"]}, {"geocoder_status": "OK", "place_id": "ChIJ9_tphxzHQIYRIMyPy_d3VZU", "types": ["establishment", "point_of_interest"]}], "routes": [{"bounds": {"northeast": {"lat": 29.8760241, "lng": -95.3613081}, "southwest": {"lat": 29.8015904, "lng": -95.45463819999999}}, "copyrights": "Map data \u00a92022", "legs": [{"arrival_time": {"text": "4:34pm", "time_zone": "America/Chicago", "value": 1642026897}, "departure_time": {"text": "3:26pm", "time_zone": "America/Chicago", "value": 1642022774}, "distance": {"text": "13.4 mi", "value": 21635}, "duration": {"text": "1 hour 9 mins", "value": 4123}, "end_address": "4400 W 18th St, Houston, TX 77092, USA", "end_location": {"lat": 29.8019199, "lng": -95.45428179999999}, "start_address": "10702 E Hardy Rd, Houston, TX 77093, USA", "start_location": {"lat": 29.8687584, "lng": -95.3636889}, "steps": [{"distance": {"text": "0.5 mi", "value": 800}, "duration": {"text": "10 mins", "value": 626}, "end_location": {"lat": 29.8709158, "lng": -95.3613653}, "html_instructions": "Walk to Little York Rd @ Little York Plaza", "polyline": {"points": "wvhuD`v`eQp@MjAQPCb@GF?B?@@@@@F@PBXkDj@qA@@NK@c@Ha@Fc@FkC`@c@F]FM@KBM@?I?WAsAAQA_C?c@Aq@Ak@?k@Aq@@w@CoAE?"}, "start_location": {"lat": 29.8687584, "lng": -95.3636889}, "steps": [{"distance": {"text": "463 ft", "value": 141}, "duration": {"text": "2 mins", "value": 101}, "end_location": {"lat": 29.8677395, "lng": -95.3637535}, "html_instructions": "Head <b>south</b> toward <b>Hardy St</b>", "polyline": {"points": "wvhuD`v`eQp@MjAQPCb@GF?B?@@@@@F@PBX"}, "start_location": {"lat": 29.8687584, "lng": -95.3636889}, "travel_mode": "WALKING"}, {"distance": {"text": "0.2 mi", "value": 347}, "duration": {"text": "5 mins", "value": 295}, "end_location": {"lat": 29.8708229, "lng": -95.3644923}, "html_instructions": "Turn <b>right</b> onto <b>Hardy St</b>", "maneuver": "turn-right", "polyline": {"points": "kphuDlv`eQkDj@qA@@NK@c@Ha@Fc@FkC`@c@F]FM@KBM@"}, "start_location": {"lat": 29.8677395, "lng": -95.3637535}, "travel_mode": "WALKING"}, {"distance": {"text": "0.2 mi", "value": 305}, "duration": {"text": "4 mins", "value": 225}, "end_location": {"lat": 29.8708875, "lng": -95.3613652}, "html_instructions": "Turn <b>right</b> onto <b>Little York Rd</b>", "maneuver": "turn-right", "polyline": {"points": "sciuD`{`eQ?I?WAsAAQA_C?c@Aq@Ak@?k@Aq@@w@CoA"}, "start_location": {"lat": 29.8708229, "lng": -95.3644923}, "travel_mode": "WALKING"}, {"distance": {"text": "23 ft", "value": 7}, "duration": {"text": "1 min", "value": 5}, "end_location": {"lat": 29.8709158, "lng": -95.3613653}, "html_instructions": "Turn <b>left</b><div style=\"font-size:0.9em\">Destination will be on the right</div>", "maneuver": "turn-left", "polyline": {"points": "adiuDpg`eQE?"}, "start_location": {"lat": 29.8708875, "lng": -95.3613652}, "travel_mode": "WALKING"}], "travel_mode": "WALKING"}, {"distance": {"text": "3.6 mi", "value": 5764}, "duration": {"text": "13 mins", "value": 798}, "end_location": {"lat": 29.876021, "lng": -95.414104}, "html_instructions": "Bus towards Antoine & Victory", "polyline": {"points": "gdiuDdg`eQL??H@pA?v@@p@?l@@b@?t@@d@@~B?P@rA?V?P?X?@?RBdA?@@`@@`@Dn@@N?@@@@R?BJbAPnBPrBH`ADl@J`BBhAAf@?`@?Z?h@?T?~@?j@@fA@nC?^?\\@P?r@?h@@|@@hB@pE@nD@~@B`IFlD@tD@~C?RAfH@dABdF?f@?b@BpD@vB?b@?T@h@?t@?z@@~A?|C?P?bDBxD@vH?\\@tA?~@?j@@`F@bF?`@@`A?Z?n@@d@?n@?b@@vB@|E?vA?J?J@tB?t@?X?r@@\\?Z@tD@tD?d@?B?T?Z?Z?R?V@v@?t@?h@?f@@X?zA@t@?l@?x@?~@?^?dA?~A?L@x@GfDAl@Af@An@AX?fAAl@?D?V?@?V?B?h@@nA@hA@h@?`A?`@?rBOrBQpAI`@AD[xA]tAIZ_AASAG?wBGqAGc@C]Ca@CIAQAUA]A}AK]Ak@CeAGWCiBMA\\Al@?zB?f@@rA?f@Y@aFBC??f@"}, "start_location": {"lat": 29.87091599999999, "lng": -95.361311}, "transit_details": {"arrival_stop": {"location": {"lat": 29.876021, "lng": -95.414104}, "name": "North Shepherd P&R"}, "arrival_time": {"text": "3:50pm", "time_zone": "America/Chicago", "value": 1642024200}, "departure_stop": {"location": {"lat": 29.87091599999999, "lng": -95.361311}, "name": "Little York Rd @ Little York Plaza"}, "departure_time": {"text": "3:36pm", "time_zone": "America/Chicago", "value": 1642023402}, "headsign": "Antoine & Victory", "line": {"agencies": [{"name": "Metropolitan Transit Authority of Harris County", "phone": "1 (713) 635-4000", "url": "http://www.ridemetro.org/"}], "color": "#004080", "name": "Langley - Little York", "short_name": "3", "text_color": "#ffffff", "url": "https://www.ridemetro.org/MetroPDFs/Schedules/BusSchedules/n003-Langley-Little-York.pdf", "vehicle": {"icon": "//maps.gstatic.com/mapfiles/transit/iw2/6/bus2.png", "name": "Bus", "type": "BUS"}}, "num_stops": 13, "trip_short_name": "LANGLEY - LITTLE YORK"}, "travel_mode": "TRANSIT"}, {"distance": {"text": "5.8 mi", "value": 9298}, "duration": {"text": "21 mins", "value": 1260}, "end_location": {"lat": 29.803894, "lng": -95.398252}, "html_instructions": "Bus towards Hobby Airport", "polyline": {"points": "cdjuDbqjeQ?KB?d@?tEA?S?K?g@AsA?g@?{B\\BxBJ`CNP@`ADdCNl@BvCLR?z@@b@?^?f@@jAA`@Ad@?rAApA?l@?\\?PAV?`@?r@?T?rA?tEIl@AT?T?V?|BAP?J?\\AxAA^?p@A^AV?h@?V?VAv@?V?x@Ab@?dDA~BAXAn@?vBAzAA~AAT?AaA?}C?}@?iD?yB?OAY?{EAqEAsC?i@@aB?A?cBC_@Ay@?CCq@KoACUUyAESK_@\\QTK\\MPEj@IJAXAP?dA?b@?nDHX?vAAdA@zA?j@A\\?bBAxACd@@|BAP?hC?\\?xAAxAApA?h@?hDA^C^?l@AhEAdB?hB?n@?vAAd@ABC?AB?BAF?N?l@CDA@?AD?@ADP?p@?`A?jDA\\ApB?^?z@AX?hA?bA?rAA`@AxA?^?jCAfAAN?rC?~BAdBA~@A|@?R?xEC`A?X?l@AfD?p@?R?J?f@A`A?B?f@ANANALAj@IPA|@SLCPCh@SXMRK^UtA}@PK`C}ALGp@c@zCqBHCvA}@h@Yd@URIjBg@PCd@Gv@ITALAF?P?\\Ar@?rACz@A`@?p@AD?P?f@?v@AbB?~@AT?b@?fAA`@?t@?rBAF?RAbCApBAfAAX?dAAzA?jACp@CVGRCdA?`A?X?r@?vDCdCAL?jAAv@?dCCh@?h@?zAAZ?X?\\?n@At@Ab@?J?NAR?N?^?r@A`@?F?NAlA@P?V?JAR?r@?bBALA|@AX?lAAZ?bBAbBAb@?b@A^?\\?d@?b@AdAA\\AbB?P?h@?h@?bBAhBCb@?lAAP?`@??g@`@?A{A?i@?YN?"}, "start_location": {"lat": 29.876021, "lng": -95.414104}, "transit_details": {"arrival_stop": {"location": {"lat": 29.803894, "lng": -95.398252}, "name": "20th St @ Heights Blvd"}, "arrival_time": {"text": "4:18pm", "time_zone": "America/Chicago", "value": 1642025880}, "departure_stop": {"location": {"lat": 29.876021, "lng": -95.414104}, "name": "North Shepherd P&R"}, "departure_time": {"text": "3:57pm", "time_zone": "America/Chicago", "value": 1642024620}, "headsign": "Hobby Airport", "line": {"agencies": [{"name": "Metropolitan Transit Authority of Harris County", "phone": "1 (713) 635-4000", "url": "http://www.ridemetro.org/"}], "color": "#004080", "name": "Telephone / Heights", "short_name": "40", "text_color": "#ffffff", "url": "https://www.ridemetro.org/MetroPDFs/Schedules/BusSchedules/n040-Telephone-Heights.pdf", "vehicle": {"icon": "//maps.gstatic.com/mapfiles/transit/iw2/6/bus2.png", "name": "Bus", "type": "BUS"}}, "num_stops": 36, "trip_short_name": "TELEHEIGHT"}, "travel_mode": "TRANSIT"}, {"distance": {"text": "282 ft", "value": 86}, "duration": {"text": "1 min", "value": 71}, "end_location": {"lat": 29.804025, "lng": -95.3973684}, "html_instructions": "Walk to E 20th St @ Heights Blvd", "polyline": {"points": "sa|tD`ngeQ?M?GM??G?S?M?SAM?u@?W"}, "start_location": {"lat": 29.8039365, "lng": -95.3982528}, "steps": [{"distance": {"text": "282 ft", "value": 86}, "duration": {"text": "1 min", "value": 71}, "end_location": {"lat": 29.804025, "lng": -95.3973684}, "html_instructions": "Head <b>east</b> on <b>W 20th St</b> toward <b>Heights Blvd</b>", "polyline": {"points": "sa|tD`ngeQ?M?GM??G?S?M?SAM?u@?W"}, "start_location": {"lat": 29.8039365, "lng": -95.3982528}, "travel_mode": "WALKING"}], "travel_mode": "WALKING"}, {"distance": {"text": "3.5 mi", "value": 5589}, "duration": {"text": "12 mins", "value": 744}, "end_location": {"lat": 29.80163, "lng": -95.454342}, "html_instructions": "Bus towards Memorial City", "polyline": {"points": "ib|tDphgeQJ??V@t@?L?R?L@R?N?f@?h@@|@?\\?d@?b@@n@?pA@|B?d@?`@@t@?T?pA@v@@rA?v@@bD@~@?nA@H?tB@^@dC?P?j@@x@?x@?t@@P?dA@|A?\\?^@dC@zB?xA?N@V?fA@`ABfE?tABtJ?pB@rA?r@?H?|@?jB?@?j@@h@AL?\\?J@f@?|B?h@?|@?n@?N?|G?J@tE?d@@dC?p@AL@J?V@P@H?B?D@F@HBH@JDPDLDLDHDJDJHLFHFHLL?@TVTVn@v@NRh@h@NPVX^f@BJBFBFf@v@P`@DZDVBT@F?D@F?H?P@P?X?N?F?j@@pAIpB@f@?V?fA?j@?V@h@AjA?h@@~@?b@@^Af@@d@?X?bA?jA?b@@nC?J?d@Aj@?v@?P@dB?jA?bC?`A?\\@dH?`D?dC@fE?jD?T@`F@vB?jD?vC?X?`E@V@zCAb@?fAAX@fB@fA?T@|B?l@A~A?x@?XAzB?`A?dB?l@?P?F?H@^?Z?@?H?@?Z?h@?f@?j@?^?t@@j@BnAAV@|@@fB?bBG?"}, "start_location": {"lat": 29.804048, "lng": -95.397369}, "transit_details": {"arrival_stop": {"location": {"lat": 29.80163, "lng": -95.454342}, "name": "W 18th St @ Northwest Fwy"}, "arrival_time": {"text": "4:33pm", "time_zone": "America/Chicago", "value": 1642026820}, "departure_stop": {"location": {"lat": 29.804048, "lng": -95.397369}, "name": "E 20th St @ Heights Blvd"}, "departure_time": {"text": "4:21pm", "time_zone": "America/Chicago", "value": 1642026076}, "headsign": "Memorial City", "line": {"agencies": [{"name": "Metropolitan Transit Authority of Harris County", "phone": "1 (713) 635-4000", "url": "http://www.ridemetro.org/"}], "color": "#004080", "name": "Long Point / Cavalcade", "short_name": "26", "text_color": "#ffffff", "url": "https://www.ridemetro.org/MetroPDFs/Schedules/BusSchedules/n026-Long-Point-Cavalcade.pdf", "vehicle": {"icon": "//maps.gstatic.com/mapfiles/transit/iw2/6/bus2.png", "name": "Bus", "type": "BUS"}}, "num_stops": 19, "trip_short_name": "LONGPOINT"}, "travel_mode": "TRANSIT"}, {"distance": {"text": "322 ft", "value": 98}, "duration": {"text": "1 min", "value": 77}, "end_location": {"lat": 29.8019199, "lng": -95.45428179999999}, "html_instructions": "Walk to 4400 W 18th St, Houston, TX 77092, USA", "polyline": {"points": "es{tDrlreQ?z@YEc@E?G@Q@a@"}, "start_location": {"lat": 29.8016264, "lng": -95.454342}, "steps": [{"distance": {"text": "95 ft", "value": 29}, "duration": {"text": "1 min", "value": 22}, "end_location": {"lat": 29.8016252, "lng": -95.45463819999999}, "html_instructions": "Head <b>west</b> on <b>W 18th St</b>/<wbr/><b>NW Mall</b>", "polyline": {"points": "es{tDrlreQ?z@"}, "start_location": {"lat": 29.8016264, "lng": -95.454342}, "travel_mode": "WALKING"}, {"distance": {"text": "131 ft", "value": 40}, "duration": {"text": "1 min", "value": 33}, "end_location": {"lat": 29.8019405, "lng": -95.4545788}, "html_instructions": "Turn <b>right</b><div style=\"font-size:0.9em\">Restricted usage road</div>", "maneuver": "turn-right", "polyline": {"points": "es{tDnnreQYEc@E"}, "start_location": {"lat": 29.8016252, "lng": -95.45463819999999}, "travel_mode": "WALKING"}, {"distance": {"text": "95 ft", "value": 29}, "duration": {"text": "1 min", "value": 22}, "end_location": {"lat": 29.8019199, "lng": -95.45428179999999}, "html_instructions": "Turn <b>right</b><div style=\"font-size:0.9em\">Restricted usage road</div><div style=\"font-size:0.9em\">Destination will be on the left</div>", "maneuver": "turn-right", "polyline": {"points": "cu{tDbnreQ?G@Q@a@"}, "start_location": {"lat": 29.8019405, "lng": -95.4545788}, "travel_mode": "WALKING"}], "travel_mode": "WALKING"}], "traffic_speed_entry": [], "via_waypoint": []}], "overview_polyline": {"points": "wvhuD`v`eQrDk@J?BBBXBXkDj@qA@@No@JuFx@eANEkHE{DAgCE??KL??H@hCBxDDtHBtB@b@LxBn@jHNnBJ`BBhAAhA?dA@hEFdNHbWHbJ@rD?lJBlGDpJBdRJvc@Hh^HbX@~N@fAItEExD?bFBvE?rBOrB[rBeApEsEKeG[mFYaCQCjA@~G{FDC??f@?KB?zFAA{C?cDvCNzIf@dEPnA@vD?bJE~D?nHK|JGb^QT?AaA?{EAmICkR@cBCcCA}@OaCk@cDr@]n@Sv@Kj@AdA?rEHrG?fGG~H?bHCrEA~@CfMCfCAh@ENCdAEAFADP?rB?hECfFAbGCvUG|SGxBA|BCzAOjAWPCh@Sl@YtBsArEuCdDuB`CwAx@_@|Bk@|AQb@CjBAzIIpNEtOI|BGj@KtE?hTKnDAtCC`EEbC?xDCpMI`JEfMG?g@`@?AeC?YN?I??M?GM??[AeB?WE?J??V@bA?`@@tB@dDDdNPv_@DlQLz^?lI@nE?fDBvVBv@F`@Rx@Zn@xBjC`BhB^f@BJFNf@v@P`@Jr@Fj@B|EIpB@f@?~A?xDBxI?fLBb^D`a@@xK@pG@rCAlCApG@tF?zFDpE@jEG??z@YEc@E?GBs@"}, "summary": "", "warnings": ["Walking directions are in beta. Use caution \u2013 This route may be missing sidewalks or pedestrian paths."], "waypoint_order": []}, {"bounds": {"northeast": {"lat": 29.87128599999999, "lng": -95.2928563}, "southwest": {"lat": 29.8002449, "lng": -95.45463819999999}}, "copyrights": "Map data \u00a92022 Google", "legs": [{"arrival_time": {"text": "4:49pm", "time_zone": "America/Chicago", "value": 1642027797}, "departure_time": {"text": "3:19pm", "time_zone": "America/Chicago", "value": 1642022368}, "distance": {"text": "19.4 mi", "value": 31173}, "duration": {"text": "1 hour 30 mins", "value": 5429}, "end_address": "4400 W 18th St, Houston, TX 77092, USA", "end_location": {"lat": 29.8019199, "lng": -95.45428179999999}, "start_address": "10702 E Hardy Rd, Houston, TX 77093, USA", "start_location": {"lat": 29.8687584, "lng": -95.3636889}, "steps": [{"distance": {"text": "0.5 mi", "value": 878}, "duration": {"text": "11 mins", "value": 666}, "end_location": {"lat": 29.8706955, "lng": -95.3603018}, "html_instructions": "Walk to Little York Rd @ Hardy Rd", "polyline": {"points": "wvhuD`v`eQp@MjAQPCb@GF?B?@@@@@F@PBXkDj@qA@@NK@c@Ha@Fc@FkC`@c@F]F?G?G?I?A?qA?QC_C?e@?GAm@?G?EBYAuCEcCAmA?IA[Ak@"}, "start_location": {"lat": 29.8687584, "lng": -95.3636889}, "steps": [{"distance": {"text": "463 ft", "value": 141}, "duration": {"text": "2 mins", "value": 101}, "end_location": {"lat": 29.8677395, "lng": -95.3637535}, "html_instructions": "Head <b>south</b> toward <b>Hardy St</b>", "polyline": {"points": "wvhuD`v`eQp@MjAQPCb@GF?B?@@@@@F@PBX"}, "start_location": {"lat": 29.8687584, "lng": -95.3636889}, "travel_mode": "WALKING"}, {"distance": {"text": "0.2 mi", "value": 332}, "duration": {"text": "5 mins", "value": 274}, "end_location": {"lat": 29.8706164, "lng": -95.36444809999999}, "html_instructions": "Turn <b>right</b> onto <b>Hardy St</b>", "maneuver": "turn-right", "polyline": {"points": "kphuDlv`eQkDj@qA@@NK@c@Ha@Fc@FkC`@c@F]F"}, "start_location": {"lat": 29.8677395, "lng": -95.3637535}, "travel_mode": "WALKING"}, {"distance": {"text": "0.3 mi", "value": 405}, "duration": {"text": "5 mins", "value": 291}, "end_location": {"lat": 29.8706955, "lng": -95.3603018}, "html_instructions": "Turn <b>right</b> onto <b>Little York Rd</b><div style=\"font-size:0.9em\">Destination will be on the right</div>", "maneuver": "turn-right", "polyline": {"points": "kbiuDxz`eQ?G?G?I?A?qA?QC_C?e@?GAm@?G?EBYAuCEcCAmA?IA[Ak@"}, "start_location": {"lat": 29.8706164, "lng": -95.36444809999999}, "travel_mode": "WALKING"}], "travel_mode": "WALKING"}, {"distance": {"text": "10.0 mi", "value": 16124}, "duration": {"text": "34 mins", "value": 2065}, "end_location": {"lat": 29.81412, "lng": -95.327876}, "html_instructions": "Bus towards Burnett TC", "polyline": {"points": "wbiuDz``eQI??SA_@?WEoD?]AeCAoBCeC?YAqA?_@?U?G?i@AqAAsDCqD?eAA}@?e@?aA?QAi@?_A?Y?}B?]?s@AsD?G?SAuC?C?}A@c@?k@?W@y@?}@@Q?I?e@?aB?]?S?YA_B?G?wA?_AA_CAmCAoD?iA?o@?Q?cBA}@?{@AmD?wBAqC?MAmA?o@?cA?Y@MAcA@O?Y?U@e@?QBk@@m@@C?K?I@_@@O@i@?sB?kAA}C?Y?eC@]?S?U@a@Ba@?A@UBa@@UBY@I@IBUBS?IHe@j@mBTm@HS?AJU?A@A?CN]?ARo@RcAN_AB[D[?AFkA@}B?wC?cAAiB?i@As@?g@A{@?i@?k@?s@AaAAKAgG?{C?eACoA?m@CkCA]?Q?W?S?oA?aAAw@Co@ASAc@Ce@C[KkACYAWAM?MA_@E_EBiDAUAa@AcAAi@?KAeACe@AYCYEo@AMAOGa@Mw@G]G[Qu@YaAm@eCG[GWIg@Gc@CMAKC]C[AKCs@Cg@A{@AgCAkFCeHA}@CkFGoNAmB?o@AqA?GtA?xA?nA?bLAhB?dB?A[?e@?MASAMAQAUAK?I?GCeH?OC{I?i@AcB?U?wDAcI?SnCAdAAZ?lCCd@@t@AnCAb@?xFArC?RAb@?b@?hDC|BAfCArCAN?fD?fBAvA?Bj@?F@JBHBJ@FFNvBfFHPjCtGDJDFDHFFHHXTc@jAU`AERMbACfA@v@@h@Ht@P~@Ph@N\\DJHRNj@H`@BT@J?@@H?\\@\\?`@\\?p@?x@A~@?d@AZ?T?R?D?H@p@AbB?\\@h@@\\FH@PBXFPFXJXLz@d@tA`A~BzAb@V\\JVHPBPDPBJ@RD@?R@V?P@hCCh@?P?|C?`C?rAAnB?f@A`DCnB?h@?|BEFDFBL@J?r@Bn@?n@?nB?NAz@A?~@AV?\\?\\?pAB~E?TBtF?fD@x@?j@?tG?RBpE?hC?zA@`A?xBBpA?n@@v@AdBBtD@tB@V?~A@xC@hBDlF?f@@lA?^?h@A\\@R@tA?\\@bABjF?v@?RB~E@bC?L?@?z@@l@?d@@d@?X@xC?N?VBnD@dCXJVJ`Bj@vBn@B@`@LnBj@`@LbDbAlA\\jCx@p@Rj@NVFPDTD\\DTBVBX@L?T?R@V?L?P?RAt@?hBCL?J?l@?~FEZA~@?T?lAA`@?F@@@T?`@AX?lA@~@@D?n@AN?jEC|AA^?l@?lBCvBAtB?X?x@A`A?vB?P?hE?j@?xAAD?n@@|@ApA?lCAfA?z@?R?T?J?H?X?hCCZAV?`ACx@AL?`FAjBA?Gz@?rBAt@AhDC@{Ap@y@|@a@@]IMAASCq@r@FN"}, "start_location": {"lat": 29.870676, "lng": -95.36030099999999}, "transit_details": {"arrival_stop": {"location": {"lat": 29.81412, "lng": -95.327876}, "name": "Kashmere Transit Center"}, "arrival_time": {"text": "4:05pm", "time_zone": "America/Chicago", "value": 1642025100}, "departure_stop": {"location": {"lat": 29.870676, "lng": -95.36030099999999}, "name": "Little York Rd @ Hardy Rd"}, "departure_time": {"text": "3:30pm", "time_zone": "America/Chicago", "value": 1642023035}, "headsign": "Burnett TC", "line": {"agencies": [{"name": "Metropolitan Transit Authority of Harris County", "phone": "1 (713) 635-4000", "url": "http://www.ridemetro.org/"}], "color": "#004080", "name": "Langley - Little York", "short_name": "3", "text_color": "#ffffff", "url": "https://www.ridemetro.org/MetroPDFs/Schedules/BusSchedules/n003-Langley-Little-York.pdf", "vehicle": {"icon": "//maps.gstatic.com/mapfiles/transit/iw2/6/bus2.png", "name": "Bus", "type": "BUS"}}, "num_stops": 49, "trip_short_name": "LANGLEY - LITTLE YORK"}, "travel_mode": "TRANSIT"}, {"distance": {"text": "8.7 mi", "value": 14073}, "duration": {"text": "34 mins", "value": 2020}, "end_location": {"lat": 29.80163, "lng": -95.454342}, "html_instructions": "Bus towards Memorial City", "polyline": {"points": "ga~tDfvydQGOp@s@RB@@HLA\\u@l@y@l@AzAl@?DAjBAr@?vFC?L|DCdEAV?~@Av@?BAX?ZAHAJ?NCVEHAD?DAVAJA@?D?r@ErAMBAb@Cl@Ez@CN?B?L?@?fAAt@?|@AP?tHCd@AX?V?\\?zFEdA?H?z@Ah@?v@?vAAb@?t@??n@?j@@bD?p@@hA?X?x@DvCFpD?rA@zBGvAEpAGjBARC\\K`AEb@]fBKb@EPGVYdAUdAMx@W|AOjAMx@EZGd@WbBKj@Ib@EVAFIf@ADKn@Kz@In@K|@SdBK|@Gb@K~@AHW|Bc@jEo@fFWlBK|@EVSbBQpAGr@Mp@Eb@CNOrAKdBCf@?HAx@?xB@d@@j@?pA@nA?X@dB?T@fAB~D@bD@ZBbEBzB@fAGrAAXGvA@vD@xC@^@tD@x@?V?v@?l@?\\BpD@nB?fA@jA?tA?T?\\?lA@nA?tA@dA?Z@bA?pB@vDAlBAV?LANAT?RAXCR?@CXQ|@Kf@Sz@ENOr@CRE\\Cb@KfCARCpAAv@AXCf@?DAT?LAHCfAAd@?D?lB?h@?VBjC?lB?x@@z@@fB?fD@fDE`BA|@?HA\\@V?lA@L?\\?x@?V@j@@t@?L?JB`@@T@NBN@N@V?f@@f@?`A?r@?L?xBAP?JALAPANIbAEb@?TAR?V?fH?p@@vD@xAC^C^CRA@ETC\\Af@?P?P?LA`@@\\BpA?^@j@?H@tA?n@?b@@b@?X?P?V@`A?v@@dA?V?vA@T?lB@jB@tA?XB|E?~A@zB@nB?V?V@t@?L?R?L@R?N?f@?h@@|@?\\?d@?b@@n@?pA@|B?d@?`@@t@?T?pA@v@@rA?v@@bD@~@?nA@H?tB@^@dC?P?j@@x@?x@?t@@P?dA@|A?\\?^@dC@zB?xA?N@V?fA@`ABfE?tABtJ?pB@rA?r@?H?|@?jB?@?j@@h@AL?\\?J@f@?|B?h@?|@?n@?N?|G?J@tE?d@@dC?p@AL@J?V@P@H?B?D@F@HBH@JDPDLDLDHDJDJHLFHFHLL?@TVTVn@v@NRh@h@NPVX^f@BJBFBFf@v@P`@DZDVBT@F?D@F?H?P@P?X?N?F?j@@pAIpB@f@?V?fA?j@?V@h@AjA?h@@~@?b@@^Af@@d@?X?bA?jA?b@@nC?J?d@Aj@?v@?P@dB?jA?bC?`A?\\@dH?`D?dC@fE?jD?T@`F@vB?jD?vC?X?`E@V@zCAb@?fAAX@fB@fA?T@|B?l@A~A?x@?XAzB?`A?dB?l@?P?F?H@^?Z?@?H?@?Z?h@?f@?j@?^?t@@j@BnAAV@|@@fB?bBG?"}, "start_location": {"lat": 29.81412, "lng": -95.327876}, "transit_details": {"arrival_stop": {"location": {"lat": 29.80163, "lng": -95.454342}, "name": "W 18th St @ Northwest Fwy"}, "arrival_time": {"text": "4:48pm", "time_zone": "America/Chicago", "value": 1642027720}, "departure_stop": {"location": {"lat": 29.81412, "lng": -95.327876}, "name": "Kashmere Transit Center"}, "departure_time": {"text": "4:15pm", "time_zone": "America/Chicago", "value": 1642025700}, "headsign": "Memorial City", "line": {"agencies": [{"name": "Metropolitan Transit Authority of Harris County", "phone": "1 (713) 635-4000", "url": "http://www.ridemetro.org/"}], "color": "#004080", "name": "Long Point / Cavalcade", "short_name": "26", "text_color": "#ffffff", "url": "https://www.ridemetro.org/MetroPDFs/Schedules/BusSchedules/n026-Long-Point-Cavalcade.pdf", "vehicle": {"icon": "//maps.gstatic.com/mapfiles/transit/iw2/6/bus2.png", "name": "Bus", "type": "BUS"}}, "num_stops": 52, "trip_short_name": "LONGPOINT"}, "travel_mode": "TRANSIT"}, {"distance": {"text": "322 ft", "value": 98}, "duration": {"text": "1 min", "value": 77}, "end_location": {"lat": 29.8019199, "lng": -95.45428179999999}, "html_instructions": "Walk to 4400 W 18th St, Houston, TX 77092, USA", "polyline": {"points": "es{tDrlreQ?z@YEc@E?G@Q@a@"}, "start_location": {"lat": 29.8016264, "lng": -95.454342}, "steps": [{"distance": {"text": "95 ft", "value": 29}, "duration": {"text": "1 min", "value": 22}, "end_location": {"lat": 29.8016252, "lng": -95.45463819999999}, "html_instructions": "Head <b>west</b> on <b>W 18th St</b>/<wbr/><b>NW Mall</b>", "polyline": {"points": "es{tDrlreQ?z@"}, "start_location": {"lat": 29.8016264, "lng": -95.454342}, "travel_mode": "WALKING"}, {"distance": {"text": "131 ft", "value": 40}, "duration": {"text": "1 min", "value": 33}, "end_location": {"lat": 29.8019405, "lng": -95.4545788}, "html_instructions": "Turn <b>right</b><div style=\"font-size:0.9em\">Restricted usage road</div>", "maneuver": "turn-right", "polyline": {"points": "es{tDnnreQYEc@E"}, "start_location": {"lat": 29.8016252, "lng": -95.45463819999999}, "travel_mode": "WALKING"}, {"distance": {"text": "95 ft", "value": 29}, "duration": {"text": "1 min", "value": 22}, "end_location": {"lat": 29.8019199, "lng": -95.45428179999999}, "html_instructions": "Turn <b>right</b><div style=\"font-size:0.9em\">Restricted usage road</div><div style=\"font-size:0.9em\">Destination will be on the left</div>", "maneuver": "turn-right", "polyline": {"points": "cu{tDbnreQ?G@Q@a@"}, "start_location": {"lat": 29.8019405, "lng": -95.4545788}, "travel_mode": "WALKING"}], "travel_mode": "WALKING"}], "traffic_speed_entry": [], "via_waypoint": []}], "overview_polyline": {"points": "wvhuD`v`eQrDk@J?BBBXBXkDj@qA@@No@JuFx@]F?G?QCeFAcBB_@GyGE_DB?I?As@GkJGiMIcTCyO?{JBmIGwUG}a@BeBFoBBeA@}CAiF@qED{AJgBJ}@Ho@`A{CTm@Pc@Rq@b@cCHw@FmA@yIEuLEqNGoIA{A?qCEgBKyBSkCAm@E_EBiDCw@CmBGqCMgBe@sCaByG]qBKqAG{ACcEK{XK_V?GtA?hD?lOAdB?A[?s@Ca@E}@GySA{IAwItECdGC`QCnTKnGAvA?Bj@@RFTjCpGpC`HJPPPXTc@jA[tAMbACfAB`BZtBp@fBXlAD`@BfA?`@\\?jBAvCAtA?`C@fAHfATr@Xz@d@tA`AbDrBt@T`AN`AFvEAbNAbJE|BEFDTD~CB~BAz@A?~@At@?nBFrS@nKJlXNz^Nta@DpKDtHp@V~FjBbKzC`GdBzATp@Db@?jA@`EEzOIHBv@AlDB|SMjGA~J?pPCvGEjJGjBA?GnDA~EE@{Ap@y@|@a@@]KOSCq@r@FNGOp@s@RBJNA\\u@l@y@l@AzAr@A~CAvFC?LbKEvAApBCTAf@Il@ERAnDY|BIxPI`OGrDAt@??n@@nE@nELhI@nEWhHO~AEb@]fBQt@a@|Ac@~Bg@hDs@~E[fBYdBu@nGa@jD{@hIgAtIw@jG_@xCOrAKdBCp@ArDBpAB`HF`MJbLIlBGvA@vDBxDBnF?zCFlSBfG@tD?dHEjAEbAUvA_@bBUbAIp@OjDEdBG~BGtBAbEH~XIfEBpCBrDDpAFn@BfB?|FE|@QlCAdKBpGG~@OhAAxABpDDnHPhf@Xnt@Lv]Ht]@bH@dX?jFD~@BZPt@Vn@f@n@dDxDv@`AFRj@~@V|@Jz@Bt@?|A@pAIpB@~@@tDAtB@bB@fC@bI?|MBv`@BxI?bIBnKAlFBhGCnH?fF@vBBfJBdD?bBG??z@}@KB{@"}, "summary": "", "warnings": ["Walking directions are in beta. Use caution \u2013 This route may be missing sidewalks or pedestrian paths."], "waypoint_order": []}, {"bounds": {"northeast": {"lat": 29.8773062, "lng": -95.3613081}, "southwest": {"lat": 29.80040469999999, "lng": -95.4744766}}, "copyrights": "Map data \u00a92022", "legs": [{"arrival_time": {"text": "4:50pm", "time_zone": "America/Chicago", "value": 1642027834}, "departure_time": {"text": "3:26pm", "time_zone": "America/Chicago", "value": 1642022774}, "distance": {"text": "14.8 mi", "value": 23792}, "duration": {"text": "1 hour 24 mins", "value": 5060}, "end_address": "4400 W 18th St, Houston, TX 77092, USA", "end_location": {"lat": 29.8019199, "lng": -95.45428179999999}, "start_address": "10702 E Hardy Rd, Houston, TX 77093, USA", "start_location": {"lat": 29.8687584, "lng": -95.3636889}, "steps": [{"distance": {"text": "0.5 mi", "value": 800}, "duration": {"text": "10 mins", "value": 626}, "end_location": {"lat": 29.8709158, "lng": -95.3613653}, "html_instructions": "Walk to Little York Rd @ Little York Plaza", "polyline": {"points": "wvhuD`v`eQp@MjAQPCb@GF?B?@@@@@F@PBXkDj@qA@@NK@c@Ha@Fc@FkC`@c@F]FM@KBM@?I?WAsAAQA_C?c@Aq@Ak@?k@Aq@@w@CoAE?"}, "start_location": {"lat": 29.8687584, "lng": -95.3636889}, "steps": [{"distance": {"text": "463 ft", "value": 141}, "duration": {"text": "2 mins", "value": 101}, "end_location": {"lat": 29.8677395, "lng": -95.3637535}, "html_instructions": "Head <b>south</b> toward <b>Hardy St</b>", "polyline": {"points": "wvhuD`v`eQp@MjAQPCb@GF?B?@@@@@F@PBX"}, "start_location": {"lat": 29.8687584, "lng": -95.3636889}, "travel_mode": "WALKING"}, {"distance": {"text": "0.2 mi", "value": 347}, "duration": {"text": "5 mins", "value": 295}, "end_location": {"lat": 29.8708229, "lng": -95.3644923}, "html_instructions": "Turn <b>right</b> onto <b>Hardy St</b>", "maneuver": "turn-right", "polyline": {"points": "kphuDlv`eQkDj@qA@@NK@c@Ha@Fc@FkC`@c@F]FM@KBM@"}, "start_location": {"lat": 29.8677395, "lng": -95.3637535}, "travel_mode": "WALKING"}, {"distance": {"text": "0.2 mi", "value": 305}, "duration": {"text": "4 mins", "value": 225}, "end_location": {"lat": 29.8708875, "lng": -95.3613652}, "html_instructions": "Turn <b>right</b> onto <b>Little York Rd</b>", "maneuver": "turn-right", "polyline": {"points": "sciuD`{`eQ?I?WAsAAQA_C?c@Aq@Ak@?k@Aq@@w@CoA"}, "start_location": {"lat": 29.8708229, "lng": -95.3644923}, "travel_mode": "WALKING"}, {"distance": {"text": "23 ft", "value": 7}, "duration": {"text": "1 min", "value": 5}, "end_location": {"lat": 29.8709158, "lng": -95.3613653}, "html_instructions": "Turn <b>left</b><div style=\"font-size:0.9em\">Destination will be on the right</div>", "maneuver": "turn-left", "polyline": {"points": "adiuDpg`eQE?"}, "start_location": {"lat": 29.8708875, "lng": -95.3613652}, "travel_mode": "WALKING"}], "travel_mode": "WALKING"}, {"distance": {"text": "9.0 mi", "value": 14484}, "duration": {"text": "34 mins", "value": 2017}, "end_location": {"lat": 29.863445, "lng": -95.473574}, "html_instructions": "Bus towards Antoine & Victory", "polyline": {"points": "gdiuDdg`eQL??H@pA?v@@p@?l@@b@?t@@d@@~B?P@rA?V?P?X?@?RBdA?@@`@@`@Dn@@N?@@@@R?BJbAPnBPrBH`ADl@J`BBhAAf@?`@?Z?h@?T?~@?j@@fA@nC?^?\\@P?r@?h@@|@@hB@pE@nD@~@B`IFlD@tD@~C?RAfH@dABdF?f@?b@BpD@vB?b@?T@h@?t@?z@@~A?|C?P?bDBxD@vH?\\@tA?~@?j@@`F@bF?`@@`A?Z?n@@d@?n@?b@@vB@|E?vA?J?J@tB?t@?X?r@@\\?Z@tD@tD?d@?B?T?Z?Z?R?V@v@?t@?h@?f@@X?zA@t@?l@?x@?~@?^?dA?~A?L@x@GfDAl@Af@An@AX?fAAl@?D?V?@?V?B?h@@nA@hA@h@?`A?`@?rBOrBQpAI`@AD[xA]tAIZ_AASAG?wBGqAGc@C]Ca@CIAQAUA]A}AK]Ak@CeAGWCiBMA\\Al@?zB?f@@rA?f@Y@aFBC?A?cFB[?Dk@?O?AJO@GBQDS\\WTSLKj@c@h@_@ZULI~@o@vALfCN\\BxBJ`CNP@`ADdCNl@BvCLR?z@@b@?^?f@@jAA`@Ad@?v@AZ?Lf@^rAHVJ`@X`ABHBNFPFVBHJb@Nn@BJV`AhAnERr@Ld@hBfHHV\\tAT`AFTT~@Tx@\\nAjBhHJ^j@tBBJ`@bBLd@HZV~@Rt@j@xBL`@Pt@HVrAnFL^r@jCVfAJ^Px@@ANl@@zFAdG@f@?VU?gCDq@@{@Gu@HOWFQJKF?f@Hf@IH?LT?FATp@AfCET?BvH@??^@lE?dE@xB?h@?fA?dA?J@F?R?^?v@?bC@d@?t@?^?`D@hB?N?f@?hA?Z?@@d@?^?z@?|A?h@?~@?r@?d@?R?f@?T@d@AP?Z@`A?XAT?^@b@?b@AR@`@?F?N?r@?hC?H?vA?`@?d@?L?J?H@D?Z?HBp@@L@LBV@N@H@H@RFd@@L@@BXDZBRBND`@BP?V@H?T?N@T?B?d@?L?P?Z?F?~@AfAChE?LA^A\\Cd@Ej@Gl@K~@Ed@CXCTAR?NAP?@Ab@?J?V?fEApB?T?P?h@@hC?Z?F?@?lAArB?rA?\\?v@?ZkABsCJK@O@i@FWBI@K?K?w@Be@?M@eDAq@@a@?wECyA?}@?aA?Y?oC@kB?_@A?`@@fB?h@?z@AvBBzAB~@HpBFj@Fb@VvAR`Ah@bCPp@DRH^Lf@hAvEx@rDZrAJ`@Lh@Nl@nAhFd@tBFXp@xC`@dBVfAVt@`@nAl@bB`@rAN\\b@?bADxAJlANfB^`B\\ZFl@Hl@DB?d@B^@^@?J"}, "start_location": {"lat": 29.87091599999999, "lng": -95.361311}, "transit_details": {"arrival_stop": {"location": {"lat": 29.863445, "lng": -95.473574}, "name": "Antoine Dr @ Little York Rd"}, "arrival_time": {"text": "4:10pm", "time_zone": "America/Chicago", "value": 1642025419}, "departure_stop": {"location": {"lat": 29.87091599999999, "lng": -95.361311}, "name": "Little York Rd @ Little York Plaza"}, "departure_time": {"text": "3:36pm", "time_zone": "America/Chicago", "value": 1642023402}, "headsign": "Antoine & Victory", "line": {"agencies": [{"name": "Metropolitan Transit Authority of Harris County", "phone": "1 (713) 635-4000", "url": "http://www.ridemetro.org/"}], "color": "#004080", "name": "Langley - Little York", "short_name": "3", "text_color": "#ffffff", "url": "https://www.ridemetro.org/MetroPDFs/Schedules/BusSchedules/n003-Langley-Little-York.pdf", "vehicle": {"icon": "//maps.gstatic.com/mapfiles/transit/iw2/6/bus2.png", "name": "Bus", "type": "BUS"}}, "num_stops": 44, "trip_short_name": "LANGLEY - LITTLE YORK"}, "travel_mode": "TRANSIT"}, {"distance": {"text": "4.8 mi", "value": 7734}, "duration": {"text": "19 mins", "value": 1138}, "end_location": {"lat": 29.800487, "lng": -95.458969}, "html_instructions": "Bus towards Downtown", "polyline": {"points": "ouguDxdveQ?K\\?tA?R?\\?tAA\\?\\?xAAfA?~@?`AAT?f@?bAA^?^AD?V?bA?`BAb@?dACr@?pA?d@?\\?B?lDCF?L?xAAbA?lBAZ?rBA~A@bA?nA@h@@dBBR?bAB\\AB@n@At@Ar@?H?fB?bAAf@Ar@?V?R?Z?d@Ah@?j@AH?dAA~AAj@?jAAN?R?b@?vAAjA?jAAlAA~A?R?j@A^?R?XAx@?^?B?\\?PAtBAnBAb@AF?J?D?t@?\\?LCf@?d@?h@@tA?b@?pAAd@?P?^?^?ZA`CAlAAV?N?@?fAAV?ZA`@C`@C`AEDAvAAvB?f@?xDA`AApACJ?PAdD?tCCL?z@AjBAbDApCAP?pB?vDApCAR?hD?b@?b@@Z?Z@t@Hb@HJBTFj@Px@X@?RHB?THv@Vp@NRFD@B@RBD?l@J`@D`@@lADx@@dAArAAhAA~AAL?`@A`@?L?D?DAX@bACh@At@?hCCX?|@AXA`AAX?v@An@?d@AT?ZA~@A|@AdBAfBC\\?T?H?@?H@N?J@D?ZBh@LTDj@Nd@PTJ`@RNHFBJHv@f@LQJQr@eAd@q@z@sADI~@uAjC{DR]lAkB|@uAFI`CqD@Ax@oAz@qAbA{Al@{@p@eA|@qAt@gAx@qA@AhDiFbFuHT_@r@cA^k@FKPSz@qAPU`@o@FKt@gAb@q@HM`A{Ah@w@dA_Bh@y@n@{@d@s@HM`@o@Zc@LQFF"}, "start_location": {"lat": 29.863445, "lng": -95.473574}, "transit_details": {"arrival_stop": {"location": {"lat": 29.800487, "lng": -95.458969}, "name": "Hempstead Rd @ Mangum Rd"}, "arrival_time": {"text": "4:39pm", "time_zone": "America/Chicago", "value": 1642027198}, "departure_stop": {"location": {"lat": 29.863445, "lng": -95.473574}, "name": "Antoine Dr @ Little York Rd"}, "departure_time": {"text": "4:21pm", "time_zone": "America/Chicago", "value": 1642026060}, "headsign": "Downtown", "line": {"agencies": [{"name": "Metropolitan Transit Authority of Harris County", "phone": "1 (713) 635-4000", "url": "http://www.ridemetro.org/"}], "color": "#004080", "name": "Antoine / Washington", "short_name": "85", "text_color": "#ffffff", "url": "https://www.ridemetro.org/MetroPDFs/Schedules/BusSchedules/n085-Antoine-Washington.pdf", "vehicle": {"icon": "//maps.gstatic.com/mapfiles/transit/iw2/6/bus2.png", "name": "Bus", "type": "BUS"}}, "num_stops": 29, "trip_short_name": "ANTOINWAS"}, "travel_mode": "TRANSIT"}, {"distance": {"text": "0.5 mi", "value": 774}, "duration": {"text": "11 mins", "value": 636}, "end_location": {"lat": 29.8019199, "lng": -95.45428179999999}, "html_instructions": "Walk to 4400 W 18th St, Houston, TX 77092, USA", "polyline": {"points": "cl{tDliseQR[KIK?S?y@BM?c@@O?Y??QAO?OM?M@M?mED@[Ae@?g@ASDKP]d@}@Xq@B]QOIIOMEKKAQUGGEIAE?C?A@C@EBEV_@KMNWHMJSRa@Ts@R}@Jy@Hy@?G@Q@a@"}, "start_location": {"lat": 29.8005042, "lng": -95.4589534}, "steps": [{"distance": {"text": "85 ft", "value": 26}, "duration": {"text": "1 min", "value": 19}, "end_location": {"lat": 29.8004607, "lng": -95.458759}, "html_instructions": "Head <b>southeast</b> on <b>Hempstead Rd</b> toward <b>Mangum Rd</b>", "polyline": {"points": "cl{tDliseQR[KI"}, "start_location": {"lat": 29.8005042, "lng": -95.4589534}, "travel_mode": "WALKING"}, {"distance": {"text": "371 ft", "value": 113}, "duration": {"text": "2 mins", "value": 104}, "end_location": {"lat": 29.8013728, "lng": -95.458705}, "html_instructions": "Turn <b>left</b> onto <b>Mangum Rd</b>", "maneuver": "turn-left", "polyline": {"points": "{k{tDfhseQK?S?y@BM?c@@O?Y??Q"}, "start_location": {"lat": 29.8004607, "lng": -95.458759}, "travel_mode": "WALKING"}, {"distance": {"text": "52 ft", "value": 16}, "duration": {"text": "1 min", "value": 21}, "end_location": {"lat": 29.8014508, "lng": -95.4585436}, "html_instructions": "Turn <b>right</b> onto <b>W 18th St</b>", "maneuver": "turn-right", "polyline": {"points": "qq{tDzgseQAO?OM?"}, "start_location": {"lat": 29.8013728, "lng": -95.458705}, "travel_mode": "WALKING"}, {"distance": {"text": "440 ft", "value": 134}, "duration": {"text": "2 mins", "value": 127}, "end_location": {"lat": 29.80261729999999, "lng": -95.45858140000001}, "html_instructions": "Turn <b>left</b> onto <b>Mangum Rd</b>", "maneuver": "turn-left", "polyline": {"points": "ar{tDzfseQM@M?mED"}, "start_location": {"lat": 29.8014508, "lng": -95.4585436}, "travel_mode": "WALKING"}, {"distance": {"text": "0.1 mi", "value": 168}, "duration": {"text": "2 mins", "value": 133}, "end_location": {"lat": 29.8021725, "lng": -95.45703209999999}, "html_instructions": "Turn <b>right</b>", "maneuver": "turn-right", "polyline": {"points": "ky{tDbgseQ@[Ae@?g@ASDKP]d@}@Xq@B]"}, "start_location": {"lat": 29.80261729999999, "lng": -95.45858140000001}, "travel_mode": "WALKING"}, {"distance": {"text": "348 ft", "value": 106}, "duration": {"text": "1 min", "value": 80}, "end_location": {"lat": 29.8024852, "lng": -95.4562641}, "html_instructions": "Turn <b>left</b><div style=\"font-size:0.9em\">Partial restricted usage road</div>", "maneuver": "turn-left", "polyline": {"points": "qv{tDl}reQQOIIOMEKKAQUGGEIAE?C?A@C@EBEV_@"}, "start_location": {"lat": 29.8021725, "lng": -95.45703209999999}, "travel_mode": "WALKING"}, {"distance": {"text": "33 ft", "value": 10}, "duration": {"text": "1 min", "value": 8}, "end_location": {"lat": 29.8025494, "lng": -95.456192}, "html_instructions": "Turn <b>left</b><div style=\"font-size:0.9em\">Restricted usage road</div>", "maneuver": "turn-left", "polyline": {"points": "qx{tDrxreQKM"}, "start_location": {"lat": 29.8024852, "lng": -95.4562641}, "travel_mode": "WALKING"}, {"distance": {"text": "0.1 mi", "value": 201}, "duration": {"text": "2 mins", "value": 144}, "end_location": {"lat": 29.8019199, "lng": -95.45428179999999}, "html_instructions": "Turn <b>right</b><div style=\"font-size:0.9em\">Restricted usage road</div><div style=\"font-size:0.9em\">Destination will be on the left</div>", "maneuver": "turn-right", "polyline": {"points": "}x{tDdxreQNWHMJSRa@Ts@R}@Jy@Hy@?G@Q@a@"}, "start_location": {"lat": 29.8025494, "lng": -95.456192}, "travel_mode": "WALKING"}], "travel_mode": "WALKING"}], "traffic_speed_entry": [], "via_waypoint": []}], "overview_polyline": {"points": "wvhuD`v`eQrDk@J?BBBXBXkDj@qA@@No@JuFx@eANEkHE{DAgCE??KL??H@hCBxDDtHBtB@b@LxBn@jHNnBJ`BBhAAhA?dA@hEFdNHbWHbJ@rD?lJBlGDpJBdRJvc@Hh^HbX@~N@fAItEExD?bFBvE?rBOrB[rBeApEsEKeG[mFYaCQCjA@~GaGD_GBD{@JQDYDS\\Wb@_@~BcB~@o@vALdDRnIb@~I`@fDBjEEZ?Lf@h@jBl@|B^vAtBlItCxK|F`U`EvObFrRRv@Nl@@zF?lH?VU?yDF{@Gu@HOWFQJKF?f@Hf@IH?LTA\\xDGT?BvH@^BvP@pKBhO@fR@nSFnCVpCNjALzABnCGbLEbAMxAYtCCv@AnG?rJArH?rA_FN}ANyADkG@qKCwI@_@A?`@@pCArDFzCP|C^zBtAjGzCrMtF`Vx@lDx@dCnAvDN\\b@?|CPlANfB^|Bd@zANhBF?J?KrB?dDA~FA`HExMEnNGfJ@fFHpJEnSKnXMfDCz@?j@ClE@lDAtIE~AA|@EbBI|ACzKCtGEdWKfOC~BBxAR`@JzBt@XHv@Vp@NXHVDr@JbAFfCFxCCxEEz@AxLKzIItIE|@D~@RpA`@nAl@bAp@Xc@zCuElH{KpLmQdSsZdFsHdDcFhEmGlBuCLQFFACR[KIK?mAB{A@Aa@?OM?[@mED@[AmAB_@v@{AXq@B][YUYKAQUMQ?ODKV_@KMXe@^u@Ts@^wBHaABs@"}, "summary": "", "warnings": ["Walking directions are in beta. Use caution \u2013 This route may be missing sidewalks or pedestrian paths."], "waypoint_order": []}, {"bounds": {"northeast": {"lat": 29.8687584, "lng": -95.3562906}, "southwest": {"lat": 29.8015904, "lng": -95.45463819999999}}, "copyrights": "Map data \u00a92022 Google", "legs": [{"arrival_time": {"text": "4:04pm", "time_zone": "America/Chicago", "value": 1642025097}, "departure_time": {"text": "2:45pm", "time_zone": "America/Chicago", "value": 1642020328}, "distance": {"text": "13.9 mi", "value": 22397}, "duration": {"text": "1 hour 19 mins", "value": 4769}, "end_address": "4400 W 18th St, Houston, TX 77092, USA", "end_location": {"lat": 29.8019199, "lng": -95.45428179999999}, "start_address": "10702 E Hardy Rd, Houston, TX 77093, USA", "start_location": {"lat": 29.8687584, "lng": -95.3636889}, "steps": [{"distance": {"text": "1.0 mi", "value": 1617}, "duration": {"text": "20 mins", "value": 1179}, "end_location": {"lat": 29.8594724, "lng": -95.35629089999999}, "html_instructions": "Walk to Parker Rd @ Exeter St", "polyline": {"points": "wvhuD`v`eQp@MjAQPCb@GF?B?@@@@@F@PBXhBYdCe@lAUj@KVGdAUhCi@fEm@`@GhFk@l@I~@MnAQFAZEjCe@hCc@hBYQyDCu@AUA{@AO?{@?[@[B_@B[@QBI?G?eBEeK?_@"}, "start_location": {"lat": 29.8687584, "lng": -95.3636889}, "steps": [{"distance": {"text": "463 ft", "value": 141}, "duration": {"text": "2 mins", "value": 101}, "end_location": {"lat": 29.8677395, "lng": -95.3637535}, "html_instructions": "Head <b>south</b> toward <b>Hardy St</b>", "polyline": {"points": "wvhuD`v`eQp@MjAQPCb@GF?B?@@@@@F@PBX"}, "start_location": {"lat": 29.8687584, "lng": -95.3636889}, "travel_mode": "WALKING"}, {"distance": {"text": "0.6 mi", "value": 951}, "duration": {"text": "12 mins", "value": 692}, "end_location": {"lat": 29.8593804, "lng": -95.3616603}, "html_instructions": "Turn <b>left</b> onto <b>Hardy St</b>", "maneuver": "turn-left", "polyline": {"points": "kphuDlv`eQhBYdCe@lAUj@KVGdAUhCi@fEm@`@GhFk@l@I~@MnAQFAZEjCe@hCc@hBY"}, "start_location": {"lat": 29.8677395, "lng": -95.3637535}, "travel_mode": "WALKING"}, {"distance": {"text": "0.3 mi", "value": 525}, "duration": {"text": "6 mins", "value": 386}, "end_location": {"lat": 29.8594724, "lng": -95.35629089999999}, "html_instructions": "Turn <b>left</b> onto <b>Parker Rd</b>", "maneuver": "turn-left", "polyline": {"points": "c|fuDji`eQQyDCu@AUA{@AO?{@?[@[B_@B[@QBI?G?eBEeK?_@"}, "start_location": {"lat": 29.8593804, "lng": -95.3616603}, "travel_mode": "WALKING"}], "travel_mode": "WALKING"}, {"distance": {"text": "7.1 mi", "value": 11482}, "duration": {"text": "32 mins", "value": 1912}, "end_location": {"lat": 29.803696, "lng": -95.361215}, "html_instructions": "Bus towards Burnett TC", "polyline": {"points": "y|fuDxg_eQH??^DdK@dB?jB?pA?x@@XDzBBf@FpAB^?H@N@XBf@@P?@?@@RBh@@f@@J@RBn@@h@@h@Bf@@Z@f@@N@X@h@?H@ZAbD@jA?bF@jD?VAhHClG?^?dA@T?h@AP?FAFI\\P?vDEfECN?v@AzA?vACvEAP?~CCbBAfAAT?xE?AoAEsO@}@Dk@Bo@@E?S@s@CiDCmEAQAwEA{A?WA}A?kAAiB?WvEA`FClDAxCA\\Ab@@N?XBXH`@Hf@JPBp@Fd@@`@?PBxDApDCxDAf@AhAEd@Ah@GPCPCPETGFAHA\\KVI\\OnC}@`@Oh@Of@MXGxDOZA`ABf@AtAAf@?X?ZA@t@?^?d@?p@?r@@|@?L?j@@BB^?f@?N?Z?f@?T?r@@z@?l@?jA?tA?Z?bA?j@@`@?P?\\?|@@xC?V?r@?f@?HAp@?|@?L?J@|B?P?N@R?J?h@@tA?J@vAClAAh@Cn@Ax@?^?P@t@?R?d@@tB?j@@|D@rAAVxAB`@@dCD~ADr@@jBFp@@t@Bz@?T@RBTBt@JXBF@P@\\BZ@Z@f@@f@@|ADb@@V?R?PAX?\\?@?J?N?Z@f@@r@@L@p@@bADf@?fA@b@AZ?j@@l@B^BL@?S?I?Q?oA?o@?iACmDAuA?}A?k@A_A?cAA{@?Q?]?MA]Am@?kDC_E?}C?G?qB?y@?_@CWAK?MAWAKAMEa@CMAKKm@AEUsACUG]?ACS?EAUCUEy@?_AAeB@IAiA?iA?I?U?[?Y?KCgCAaA@SAeA?U?GAm@`@?P?~@?L?lBA|B?H?vACR?v@AfDAV?fB?PAjA?V?rDCd@?tCAp@AR?h@?rA?lBAL?~@AV?fA?p@AN?t@?VAx@@~@@`BDjCAZ?`D?b@A\\Af@?R?DAVAZAD?l@AL?l@?VAj@Bz@@T@H?H@r@@d@BzA@zBAX?rCAbCCR?rCC~B?PAvC@~BAR?vCC`CAR?vCA|BAT?nCAhAAZ??J"}, "start_location": {"lat": 29.85949, "lng": -95.356291}, "transit_details": {"arrival_stop": {"location": {"lat": 29.803696, "lng": -95.361215}, "name": "Irvington Blvd @ Cavalcade St"}, "arrival_time": {"text": "3:37pm", "time_zone": "America/Chicago", "value": 1642023420}, "departure_stop": {"location": {"lat": 29.85949, "lng": -95.356291}, "name": "Parker Rd @ Exeter St"}, "departure_time": {"text": "3:05pm", "time_zone": "America/Chicago", "value": 1642021508}, "headsign": "Burnett TC", "line": {"agencies": [{"name": "Metropolitan Transit Authority of Harris County", "phone": "1 (713) 635-4000", "url": "http://www.ridemetro.org/"}], "color": "#004080", "name": "Irvington", "short_name": "79", "text_color": "#ffffff", "url": "https://www.ridemetro.org/MetroPDFs/Schedules/BusSchedules/n079-Irvington.pdf", "vehicle": {"icon": "//maps.gstatic.com/mapfiles/transit/iw2/6/bus2.png", "name": "Bus", "type": "BUS"}}, "num_stops": 43, "trip_short_name": "IRVINGTON"}, "travel_mode": "TRANSIT"}, {"distance": {"text": "226 ft", "value": 69}, "duration": {"text": "1 min", "value": 69}, "end_location": {"lat": 29.8034358, "lng": -95.3607828}, "html_instructions": "Walk to Cavalcade St @ Irvington Blvd", "polyline": {"points": "c`|tDnf`eQr@??O@M?OAe@"}, "start_location": {"lat": 29.8036961, "lng": -95.3612022}, "steps": [{"distance": {"text": "108 ft", "value": 33}, "duration": {"text": "1 min", "value": 24}, "end_location": {"lat": 29.8034354, "lng": -95.3611153}, "html_instructions": "Head <b>south</b> on <b>Irvington Blvd</b> toward <b>Cavalcade St</b>", "polyline": {"points": "c`|tDnf`eQr@??O"}, "start_location": {"lat": 29.8036961, "lng": -95.3612022}, "travel_mode": "WALKING"}, {"distance": {"text": "118 ft", "value": 36}, "duration": {"text": "1 min", "value": 45}, "end_location": {"lat": 29.8034358, "lng": -95.3607828}, "html_instructions": "Turn <b>left</b> after Church's Chicken (on the right)", "maneuver": "turn-left", "polyline": {"points": "o~{tD~e`eQ@M?OAe@"}, "start_location": {"lat": 29.8034354, "lng": -95.3611153}, "travel_mode": "WALKING"}], "travel_mode": "WALKING"}, {"distance": {"text": "5.7 mi", "value": 9131}, "duration": {"text": "21 mins", "value": 1260}, "end_location": {"lat": 29.80163, "lng": -95.454342}, "html_instructions": "Bus towards Memorial City", "polyline": {"points": "q~{tDzc`eQH??l@?\\BpD@nB?fA@jA?tA?T?\\?lA@nA?tA@dA?Z@bA?pB@vDAlBAV?LANAT?RAXCR?@CXQ|@Kf@Sz@ENOr@CRE\\Cb@KfCARCpAAv@AXCf@?DAT?LAHCfAAd@?D?lB?h@?VBjC?lB?x@@z@@fB?fD@fDE`BA|@?HA\\@V?lA@L?\\?x@?V@j@@t@?L?JB`@@T@NBN@N@V?f@@f@?`A?r@?L?xBAP?JALAPANIbAEb@?TAR?V?fH?p@@vD@xAC^C^CRA@ETC\\Af@?P?P?LA`@@\\BpA?^@j@?H@tA?n@?b@@b@?X?P?V@`A?v@@dA?V?vA@T?lB@jB@tA?XB|E?~A@zB@nB?V?V@t@?L?R?L@R?N?f@?h@@|@?\\?d@?b@@n@?pA@|B?d@?`@@t@?T?pA@v@@rA?v@@bD@~@?nA@H?tB@^@dC?P?j@@x@?x@?t@@P?dA@|A?\\?^@dC@zB?xA?N@V?fA@`ABfE?tABtJ?pB@rA?r@?H?|@?jB?@?j@@h@AL?\\?J@f@?|B?h@?|@?n@?N?|G?J@tE?d@@dC?p@AL@J?V@P@H?B?D@F@HBH@JDPDLDLDHDJDJHLFHFHLL?@TVTVn@v@NRh@h@NPVX^f@BJBFBFf@v@P`@DZDVBT@F?D@F?H?P@P?X?N?F?j@@pAIpB@f@?V?fA?j@?V@h@AjA?h@@~@?b@@^Af@@d@?X?bA?jA?b@@nC?J?d@Aj@?v@?P@dB?jA?bC?`A?\\@dH?`D?dC@fE?jD?T@`F@vB?jD?vC?X?`E@V@zCAb@?fAAX@fB@fA?T@|B?l@A~A?x@?XAzB?`A?dB?l@?P?F?H@^?Z?@?H?@?Z?h@?f@?j@?^?t@@j@BnAAV@|@@fB?bBG?"}, "start_location": {"lat": 29.803446, "lng": -95.360783}, "transit_details": {"arrival_stop": {"location": {"lat": 29.80163, "lng": -95.454342}, "name": "W 18th St @ Northwest Fwy"}, "arrival_time": {"text": "4:03pm", "time_zone": "America/Chicago", "value": 1642025020}, "departure_stop": {"location": {"lat": 29.803446, "lng": -95.360783}, "name": "Cavalcade St @ Irvington Blvd"}, "departure_time": {"text": "3:42pm", "time_zone": "America/Chicago", "value": 1642023760}, "headsign": "Memorial City", "line": {"agencies": [{"name": "Metropolitan Transit Authority of Harris County", "phone": "1 (713) 635-4000", "url": "http://www.ridemetro.org/"}], "color": "#004080", "name": "Long Point / Cavalcade", "short_name": "26", "text_color": "#ffffff", "url": "https://www.ridemetro.org/MetroPDFs/Schedules/BusSchedules/n026-Long-Point-Cavalcade.pdf", "vehicle": {"icon": "//maps.gstatic.com/mapfiles/transit/iw2/6/bus2.png", "name": "Bus", "type": "BUS"}}, "num_stops": 34, "trip_short_name": "LONGPOINT"}, "travel_mode": "TRANSIT"}, {"distance": {"text": "322 ft", "value": 98}, "duration": {"text": "1 min", "value": 77}, "end_location": {"lat": 29.8019199, "lng": -95.45428179999999}, "html_instructions": "Walk to 4400 W 18th St, Houston, TX 77092, USA", "polyline": {"points": "es{tDrlreQ?z@YEc@E?G@Q@a@"}, "start_location": {"lat": 29.8016264, "lng": -95.454342}, "steps": [{"distance": {"text": "95 ft", "value": 29}, "duration": {"text": "1 min", "value": 22}, "end_location": {"lat": 29.8016252, "lng": -95.45463819999999}, "html_instructions": "Head <b>west</b> on <b>W 18th St</b>/<wbr/><b>NW Mall</b>", "polyline": {"points": "es{tDrlreQ?z@"}, "start_location": {"lat": 29.8016264, "lng": -95.454342}, "travel_mode": "WALKING"}, {"distance": {"text": "131 ft", "value": 40}, "duration": {"text": "1 min", "value": 33}, "end_location": {"lat": 29.8019405, "lng": -95.4545788}, "html_instructions": "Turn <b>right</b><div style=\"font-size:0.9em\">Restricted usage road</div>", "maneuver": "turn-right", "polyline": {"points": "es{tDnnreQYEc@E"}, "start_location": {"lat": 29.8016252, "lng": -95.45463819999999}, "travel_mode": "WALKING"}, {"distance": {"text": "95 ft", "value": 29}, "duration": {"text": "1 min", "value": 22}, "end_location": {"lat": 29.8019199, "lng": -95.45428179999999}, "html_instructions": "Turn <b>right</b><div style=\"font-size:0.9em\">Restricted usage road</div><div style=\"font-size:0.9em\">Destination will be on the left</div>", "maneuver": "turn-right", "polyline": {"points": "cu{tDbnreQ?G@Q@a@"}, "start_location": {"lat": 29.8019405, "lng": -95.4545788}, "travel_mode": "WALKING"}], "travel_mode": "WALKING"}], "traffic_speed_entry": [], "via_waypoint": []}], "overview_polyline": {"points": "wvhuD`v`eQrDk@J?BBBXBXhBYrE{@bASnE_AhFu@vGu@nC_@xHqAhBYQyDEkACcDJiBBQEkN?_@C?H??^FjN?|D@rAHbDLjCFtANvDPrG@f^ClH@zAAz@ANI\\P?~JIzFElNG|AAxE?AoACqQH{A@YA}EIsOCkH?WvEAnKEjFAr@LhATbAJfA@PBxDAjJEpBGnAIjAUfAYlDmAjA_@`AUtEQhB@|BAt@A@tA@hE?x@Db@?zB@rD@~J@bHA`DBbG@`BAdDGrDFtPAVxABfDFpHPpBBh@DlBTfBHpEJrCAdCFtBFnB@xCBl@D?]?{EEmKGiICqO?kDCw@E}@MiAs@wEEk@EyBAcGC_ICqC`C?xQIl`@MnCCxBB`BDjCA|D?`ACxAC|ACdAAfBD|AD`CDtCA~LIhLA|VKdBA?Fr@??O@]Ce@H??l@BnE@vD@tEBxHBhKEbDGvAa@`CYjASfAI`AMzCKjECr@ElB?rBBzHBdK@fDE`BAfA@pC@zCDpBFt@BnA@jDAjCAXShCAhJ@hFAxBOjAEhBFjIJjYLp[\\j`AJ~[@zM@nJB|W@bABZLp@Vp@^l@x@~@hBtBf@j@^f@BJFNf@v@P`@Jr@D\\@h@@bA@|BIpB@f@?~A?bA?tB@hB@pC?zLBdWDvd@@jKA`HDbIA`F?tK?bEDpE@`HG??z@YEc@E?GBs@"}, "summary": "", "warnings": ["Walking directions are in beta. Use caution \u2013 This route may be missing sidewalks or pedestrian paths."], "waypoint_order": []}], "status": "OK"}