{"geocoded_waypoints": [{"geocoder_status": "OK", "place_id": "ChIJed5dHqPDQIYRn-CBRQWax_A", "types": ["establishment", "point_of_interest", "primary_school", "school"]}, {"geocoder_status": "OK", "place_id": "ChIJ9_tphxzHQIYRIMyPy_d3VZU", "types": ["establishment", "point_of_interest"]}], "routes": [{"bounds": {"northeast": {"lat": 29.803205, "lng": -95.4519566}, "southwest": {"lat": 29.73641599999999, "lng": -95.5448222}}, "copyrights": "Map data \u00a92022", "legs": [{"arrival_time": {"text": "4:49pm", "time_zone": "America/Chicago", "value": 1642027767}, "departure_time": {"text": "3:41pm", "time_zone": "America/Chicago", "value": 1642023679}, "distance": {"text": "12.3 mi", "value": 19754}, "duration": {"text": "1 hour 8 mins", "value": 4088}, "end_address": "4400 W 18th St, Houston, TX 77092, USA", "end_location": {"lat": 29.8019199, "lng": -95.45428179999999}, "start_address": "2515 Old Farm Rd, Houston, TX 77063, USA", "start_location": {"lat": 29.7421607, "lng": -95.5098268}, "steps": [{"distance": {"text": "0.4 mi", "value": 654}, "duration": {"text": "8 mins", "value": 483}, "end_location": {"lat": 29.7376351, "lng": -95.51040549999999}, "html_instructions": "Walk to Westheimer Rd @ Old Farm Rd", "polyline": {"points": "o_ptDlg}eQA@AF?F@DBBB@fC??|@LDD@JFDFLVj@|@NRLNJHHJNQHITSPO\\WTOd@W`@OJGl@Sl@OPCZGZCb@EPALAhBAh@?\\??V?N?^"}, "start_location": {"lat": 29.7421607, "lng": -95.5098268}, "steps": [{"distance": {"text": "308 ft", "value": 94}, "duration": {"text": "1 min", "value": 68}, "end_location": {"lat": 29.7414477, "lng": -95.50998229999999}, "html_instructions": "Head <b>west</b>", "polyline": {"points": "o_ptDlg}eQA@AF?F@DBBB@fC?"}, "start_location": {"lat": 29.7421607, "lng": -95.5098268}, "travel_mode": "WALKING"}, {"distance": {"text": "112 ft", "value": 34}, "duration": {"text": "1 min", "value": 26}, "end_location": {"lat": 29.7414505, "lng": -95.51029469999999}, "html_instructions": "Turn <b>right</b> toward <b>Old Farm Rd</b>", "maneuver": "turn-right", "polyline": {"points": "a{otDjh}eQ?|@"}, "start_location": {"lat": 29.7414477, "lng": -95.50998229999999}, "travel_mode": "WALKING"}, {"distance": {"text": "361 ft", "value": 110}, "duration": {"text": "1 min", "value": 79}, "end_location": {"lat": 29.7407103, "lng": -95.5111271}, "html_instructions": "Turn <b>left</b> toward <b>Old Farm Rd</b>", "maneuver": "turn-left", "polyline": {"points": "a{otDhj}eQLDD@JFDFLVj@|@NRLNJHHJ"}, "start_location": {"lat": 29.7414505, "lng": -95.51029469999999}, "travel_mode": "WALKING"}, {"distance": {"text": "0.2 mi", "value": 378}, "duration": {"text": "5 mins", "value": 281}, "end_location": {"lat": 29.7376398, "lng": -95.5100508}, "html_instructions": "Turn <b>left</b> onto <b>Old Farm Rd</b>", "maneuver": "turn-left", "polyline": {"points": "mvotDpo}eQNQHITSPO\\WTOd@W`@OJGl@Sl@OPCZGZCb@EPALAhBAh@?\\?"}, "start_location": {"lat": 29.7407103, "lng": -95.5111271}, "travel_mode": "WALKING"}, {"distance": {"text": "125 ft", "value": 38}, "duration": {"text": "1 min", "value": 29}, "end_location": {"lat": 29.7376351, "lng": -95.51040549999999}, "html_instructions": "Turn <b>right</b> onto <b>Westheimer Rd</b><div style=\"font-size:0.9em\">Destination will be on the right</div>", "maneuver": "turn-right", "polyline": {"points": "gcotDxh}eQ?V?N?^"}, "start_location": {"lat": 29.7376398, "lng": -95.5100508}, "travel_mode": "WALKING"}], "travel_mode": "WALKING"}, {"distance": {"text": "1.7 mi", "value": 2718}, "duration": {"text": "7 mins", "value": 420}, "end_location": {"lat": 29.737336, "lng": -95.53840699999999}, "html_instructions": "Bus towards West Oaks Mall", "polyline": {"points": "mcotD`k}eQLA?V@rA@tC?N?^?T@X?V?`A?l@?`@@P?h@?z@@dA?p@?\\?^?D@VA^@t@?hB@r@?Z?jC@jA?r@?t@@vA?bB@j@?j@DzI?V?f@Ab@@^?fA?dA@|A?|@?jA@R?nD?l@@vA?vA@l@@`A?r@@xA@b@?T?d@@z@?d@?`@?d@?J?P?jB@bA@dB?d@@L?~@?J?J?F?N?|B?f@@x@@bC@n@?pC@lB?N?f@@j@?l@?h@?N?^@dC@lA?B@|C@xAA\\@H?bC?R?D?Z?XM?"}, "start_location": {"lat": 29.737667, "lng": -95.51040599999999}, "transit_details": {"arrival_stop": {"location": {"lat": 29.737336, "lng": -95.53840699999999}, "name": "Westheimer Rd @ Gessner Rd"}, "arrival_time": {"text": "3:57pm", "time_zone": "America/Chicago", "value": 1642024620}, "departure_stop": {"location": {"lat": 29.737667, "lng": -95.51040599999999}, "name": "Westheimer Rd @ Old Farm Rd"}, "departure_time": {"text": "3:50pm", "time_zone": "America/Chicago", "value": 1642024200}, "headsign": "West Oaks Mall", "line": {"agencies": [{"name": "Metropolitan Transit Authority of Harris County", "phone": "1 (713) 635-4000", "url": "http://www.ridemetro.org/"}], "color": "#004080", "name": "Westheimer", "short_name": "82", "text_color": "#ffffff", "url": "https://www.ridemetro.org/MetroPDFs/Schedules/BusSchedules/n082-Westheimer.pdf", "vehicle": {"icon": "//maps.gstatic.com/mapfiles/transit/iw2/6/bus2.png", "name": "Bus", "type": "BUS"}}, "num_stops": 10, "trip_short_name": "WHEIMER"}, "travel_mode": "TRANSIT"}, {"distance": {"text": "440 ft", "value": 134}, "duration": {"text": "2 mins", "value": 123}, "end_location": {"lat": 29.736421, "lng": -95.5388543}, "html_instructions": "Walk to Gessner Rd @ Westheimer Rd", "polyline": {"points": "eaotD|ybfQ?Z@D?N?VL@T@L?H@V?D@D?L@R@XBR@"}, "start_location": {"lat": 29.7373066, "lng": -95.5383919}, "steps": [{"distance": {"text": "131 ft", "value": 40}, "duration": {"text": "1 min", "value": 31}, "end_location": {"lat": 29.7372278, "lng": -95.5387659}, "html_instructions": "Head <b>west</b> on <b>Westheimer Rd</b> toward <b>S Gessner Rd</b>", "polyline": {"points": "eaotD|ybfQ?Z@D?N?VL@"}, "start_location": {"lat": 29.7373066, "lng": -95.5383919}, "travel_mode": "WALKING"}, {"distance": {"text": "308 ft", "value": 94}, "duration": {"text": "2 mins", "value": 92}, "end_location": {"lat": 29.736421, "lng": -95.5388543}, "html_instructions": "Turn <b>left</b> onto <b>S Gessner Rd</b>", "maneuver": "turn-left", "polyline": {"points": "u`otDh|bfQT@L?H@V?D@D?L@R@XBR@"}, "start_location": {"lat": 29.7372278, "lng": -95.5387659}, "travel_mode": "WALKING"}], "travel_mode": "WALKING"}, {"distance": {"text": "3.4 mi", "value": 5400}, "duration": {"text": "14 mins", "value": 840}, "end_location": {"lat": 29.782613, "lng": -95.543797}, "html_instructions": "Bus towards Hempstead Hwy", "polyline": {"points": "s{ntDn|bfQ?RUCWA[CKAE?WAQAa@Cw@?K?_@CUCMCUEWEc@IOGi@Qi@O_@KA?e@Gm@G_ACe@?A?aA@U@G?_A?E?a@@wA?eD@_@?wA@sB@c@?O?I?oB@M?aEBkEBsB?[?eA@_@CqEBQAoDFWBe@DYDa@Hk@Pg@Tg@XA?g@\\C@{@l@WPcAr@]TIBWRmAx@e@`@CB_@^ABMLUXY\\QTSXYf@S\\GHS^eAnBEHWj@MNKLMP?@U\\[d@Wb@a@f@i@h@IH[VaAp@q@`@E@k@XQFKBa@NQFODOD[Fq@Nw@DkAF{@@cBE[EO?GAQ?K?Y?gA@{B?kABm@Aq@?qBBaB@mACeAGc@Gk@IiAWm@MaAOwAMgAGs@?}@?qA?Q?iD?sCBS?oF?oC?U?_B?iA@oCBU?gD?yABkA@yA?u@@W?mA?oA?sC@W?qD?A?c@?mADi@Ac@@A?M?m@Ac@?c@?OA]?c@Ac@?]?k@?y@?[?G?c@?e@AE?sAEu@EA?aAKkASc@GOC{@MICWCWCWCWC_@C@S"}, "start_location": {"lat": 29.73641599999999, "lng": -95.53880199999999}, "transit_details": {"arrival_stop": {"location": {"lat": 29.782613, "lng": -95.543797}, "name": "Gessner Rd @ Katy Fwy"}, "arrival_time": {"text": "4:16pm", "time_zone": "America/Chicago", "value": 1642025760}, "departure_stop": {"location": {"lat": 29.73641599999999, "lng": -95.53880199999999}, "name": "Gessner Rd @ Westheimer Rd"}, "departure_time": {"text": "4:02pm", "time_zone": "America/Chicago", "value": 1642024920}, "headsign": "Hempstead Hwy", "line": {"agencies": [{"name": "Metropolitan Transit Authority of Harris County", "phone": "1 (713) 635-4000", "url": "http://www.ridemetro.org/"}], "color": "#004080", "name": "Gessner", "short_name": "46", "text_color": "#ffffff", "url": "https://www.ridemetro.org/MetroPDFs/Schedules/BusSchedules/n046-Gessner.pdf", "vehicle": {"icon": "//maps.gstatic.com/mapfiles/transit/iw2/6/bus2.png", "name": "Bus", "type": "BUS"}}, "num_stops": 18, "trip_short_name": "GESSNER"}, "travel_mode": "TRANSIT"}, {"distance": {"text": "6.5 mi", "value": 10474}, "duration": {"text": "25 mins", "value": 1522}, "end_location": {"lat": 29.80140099999999, "lng": -95.45297}, "html_instructions": "Bus towards Kashmere TC", "polyline": {"points": "i|wtDv{cfQARSAk@ASAOAg@?[AA?}@@_@Aw@?u@AC?i@?aA?QAaADA?g@D{@Da@DO@Y@S@A?w@BM@Y@S@U@SBYBI@OBA?QBUDE@k@L_@LIBSF]FYFC?c@DSB]Ba@@s@@c@?gABw@?W?[@_@?U?S?E?o@@m@AeB@S?y@@gA@c@?c@@k@?m@@oA@E?W?s@@BeB?g@?oB@Q?qA?Y?]?eB?q@@mA@}BA]?_A?a@LoA@KDWBY@Y?wAAy@?K?o@Ac@?Q?sA?_@Ec@?AO}@ACEWY}AUmA?AESCQUiA[kBMq@EUCK[gBQgAGc@EYIe@G[G]Qw@Ia@UqAQ}@]sBSeASeACSMm@AGG[Ki@G_@Ki@G_@A?Ko@o@mDMo@_@wBMs@Ie@Qq@YsAACGU_@yAAEGUM_@Om@EUOm@EQMe@Oo@EQCOIYEQK_@COEMCMGUAICMGSEQMk@Sy@QuACOEc@Ge@C]CKE_@Eg@COE_@O{AQ}Aa@uDCUc@eEE]UqBKkAGc@MqAOwA_@sDGm@@I?K?IEoAMw@Gy@Ee@CUE]Ie@GUGUGSKUKWEKKU_@o@q@mA_@k@QWKQe@e@_@YCAWQMI[SCCQKUMGGGGWWWa@AASc@Sk@ACEQGUE]EY?EAM?GCs@?YIsBGaBAi@Cg@?_@?C?[B}B?[?mB@a@@gB@y@?WB}F?qA@qB?K?M?oA?YAq@?S?wC?aAAsF@sA?WA}D?c@?MAi@?e@COAW?i@Ay@?Y@k@?S@SES?G@]@I?[@_@?I?[@a@?]@E?m@@e@@y@?O?Y@o@@sB@g@?I@_B?s@@W?a@?Y@aA?S@i@?e@@}@@eA?g@@s@?s@?M?K?Y?U?U?GAK?GAI?E@Q?c@?K?E?A?C?A?A@C?E?Y@U?o@@uA@k@?a@?_@@[?Q?c@?O?]?e@@S?[?U?SAa@@S?y@?GAo@?_@?Q?S@_@?[@_A?[?oAAk@?O?Q?Q?[?c@?S?I@y@?G?Q?i@AuA?_A?aA?I?gAAw@?W?s@?U?U?m@?i@?o@Ag@?I?{A?O?q@?e@?eB?{A?UA]?kHAeI?EAY?kG?IAiC?s@?_BAoC?g@?qC?_CAoA?eA?M?s@AuC?Q?c@?e@?G?Q?I?oA?q@?i@?O?a@?c@?OAK?G?IAICGCECCEC?AKIEEOO`@o@FKt@gAb@q@HM`A{Ah@w@dA_Bh@y@@]EsB?]@g@?YAU?a@AyE?I?IAgA?uAAuC?o@@W?uC?W?]AuAAi@?iA?_B?AH?"}, "start_location": {"lat": 29.782613, "lng": -95.543797}, "transit_details": {"arrival_stop": {"location": {"lat": 29.80140099999999, "lng": -95.45297}, "name": "W 18th St @ Northwest Fwy"}, "arrival_time": {"text": "4:44pm", "time_zone": "America/Chicago", "value": 1642027462}, "departure_stop": {"location": {"lat": 29.782613, "lng": -95.543797}, "name": "Gessner Rd @ Katy Fwy"}, "departure_time": {"text": "4:19pm", "time_zone": "America/Chicago", "value": 1642025940}, "headsign": "Kashmere TC", "line": {"agencies": [{"name": "Metropolitan Transit Authority of Harris County", "phone": "1 (713) 635-4000", "url": "http://www.ridemetro.org/"}], "color": "#004080", "name": "Long Point / Cavalcade", "short_name": "26", "text_color": "#ffffff", "url": "https://www.ridemetro.org/MetroPDFs/Schedules/BusSchedules/n026-Long-Point-Cavalcade.pdf", "vehicle": {"icon": "//maps.gstatic.com/mapfiles/transit/iw2/6/bus2.png", "name": "Bus", "type": "BUS"}}, "num_stops": 42, "trip_short_name": "LONGPOINT"}, "travel_mode": "TRANSIT"}, {"distance": {"text": "0.2 mi", "value": 374}, "duration": {"text": "5 mins", "value": 304}, "end_location": {"lat": 29.8019199, "lng": -95.45428179999999}, "html_instructions": "Walk to 4400 W 18th St, Houston, TX 77092, USA", "polyline": {"points": "{q{tD`dreQ@]?g@@mACu@MDSFMD?j@?h@BnAAV@|@@hBYDe@F@D@R@f@?D"}, "start_location": {"lat": 29.8014155, "lng": -95.4529697}, "steps": [{"distance": {"text": "328 ft", "value": 100}, "duration": {"text": "1 min", "value": 78}, "end_location": {"lat": 29.8014885, "lng": -95.45198769999999}, "html_instructions": "Head <b>east</b> on <b>W 18th St</b>/<wbr/><b>NW Mall</b> toward <b>W Loop S Fwy</b><div style=\"font-size:0.9em\">Pass by Burger King (on the right in 279&nbsp;ft)</div>", "polyline": {"points": "{q{tD`dreQ@]?g@@mACu@MD"}, "start_location": {"lat": 29.8014155, "lng": -95.4529697}, "travel_mode": "WALKING"}, {"distance": {"text": "0.1 mi", "value": 198}, "duration": {"text": "3 mins", "value": 165}, "end_location": {"lat": 29.8016283, "lng": -95.4538499}, "html_instructions": "Cross the road", "polyline": {"points": "ir{tD|}qeQSFMD?j@?h@BnAAV@|@@hB"}, "start_location": {"lat": 29.8014885, "lng": -95.45198769999999}, "travel_mode": "WALKING"}, {"distance": {"text": "131 ft", "value": 40}, "duration": {"text": "1 min", "value": 34}, "end_location": {"lat": 29.80194599999999, "lng": -95.4539156}, "html_instructions": "Turn <b>right</b><div style=\"font-size:0.9em\">Restricted usage road</div>", "maneuver": "turn-right", "polyline": {"points": "es{tDpireQYDe@F"}, "start_location": {"lat": 29.8016283, "lng": -95.4538499}, "travel_mode": "WALKING"}, {"distance": {"text": "118 ft", "value": 36}, "duration": {"text": "1 min", "value": 27}, "end_location": {"lat": 29.8019199, "lng": -95.45428179999999}, "html_instructions": "Turn <b>left</b><div style=\"font-size:0.9em\">Restricted usage road</div><div style=\"font-size:0.9em\">Destination will be on the right</div>", "maneuver": "turn-left", "polyline": {"points": "eu{tD~ireQ@D@R@f@?D"}, "start_location": {"lat": 29.80194599999999, "lng": -95.4539156}, "travel_mode": "WALKING"}], "travel_mode": "WALKING"}], "traffic_speed_entry": [], "via_waypoint": []}], "overview_polyline": {"points": "o_ptDlg}eQCH@LFDfC??|@RFPNx@tA\\b@TTX[zAkAfAg@x@[~@Sv@Kt@GvBCfA??f@?^E?LA?VBhF?n@@hC@jC@nHDpPFrUDhLFjSBtGDfL?`DDtGBjMFvO?xD?XM?DC?Z@T?VL@b@@`@@l@Dl@D?I?RUCs@E{@EyACk@CqASgCs@a@KsAOeBCcA@cB@_QFkVJqF?aED}@H{@NsAf@i@X_C~AcC`BmAx@e@`@c@b@_AhAe@n@m@dAgBbDWj@MNY^iAhBkApAe@`@aAp@q@`@q@ZqAb@mBb@cCL_DCeAGiF@yB@cDBoDAiBOuBa@oB]_DUqB?aLBiL?wVJkQBqBDmA?aBA}GCmBAqCKmC_@s@KuBYo@G_@C@SARSA_ACuACkEAoB?sABi@DgCN{AFwAHu@HyAX{A`@uAP_ADwA@sDDoA?aLFoDBkA@BmC@mF@cG?}FXmC?wDAyDEcAO_Aw@gEsAqHm@oDM}@k@wCiCsNs@wDiBeKcA_FwAsF}BqJS}@Sy@QuAIs@KcAScBiAoKuBeSg@aF@UEyAUqBI{@OcAOk@Si@}@iBoBcDe@e@_@Y[S_Am@]U_@_@Yc@g@oAUiAGu@UcHEuBBcHD{EDmMAiDAoXIcG@_A@SES@e@@e@BgBBwBHyKDmHD_F?gBCwAH_JByEAgB?eCBmHA}DAoTGyl@G{d@?aGAgAASGMUSUUh@{@dDcFnBwCh@y@@]EqC@aAC{GC}H@uFCgF?aBD?@eAAcCa@LMD?j@BxB?tA@hBYDe@F@DBz@?D"}, "summary": "", "warnings": ["Walking directions are in beta. Use caution \u2013 This route may be missing sidewalks or pedestrian paths."], "waypoint_order": []}, {"bounds": {"northeast": {"lat": 29.803817, "lng": -95.45426839999999}, "southwest": {"lat": 29.7376489, "lng": -95.51106650000001}}, "copyrights": "Map data \u00a92022", "legs": [{"arrival_time": {"text": "4:51pm", "time_zone": "America/Chicago", "value": 1642027884}, "departure_time": {"text": "3:42pm", "time_zone": "America/Chicago", "value": 1642023730}, "distance": {"text": "9.1 mi", "value": 14656}, "duration": {"text": "1 hour 9 mins", "value": 4154}, "end_address": "4400 W 18th St, Houston, TX 77092, USA", "end_location": {"lat": 29.8019199, "lng": -95.45428179999999}, "start_address": "2515 Old Farm Rd, Houston, TX 77063, USA", "start_location": {"lat": 29.7421607, "lng": -95.5098268}, "steps": [{"distance": {"text": "1.0 mi", "value": 1629}, "duration": {"text": "21 mins", "value": 1250}, "end_location": {"lat": 29.7385649, "lng": -95.50063809999999}, "html_instructions": "Walk to S Voss Rd @ Westheimer Rd", "polyline": {"points": "o_ptDlg}eQA@AF?F@DBBB@fC??|@LDD@JFDFLVj@|@NRLNJHNQHITURO\\WTOf@Y`@OLEl@Ul@OPC\\GZCZENARA?[nBEAaBb@??cB?uAb@??cAAsA?m@?O?M?w@?U?Q?UAqB?O?_@AG?O?c@?O?Q?O?c@?O@oAAKAOAsAAeA@u@?O?YAu@?Q?G?O?k@Ag@?u@?C?S?Q?k@AO?y@EGDOA[?O?I?O}A?Aa@I?e@?S?"}, "start_location": {"lat": 29.7421607, "lng": -95.5098268}, "steps": [{"distance": {"text": "308 ft", "value": 94}, "duration": {"text": "1 min", "value": 68}, "end_location": {"lat": 29.7414477, "lng": -95.50998229999999}, "html_instructions": "Head <b>west</b>", "polyline": {"points": "o_ptDlg}eQA@AF?F@DBBB@fC?"}, "start_location": {"lat": 29.7421607, "lng": -95.5098268}, "travel_mode": "WALKING"}, {"distance": {"text": "112 ft", "value": 34}, "duration": {"text": "1 min", "value": 26}, "end_location": {"lat": 29.7414505, "lng": -95.51029469999999}, "html_instructions": "Turn <b>right</b> toward <b>Old Farm Rd</b>", "maneuver": "turn-right", "polyline": {"points": "a{otDjh}eQ?|@"}, "start_location": {"lat": 29.7414477, "lng": -95.50998229999999}, "travel_mode": "WALKING"}, {"distance": {"text": "361 ft", "value": 110}, "duration": {"text": "1 min", "value": 79}, "end_location": {"lat": 29.7407594, "lng": -95.51106650000001}, "html_instructions": "Turn <b>left</b> toward <b>Old Farm Rd</b>", "maneuver": "turn-left", "polyline": {"points": "a{otDhj}eQLDD@JFDFLVj@|@NRLNJH"}, "start_location": {"lat": 29.7414505, "lng": -95.51029469999999}, "travel_mode": "WALKING"}, {"distance": {"text": "0.2 mi", "value": 271}, "duration": {"text": "3 mins", "value": 201}, "end_location": {"lat": 29.738564, "lng": -95.5099776}, "html_instructions": "Turn <b>left</b> onto <b>Old Farm Rd</b>", "maneuver": "turn-left", "polyline": {"points": "wvotDdo}eQNQHITURO\\WTOf@Y`@OLEl@Ul@OPC\\GZCZENARA"}, "start_location": {"lat": 29.7407594, "lng": -95.51106650000001}, "travel_mode": "WALKING"}, {"distance": {"text": "59 ft", "value": 18}, "duration": {"text": "1 min", "value": 13}, "end_location": {"lat": 29.73856, "lng": -95.5098361}, "html_instructions": "Turn <b>left</b>", "maneuver": "turn-left", "polyline": {"points": "_iotDjh}eQ?["}, "start_location": {"lat": 29.738564, "lng": -95.5099776}, "travel_mode": "WALKING"}, {"distance": {"text": "203 ft", "value": 62}, "duration": {"text": "1 min", "value": 45}, "end_location": {"lat": 29.7380041, "lng": -95.5098132}, "html_instructions": "Turn <b>right</b>", "maneuver": "turn-right", "polyline": {"points": "_iotDng}eQnBE"}, "start_location": {"lat": 29.73856, "lng": -95.5098361}, "travel_mode": "WALKING"}, {"distance": {"text": "157 ft", "value": 48}, "duration": {"text": "1 min", "value": 36}, "end_location": {"lat": 29.7380145, "lng": -95.5093193}, "html_instructions": "Turn <b>left</b> toward <b>Westheimer Rd</b>", "maneuver": "turn-left", "polyline": {"points": "oeotDhg}eQAaB"}, "start_location": {"lat": 29.7380041, "lng": -95.5098132}, "travel_mode": "WALKING"}, {"distance": {"text": "66 ft", "value": 20}, "duration": {"text": "1 min", "value": 14}, "end_location": {"lat": 29.7378324, "lng": -95.5093151}, "html_instructions": "Turn <b>right</b> toward <b>Westheimer Rd</b>", "maneuver": "turn-right", "polyline": {"points": "qeotDfd}eQb@?"}, "start_location": {"lat": 29.7380145, "lng": -95.5093193}, "travel_mode": "WALKING"}, {"distance": {"text": "295 ft", "value": 90}, "duration": {"text": "1 min", "value": 66}, "end_location": {"lat": 29.7378278, "lng": -95.508387}, "html_instructions": "Turn <b>left</b> toward <b>Westheimer Rd</b>", "maneuver": "turn-left", "polyline": {"points": "mdotDfd}eQ?cB?uA"}, "start_location": {"lat": 29.7378324, "lng": -95.5093151}, "travel_mode": "WALKING"}, {"distance": {"text": "79 ft", "value": 24}, "duration": {"text": "1 min", "value": 18}, "end_location": {"lat": 29.7376489, "lng": -95.5083867}, "html_instructions": "Turn <b>right</b> toward <b>Westheimer Rd</b>", "maneuver": "turn-right", "polyline": {"points": "mdotDl~|eQb@?"}, "start_location": {"lat": 29.7378278, "lng": -95.508387}, "travel_mode": "WALKING"}, {"distance": {"text": "0.4 mi", "value": 689}, "duration": {"text": "9 mins", "value": 529}, "end_location": {"lat": 29.7377305, "lng": -95.50127549999999}, "html_instructions": "Turn <b>left</b> onto <b>Westheimer Rd</b><div style=\"font-size:0.9em\">Pass by McDonald's (on the left in 0.4&nbsp;mi)</div>", "maneuver": "turn-left", "polyline": {"points": "icotDl~|eQ?cAAsA?m@?O?M?w@?U?Q?UAqB?O?_@AG?O?c@?O?Q?O?c@?O@oAAKAOAsAAeA@u@?O?YAu@?Q?G?O?k@Ag@?u@?C?S?Q?k@AO?y@"}, "start_location": {"lat": 29.7376489, "lng": -95.5083867}, "travel_mode": "WALKING"}, {"distance": {"text": "23 ft", "value": 7}, "duration": {"text": "1 min", "value": 5}, "end_location": {"lat": 29.7377626, "lng": -95.50124079999999}, "html_instructions": "Turn <b>left</b> toward <b>Westheimer Rd</b>", "maneuver": "turn-left", "polyline": {"points": "ycotD~q{eQEG"}, "start_location": {"lat": 29.7377305, "lng": -95.50127549999999}, "travel_mode": "WALKING"}, {"distance": {"text": "23 ft", "value": 7}, "duration": {"text": "1 min", "value": 15}, "end_location": {"lat": 29.7377338, "lng": -95.50115819999999}, "html_instructions": "Cross the road", "polyline": {"points": "_dotDvq{eQDO"}, "start_location": {"lat": 29.7377626, "lng": -95.50124079999999}, "travel_mode": "WALKING"}, {"distance": {"text": "128 ft", "value": 39}, "duration": {"text": "1 min", "value": 39}, "end_location": {"lat": 29.7377382, "lng": -95.5008095}, "html_instructions": "Sharp <b>left</b> onto <b>Westheimer Rd</b>", "maneuver": "turn-sharp-left", "polyline": {"points": "ycotDfq{eQA[?O?I?O"}, "start_location": {"lat": 29.7377338, "lng": -95.50115819999999}, "travel_mode": "WALKING"}, {"distance": {"text": "187 ft", "value": 57}, "duration": {"text": "1 min", "value": 50}, "end_location": {"lat": 29.7382135, "lng": -95.50080659999999}, "html_instructions": "Turn <b>left</b> onto <b>S Voss Rd</b>", "maneuver": "turn-left", "polyline": {"points": "{cotD`o{eQ}A?"}, "start_location": {"lat": 29.7377382, "lng": -95.5008095}, "travel_mode": "WALKING"}, {"distance": {"text": "66 ft", "value": 20}, "duration": {"text": "1 min", "value": 15}, "end_location": {"lat": 29.7382161, "lng": -95.5006417}, "html_instructions": "Turn <b>right</b>", "maneuver": "turn-right", "polyline": {"points": "yfotD`o{eQAa@"}, "start_location": {"lat": 29.7382135, "lng": -95.50080659999999}, "travel_mode": "WALKING"}, {"distance": {"text": "128 ft", "value": 39}, "duration": {"text": "1 min", "value": 31}, "end_location": {"lat": 29.7385649, "lng": -95.50063809999999}, "html_instructions": "Turn <b>left</b><div style=\"font-size:0.9em\">Destination will be on the left</div>", "maneuver": "turn-left", "polyline": {"points": "{fotD~m{eQI?e@?S?"}, "start_location": {"lat": 29.7382161, "lng": -95.5006417}, "travel_mode": "WALKING"}], "travel_mode": "WALKING"}, {"distance": {"text": "5.6 mi", "value": 9003}, "duration": {"text": "21 mins", "value": 1260}, "end_location": {"lat": 29.783077, "lng": -95.455467}, "html_instructions": "Bus towards Northwest TC", "polyline": {"points": "aiotDtn{eQ?RWAgA@Y@aAA{ABcA?I?sC@]?kA@_@?E?C?K?yABo@?MAkCBw@@g@?a@?YA]?M?i@@]?O@q@?I?m@?gA@{BBiE?iBB{A@eE?}ADG?yABW?WA_@@a@?sA?kA?gBAk@@sA@]@y@@o@?k@?GIAAC?MEGAEAMEICSIKEGEQK[Oa@m@CC[e@IMS[?AEIEIKWWy@WsAe@aCUoAES_@qBGYKk@o@mDQ}@GUCOY{AScAI]y@qE]gBY{A]kBUgAG_@i@uCk@{CKg@ACGe@G[Gi@?CGo@AOASc@iFC_@WuCG}@CUC[AWW{CEc@Ku@I[GSISIQOYQW[c@iAmAwAiBc@i@{@{@QSm@o@gAsACE_@c@SYyAaBi@k@IKs@w@s@y@KM]a@WYq@_AKQGKAAO[O]Qs@CEEYCSC_@C_@Aa@?S?Q?y@Ay@?uA?ICcEAcD?]AaFC}DCY@Y@O?S@G?G@IB[Fc@F[Nk@JYLa@FQNc@Ja@He@Ho@B]B_@@S@Y?Y?g@?Y?aB@W@SFw@F_@?AH_@Tu@Tg@b@w@LW@?Pc@FQJUFUHWBMFYBS@E@G@Q?IBS?Q@M?OAq@?i@?]AoAAwB?AAY?KAEA]?CAICOE[Kc@Ma@CGGOGQEGIOEISYUYCCYYa@g@QS?AOQIMMYA?Wk@I[IYIc@?CEWCUCQCe@KyAI{@CQEQEOKYUs@Ue@}AiDUi@KW_@y@QLSBY@c@?u@@m@@eCB}DDsCAK?U?}B@_A@yA@wEBeBBU?e@AW?cDBI?K?k@?U@?o@?WAO?qAA_@?UY@oA?]?A?A?G?G?SAEAWAO?Y?c@?c@@gA@a@?kB@c@@aB@m@@}@?kB?c@??RiA?eBDcB?kA@sA@A??@gA?gFDkHBQ?i@Sw@CSKISGOB_B?yA?i@BeCX?V?\\A^?\\?@?b@?BXQ^?f@?j@?d@W?"}, "start_location": {"lat": 29.7385652, "lng": -95.5007492}, "transit_details": {"arrival_stop": {"location": {"lat": 29.783077, "lng": -95.455467}, "name": "Northwest Transit Center - South Platform"}, "arrival_time": {"text": "4:24pm", "time_zone": "America/Chicago", "value": 1642026240}, "departure_stop": {"location": {"lat": 29.7385652, "lng": -95.5007492}, "name": "S Voss Rd @ Westheimer Rd"}, "departure_time": {"text": "4:03pm", "time_zone": "America/Chicago", "value": 1642024980}, "headsign": "Northwest TC", "line": {"agencies": [{"name": "Metropolitan Transit Authority of Harris County", "phone": "1 (713) 635-4000", "url": "http://www.ridemetro.org/"}], "color": "#004080", "name": "Hillcroft", "short_name": "47", "text_color": "#ffffff", "url": "https://www.ridemetro.org/MetroPDFs/Schedules/BusSchedules/n047-Hillcroft.pdf", "vehicle": {"icon": "//maps.gstatic.com/mapfiles/transit/iw2/6/bus2.png", "name": "Bus", "type": "BUS"}}, "num_stops": 24, "trip_short_name": "HILLCROFT"}, "travel_mode": "TRANSIT"}, {"distance": {"text": "0.2 mi", "value": 263}, "duration": {"text": "3 mins", "value": 192}, "end_location": {"lat": 29.7837801, "lng": -95.4554653}, "html_instructions": "Walk to Northwest Transit Center - North Platform", "polyline": {"points": "_}wtDtqreQDUBODIK@]MMMECOKICKAK@E?U?E?_@@m@?AxAAX?f@"}, "start_location": {"lat": 29.7827161, "lng": -95.4551537}, "steps": [{"distance": {"text": "121 ft", "value": 37}, "duration": {"text": "1 min", "value": 26}, "end_location": {"lat": 29.78264219999999, "lng": -95.4549134}, "html_instructions": "Head <b>east</b>", "polyline": {"points": "_}wtDtqreQDUBODI"}, "start_location": {"lat": 29.7827161, "lng": -95.4551537}, "travel_mode": "WALKING"}, {"distance": {"text": "482 ft", "value": 147}, "duration": {"text": "2 mins", "value": 109}, "end_location": {"lat": 29.7837613, "lng": -95.45468609999999}, "html_instructions": "Sharp <b>left</b> toward <b>Old Katy Rd</b>", "maneuver": "turn-sharp-left", "polyline": {"points": "o|wtDdpreQK@]MMMECOKICKAK@E?U?E?_@@m@?"}, "start_location": {"lat": 29.78264219999999, "lng": -95.4549134}, "travel_mode": "WALKING"}, {"distance": {"text": "259 ft", "value": 79}, "duration": {"text": "1 min", "value": 57}, "end_location": {"lat": 29.7837801, "lng": -95.4554653}, "html_instructions": "Turn <b>left</b> onto <b>Old Katy Rd</b>", "maneuver": "turn-left", "polyline": {"points": "ocxtDxnreQAxAAX?f@"}, "start_location": {"lat": 29.7837613, "lng": -95.45468609999999}, "travel_mode": "WALKING"}], "travel_mode": "WALKING"}, {"distance": {"text": "2.0 mi", "value": 3143}, "duration": {"text": "9 mins", "value": 523}, "end_location": {"lat": 29.803817, "lng": -95.458625}, "html_instructions": "Bus towards Dacoma Shuttle", "polyline": {"points": "w~wtDvwreQRwAF@D?DABA@CDIDSB[@g@BUBM@AN]FGJY@K?MCUCKCCA?OGQAGAE?E@GDQJOPMD[BY@W?aAAY@c@?AVAzAAb@?f@?L?ZAn@?`B?R?f@sBNO@Q@Y?W?K@wA@y@@K?u@?wA@U?O?}@@I?Y?_@?_@@oA@oD@eABM?A?a@?c@?qA@W?w@?cA@s@?c@@_@?uA@a@?OAY?q@@c@?_@?[@cA@a@?U?G?C?E?]@S?S@]@c@?}@@M?w@@]?mA@_B@W?E?e@Aa@EQEWG[OUM[QIG_@Ui@i@e@_@OQQQOMCCc@a@MR{A|BU\\W`@sBtCg@z@a@L{@vA]b@Sd@w@lAYh@OVk@r@Yj@EsB?]@aAAU?a@[@uEDaA@gAD_A@e@??I"}, "start_location": {"lat": 29.7830001, "lng": -95.4561157}, "transit_details": {"arrival_stop": {"location": {"lat": 29.803817, "lng": -95.458625}, "name": "Mangum Rd @ W 20th St"}, "arrival_time": {"text": "4:43pm", "time_zone": "America/Chicago", "value": 1642027423}, "departure_stop": {"location": {"lat": 29.7830001, "lng": -95.4561157}, "name": "Northwest Transit Center - North Platform"}, "departure_time": {"text": "4:35pm", "time_zone": "America/Chicago", "value": 1642026900}, "headsign": "Dacoma Shuttle", "line": {"agencies": [{"name": "Metropolitan Transit Authority of Harris County", "phone": "1 (713) 635-4000", "url": "http://www.ridemetro.org/"}], "color": "#004080", "name": "Dacoma", "short_name": "89", "text_color": "#ffffff", "url": "https://www.ridemetro.org/MetroPDFs/Schedules/BusSchedules/n089-Dacoma.pdf", "vehicle": {"icon": "//maps.gstatic.com/mapfiles/transit/iw2/6/bus2.png", "name": "Bus", "type": "BUS"}}, "num_stops": 9, "trip_short_name": "DACOMA"}, "travel_mode": "TRANSIT"}, {"distance": {"text": "0.4 mi", "value": 618}, "duration": {"text": "8 mins", "value": 461}, "end_location": {"lat": 29.8019199, "lng": -95.45428179999999}, "html_instructions": "Walk to 4400 W 18th St, Houston, TX 77092, USA", "polyline": {"points": "{`|tDlgseQd@A~@AdACbAA@[Ae@?g@ASDKP]d@}@Xq@B]QOIIOMEKKAQUGGEIAE?C?A@C@EBEV_@KMNWHMJSRa@Ts@R}@Jy@Hy@?G@Q@a@"}, "start_location": {"lat": 29.8038169, "lng": -95.458628}, "steps": [{"distance": {"text": "436 ft", "value": 133}, "duration": {"text": "2 mins", "value": 96}, "end_location": {"lat": 29.80261729999999, "lng": -95.45858140000001}, "html_instructions": "Head <b>south</b> on <b>Mangum Rd</b>", "polyline": {"points": "{`|tDlgseQd@A~@AdACbAA"}, "start_location": {"lat": 29.8038169, "lng": -95.458628}, "travel_mode": "WALKING"}, {"distance": {"text": "0.1 mi", "value": 168}, "duration": {"text": "2 mins", "value": 133}, "end_location": {"lat": 29.8021725, "lng": -95.45703209999999}, "html_instructions": "Turn <b>left</b>", "maneuver": "turn-left", "polyline": {"points": "ky{tDbgseQ@[Ae@?g@ASDKP]d@}@Xq@B]"}, "start_location": {"lat": 29.80261729999999, "lng": -95.45858140000001}, "travel_mode": "WALKING"}, {"distance": {"text": "348 ft", "value": 106}, "duration": {"text": "1 min", "value": 80}, "end_location": {"lat": 29.8024852, "lng": -95.4562641}, "html_instructions": "Turn <b>left</b><div style=\"font-size:0.9em\">Partial restricted usage road</div>", "maneuver": "turn-left", "polyline": {"points": "qv{tDl}reQQOIIOMEKKAQUGGEIAE?C?A@C@EBEV_@"}, "start_location": {"lat": 29.8021725, "lng": -95.45703209999999}, "travel_mode": "WALKING"}, {"distance": {"text": "33 ft", "value": 10}, "duration": {"text": "1 min", "value": 8}, "end_location": {"lat": 29.8025494, "lng": -95.456192}, "html_instructions": "Turn <b>left</b><div style=\"font-size:0.9em\">Restricted usage road</div>", "maneuver": "turn-left", "polyline": {"points": "qx{tDrxreQKM"}, "start_location": {"lat": 29.8024852, "lng": -95.4562641}, "travel_mode": "WALKING"}, {"distance": {"text": "0.1 mi", "value": 201}, "duration": {"text": "2 mins", "value": 144}, "end_location": {"lat": 29.8019199, "lng": -95.45428179999999}, "html_instructions": "Turn <b>right</b><div style=\"font-size:0.9em\">Restricted usage road</div><div style=\"font-size:0.9em\">Destination will be on the left</div>", "maneuver": "turn-right", "polyline": {"points": "}x{tDdxreQNWHMJSRa@Ts@R}@Jy@Hy@?G@Q@a@"}, "start_location": {"lat": 29.8025494, "lng": -95.456192}, "travel_mode": "WALKING"}], "travel_mode": "WALKING"}], "traffic_speed_entry": [], "via_waypoint": []}], "overview_polyline": {"points": "o_ptDlg}eQCH@LFDfC??|@RFPNx@tA\\b@JHNQ^_@p@g@|@i@n@UzAe@fBUb@C?[nBEAaBb@??yDb@??cAAaC?kBCeGAqECyC@eAAiBAoFAiAEGDOAk@?Y}A?Aa@o@?S?AT?RWAaBB}C@_G@yGBmGDoB?ePFeEDeE?}ADaBBo@AaF@sC?qBBiB@k@?GIEAUGq@UaAg@kAeB_@q@c@qA}@uEcAoFqC{NcG{[]mBQmBsA{P]_EUqAQg@Yk@m@{@aDwD_BeB_AcA_CwCaEqEuBcCgA_B_@y@Uy@Im@G_AAu@?kAE}IGaRAs@@c@Fu@N_AZeAp@yBRuAF}@BoBBgDNwAHa@Tu@Tg@p@oAf@kA\\uAHs@D}@GmJCs@WyAa@kAi@{@uA_Bk@u@OYa@gAYyAWgDMmAKa@a@mAsBoEa@aA_@y@QLm@DyA@sDD}DDsCAa@?}DBmLHkF@w@?U@?o@Ag@AqB?UY@mB?S?aAE}LH{F@?RiA?iED_DBA@mRHi@Sw@CSKISGOB_B?cCBeCX?t@AbB?BXQ^?rA?d@W?fA_ADUHYK@]MSQYOs@?e@@m@?AxAA`AzC`CRwAL@HCFMHo@D}@DOVe@Le@Cc@GOQGYCK@YPOPMDu@DwC?E~DAzD?z@cCPoABoKFcB@sIFaJB{HBiEBkGHcFBk@As@Ks@Wq@_@i@]oAiAu@u@c@a@MRqBzCkCvDg@z@a@L{@vA]b@Sd@w@lAi@`Ak@r@Yj@EqC?wA?a@[@wGFgCFe@??Id@?dCEbAA@[AmAB_@v@{AXq@B][YUYKAQUMQAIFQV_@KMXe@^u@Ts@^wBHaABs@"}, "summary": "", "warnings": ["Walking directions are in beta. Use caution \u2013 This route may be missing sidewalks or pedestrian paths."], "waypoint_order": []}, {"bounds": {"northeast": {"lat": 29.8026444, "lng": -95.45426839999999}, "southwest": {"lat": 29.7373469, "lng": -95.51106650000001}}, "copyrights": "Map data \u00a92022", "legs": [{"arrival_time": {"text": "4:49pm", "time_zone": "America/Chicago", "value": 1642027775}, "departure_time": {"text": "3:42pm", "time_zone": "America/Chicago", "value": 1642023763}, "distance": {"text": "9.0 mi", "value": 14445}, "duration": {"text": "1 hour 7 mins", "value": 4012}, "end_address": "4400 W 18th St, Houston, TX 77092, USA", "end_location": {"lat": 29.8019199, "lng": -95.45428179999999}, "start_address": "2515 Old Farm Rd, Houston, TX 77063, USA", "start_location": {"lat": 29.7421607, "lng": -95.5098268}, "steps": [{"distance": {"text": "0.4 mi", "value": 673}, "duration": {"text": "9 mins", "value": 521}, "end_location": {"lat": 29.7373952, "lng": -95.51038609999999}, "html_instructions": "Walk to Westheimer Rd @ Old Farm Rd", "polyline": {"points": "o_ptDlg}eQA@AF?F@DBBB@fC??|@LDD@JFDFLVj@|@NRLNJHNQHITURO\\WTOf@Y`@OLEl@Ul@OPC\\GZCZENAPApBAh@?\\?LAR?LB?X?T?^?@"}, "start_location": {"lat": 29.7421607, "lng": -95.5098268}, "steps": [{"distance": {"text": "308 ft", "value": 94}, "duration": {"text": "1 min", "value": 68}, "end_location": {"lat": 29.7414477, "lng": -95.50998229999999}, "html_instructions": "Head <b>west</b>", "polyline": {"points": "o_ptDlg}eQA@AF?F@DBBB@fC?"}, "start_location": {"lat": 29.7421607, "lng": -95.5098268}, "travel_mode": "WALKING"}, {"distance": {"text": "112 ft", "value": 34}, "duration": {"text": "1 min", "value": 26}, "end_location": {"lat": 29.7414505, "lng": -95.51029469999999}, "html_instructions": "Turn <b>right</b> toward <b>Old Farm Rd</b>", "maneuver": "turn-right", "polyline": {"points": "a{otDjh}eQ?|@"}, "start_location": {"lat": 29.7414477, "lng": -95.50998229999999}, "travel_mode": "WALKING"}, {"distance": {"text": "361 ft", "value": 110}, "duration": {"text": "1 min", "value": 79}, "end_location": {"lat": 29.7407594, "lng": -95.51106650000001}, "html_instructions": "Turn <b>left</b> toward <b>Old Farm Rd</b>", "maneuver": "turn-left", "polyline": {"points": "a{otDhj}eQLDD@JFDFLVj@|@NRLNJH"}, "start_location": {"lat": 29.7414505, "lng": -95.51029469999999}, "travel_mode": "WALKING"}, {"distance": {"text": "0.2 mi", "value": 397}, "duration": {"text": "5 mins", "value": 307}, "end_location": {"lat": 29.7373967, "lng": -95.5101088}, "html_instructions": "Turn <b>left</b> onto <b>Old Farm Rd</b>", "maneuver": "turn-left", "polyline": {"points": "wvotDdo}eQNQHITURO\\WTOf@Y`@OLEl@Ul@OPC\\GZCZENAPApBAh@?\\?LAR?LB?X"}, "start_location": {"lat": 29.7407594, "lng": -95.51106650000001}, "travel_mode": "WALKING"}, {"distance": {"text": "125 ft", "value": 38}, "duration": {"text": "1 min", "value": 41}, "end_location": {"lat": 29.7373952, "lng": -95.51038609999999}, "html_instructions": "Turn <b>right</b> onto <b>Westheimer Rd</b>", "maneuver": "turn-right", "polyline": {"points": "waotDdi}eQ?T?^?@"}, "start_location": {"lat": 29.7373967, "lng": -95.5101088}, "travel_mode": "WALKING"}], "travel_mode": "WALKING"}, {"distance": {"text": "0.5 mi", "value": 879}, "duration": {"text": "3 mins", "value": 156}, "end_location": {"lat": 29.73745499999999, "lng": -95.50148}, "html_instructions": "Bus towards Downtown", "polyline": {"points": "maotD|j}eQO??A?a@?U?U?gAAc@?oB?YCoE?m@?c@?WAyB?wA?]Aw@?UAK?OAy@?I?I?{@@sA?S?QAMAaA@g@AcAAeA?kB?a@Cm@?K?I?Q?e@?KP?"}, "start_location": {"lat": 29.7373469, "lng": -95.5103901}, "transit_details": {"arrival_stop": {"location": {"lat": 29.73745499999999, "lng": -95.50148}, "name": "Westheimer Rd @ Hillcroft Ave"}, "arrival_time": {"text": "3:54pm", "time_zone": "America/Chicago", "value": 1642024440}, "departure_stop": {"location": {"lat": 29.7373469, "lng": -95.5103901}, "name": "Westheimer Rd @ Old Farm Rd"}, "departure_time": {"text": "3:51pm", "time_zone": "America/Chicago", "value": 1642024284}, "headsign": "Downtown", "line": {"agencies": [{"name": "Metropolitan Transit Authority of Harris County", "phone": "1 (713) 635-4000", "url": "http://www.ridemetro.org/"}], "color": "#004080", "name": "Westheimer", "short_name": "82", "text_color": "#ffffff", "url": "https://www.ridemetro.org/MetroPDFs/Schedules/BusSchedules/n082-Westheimer.pdf", "vehicle": {"icon": "//maps.gstatic.com/mapfiles/transit/iw2/6/bus2.png", "name": "Bus", "type": "BUS"}}, "num_stops": 3, "trip_short_name": "WHEIMER"}, "travel_mode": "TRANSIT"}, {"distance": {"text": "0.1 mi", "value": 211}, "duration": {"text": "3 mins", "value": 197}, "end_location": {"lat": 29.7385649, "lng": -95.50063809999999}, "html_instructions": "Walk to S Voss Rd @ Westheimer Rd", "polyline": {"points": "}aotDls{eQMA?W@cA?O?M?OM?U?M?}A?Aa@I?e@?S?"}, "start_location": {"lat": 29.7374346, "lng": -95.50150529999999}, "steps": [{"distance": {"text": "30 ft", "value": 9}, "duration": {"text": "1 min", "value": 6}, "end_location": {"lat": 29.7375013, "lng": -95.50150119999999}, "html_instructions": "Head <b>north</b> toward <b>Westheimer Rd</b>", "polyline": {"points": "}aotDls{eQMA"}, "start_location": {"lat": 29.7374346, "lng": -95.50150529999999}, "travel_mode": "WALKING"}, {"distance": {"text": "220 ft", "value": 67}, "duration": {"text": "1 min", "value": 61}, "end_location": {"lat": 29.7375629, "lng": -95.50080919999999}, "html_instructions": "Turn <b>right</b> onto <b>Westheimer Rd</b>", "maneuver": "turn-right", "polyline": {"points": "kbotDjs{eQ?W@cA?O?M?OM?"}, "start_location": {"lat": 29.7375013, "lng": -95.50150119999999}, "travel_mode": "WALKING"}, {"distance": {"text": "249 ft", "value": 76}, "duration": {"text": "1 min", "value": 84}, "end_location": {"lat": 29.7382135, "lng": -95.50080659999999}, "html_instructions": "Turn <b>left</b> onto <b>S Voss Rd</b>", "maneuver": "turn-left", "polyline": {"points": "wbotD`o{eQU?M?}A?"}, "start_location": {"lat": 29.7375629, "lng": -95.50080919999999}, "travel_mode": "WALKING"}, {"distance": {"text": "66 ft", "value": 20}, "duration": {"text": "1 min", "value": 15}, "end_location": {"lat": 29.7382161, "lng": -95.5006417}, "html_instructions": "Turn <b>right</b>", "maneuver": "turn-right", "polyline": {"points": "yfotD`o{eQAa@"}, "start_location": {"lat": 29.7382135, "lng": -95.50080659999999}, "travel_mode": "WALKING"}, {"distance": {"text": "128 ft", "value": 39}, "duration": {"text": "1 min", "value": 31}, "end_location": {"lat": 29.7385649, "lng": -95.50063809999999}, "html_instructions": "Turn <b>left</b><div style=\"font-size:0.9em\">Destination will be on the left</div>", "maneuver": "turn-left", "polyline": {"points": "{fotD~m{eQI?e@?S?"}, "start_location": {"lat": 29.7382161, "lng": -95.5006417}, "travel_mode": "WALKING"}], "travel_mode": "WALKING"}, {"distance": {"text": "5.6 mi", "value": 9003}, "duration": {"text": "21 mins", "value": 1260}, "end_location": {"lat": 29.783077, "lng": -95.455467}, "html_instructions": "Bus towards Northwest TC", "polyline": {"points": "aiotDtn{eQ?RWAgA@Y@aAA{ABcA?I?sC@]?kA@_@?E?C?K?yABo@?MAkCBw@@g@?a@?YA]?M?i@@]?O@q@?I?m@?gA@{BBiE?iBB{A@eE?}ADG?yABW?WA_@@a@?sA?kA?gBAk@@sA@]@y@@o@?k@?GIAAC?MEGAEAMEICSIKEGEQK[Oa@m@CC[e@IMS[?AEIEIKWWy@WsAe@aCUoAES_@qBGYKk@o@mDQ}@GUCOY{AScAI]y@qE]gBY{A]kBUgAG_@i@uCk@{CKg@ACGe@G[Gi@?CGo@AOASc@iFC_@WuCG}@CUC[AWW{CEc@Ku@I[GSISIQOYQW[c@iAmAwAiBc@i@{@{@QSm@o@gAsACE_@c@SYyAaBi@k@IKs@w@s@y@KM]a@WYq@_AKQGKAAO[O]Qs@CEEYCSC_@C_@Aa@?S?Q?y@Ay@?uA?ICcEAcD?]AaFC}DCY@Y@O?S@G?G@IB[Fc@F[Nk@JYLa@FQNc@Ja@He@Ho@B]B_@@S@Y?Y?g@?Y?aB@W@SFw@F_@?AH_@Tu@Tg@b@w@LW@?Pc@FQJUFUHWBMFYBS@E@G@Q?IBS?Q@M?OAq@?i@?]AoAAwB?AAY?KAEA]?CAICOE[Kc@Ma@CGGOGQEGIOEISYUYCCYYa@g@QS?AOQIMMYA?Wk@I[IYIc@?CEWCUCQCe@KyAI{@CQEQEOKYUs@Ue@}AiDUi@KW_@y@QLSBY@c@?u@@m@@eCB}DDsCAK?U?}B@_A@yA@wEBeBBU?e@AW?cDBI?K?k@?U@?o@?WAO?qAA_@?UY@oA?]?A?A?G?G?SAEAWAO?Y?c@?c@@gA@a@?kB@c@@aB@m@@}@?kB?c@??RiA?eBDcB?kA@sA@A??@gA?gFDkHBQ?i@Sw@CSKISGOB_B?yA?i@BeCX?V?\\A^?\\?@?b@?BXQ^?f@?j@?d@W?"}, "start_location": {"lat": 29.7385652, "lng": -95.5007492}, "transit_details": {"arrival_stop": {"location": {"lat": 29.783077, "lng": -95.455467}, "name": "Northwest Transit Center - South Platform"}, "arrival_time": {"text": "4:24pm", "time_zone": "America/Chicago", "value": 1642026240}, "departure_stop": {"location": {"lat": 29.7385652, "lng": -95.5007492}, "name": "S Voss Rd @ Westheimer Rd"}, "departure_time": {"text": "4:03pm", "time_zone": "America/Chicago", "value": 1642024980}, "headsign": "Northwest TC", "line": {"agencies": [{"name": "Metropolitan Transit Authority of Harris County", "phone": "1 (713) 635-4000", "url": "http://www.ridemetro.org/"}], "color": "#004080", "name": "Hillcroft", "short_name": "47", "text_color": "#ffffff", "url": "https://www.ridemetro.org/MetroPDFs/Schedules/BusSchedules/n047-Hillcroft.pdf", "vehicle": {"icon": "//maps.gstatic.com/mapfiles/transit/iw2/6/bus2.png", "name": "Bus", "type": "BUS"}}, "num_stops": 24, "trip_short_name": "HILLCROFT"}, "travel_mode": "TRANSIT"}, {"distance": {"text": "0.2 mi", "value": 263}, "duration": {"text": "3 mins", "value": 192}, "end_location": {"lat": 29.7837801, "lng": -95.4554653}, "html_instructions": "Walk to Northwest Transit Center - North Platform", "polyline": {"points": "_}wtDtqreQDUBODIK@]MMMECOKICKAK@E?U?E?_@@m@?AxAAX?f@"}, "start_location": {"lat": 29.7827161, "lng": -95.4551537}, "steps": [{"distance": {"text": "121 ft", "value": 37}, "duration": {"text": "1 min", "value": 26}, "end_location": {"lat": 29.78264219999999, "lng": -95.4549134}, "html_instructions": "Head <b>east</b>", "polyline": {"points": "_}wtDtqreQDUBODI"}, "start_location": {"lat": 29.7827161, "lng": -95.4551537}, "travel_mode": "WALKING"}, {"distance": {"text": "482 ft", "value": 147}, "duration": {"text": "2 mins", "value": 109}, "end_location": {"lat": 29.7837613, "lng": -95.45468609999999}, "html_instructions": "Sharp <b>left</b> toward <b>Old Katy Rd</b>", "maneuver": "turn-sharp-left", "polyline": {"points": "o|wtDdpreQK@]MMMECOKICKAK@E?U?E?_@@m@?"}, "start_location": {"lat": 29.78264219999999, "lng": -95.4549134}, "travel_mode": "WALKING"}, {"distance": {"text": "259 ft", "value": 79}, "duration": {"text": "1 min", "value": 57}, "end_location": {"lat": 29.7837801, "lng": -95.4554653}, "html_instructions": "Turn <b>left</b> onto <b>Old Katy Rd</b>", "maneuver": "turn-left", "polyline": {"points": "ocxtDxnreQAxAAX?f@"}, "start_location": {"lat": 29.7837613, "lng": -95.45468609999999}, "travel_mode": "WALKING"}], "travel_mode": "WALKING"}, {"distance": {"text": "1.7 mi", "value": 2678}, "duration": {"text": "7 mins", "value": 408}, "end_location": {"lat": 29.801027, "lng": -95.45922999999999}, "html_instructions": "Bus towards Greenspoint TC", "polyline": {"points": "w~wtDvwreQRwAF@D?DABA@CDIDSB[@g@BUBM@AN]FGJY@K?MCUCKCCA?OGQAGAE?E@GDQJOPMD[BY@W?aAAY@c@?AVAzAAb@?f@?L?ZAn@?`B?R?f@sBNO@Q@Y?W?K@wA@y@@K?u@?wA@U?O?}@@I?Y?_@?_@@oA@oD@eABM?A?a@?c@?qA@W?w@?cA@s@?c@@_@?uA@a@?OAY?q@@c@?_@?[@cA@a@?U?G?C?E?]@S?S@]@c@?}@@M?w@@]?mA@_B@W?E?e@Aa@EQEWG[OUM[QIG_@Ui@i@e@_@OQQQOMCCc@a@MR{A|BU\\W`@sBtCg@z@a@L{@vA]b@Sd@w@lAYh@OQ"}, "start_location": {"lat": 29.7830001, "lng": -95.4561157}, "transit_details": {"arrival_stop": {"location": {"lat": 29.801027, "lng": -95.45922999999999}, "name": "Hempstead Rd @ W 18th St"}, "arrival_time": {"text": "4:39pm", "time_zone": "America/Chicago", "value": 1642027188}, "departure_stop": {"location": {"lat": 29.7830001, "lng": -95.4561157}, "name": "Northwest Transit Center - North Platform"}, "departure_time": {"text": "4:33pm", "time_zone": "America/Chicago", "value": 1642026780}, "headsign": "Greenspoint TC", "line": {"agencies": [{"name": "Metropolitan Transit Authority of Harris County", "phone": "1 (713) 635-4000", "url": "http://www.ridemetro.org/"}], "color": "#004080", "name": "Antoine / Washington", "short_name": "85", "text_color": "#ffffff", "url": "https://www.ridemetro.org/MetroPDFs/Schedules/BusSchedules/n085-Antoine-Washington.pdf", "vehicle": {"icon": "//maps.gstatic.com/mapfiles/transit/iw2/6/bus2.png", "name": "Bus", "type": "BUS"}}, "num_stops": 8, "trip_short_name": "ANTOINWAS"}, "travel_mode": "TRANSIT"}, {"distance": {"text": "0.5 mi", "value": 738}, "duration": {"text": "10 mins", "value": 587}, "end_location": {"lat": 29.8019199, "lng": -95.45428179999999}, "html_instructions": "Walk to 4400 W 18th St, Houston, TX 77092, USA", "polyline": {"points": "mo{tDdkseQKPKKKAK?I@IB?Q?aA?M?QAO?OM?M@M?mED@[Ae@?g@ASDKP]d@}@Xq@B]QOIIOMEKKAQUGGEIAE?C?A@C@EBEV_@KMNWHMJSRa@Ts@R}@Jy@Hy@?G@Q@a@"}, "start_location": {"lat": 29.8010254, "lng": -95.4592253}, "steps": [{"distance": {"text": "49 ft", "value": 15}, "duration": {"text": "1 min", "value": 11}, "end_location": {"lat": 29.8011512, "lng": -95.4592626}, "html_instructions": "Head <b>northwest</b>", "polyline": {"points": "mo{tDdkseQKPKK"}, "start_location": {"lat": 29.8010254, "lng": -95.4592253}, "travel_mode": "WALKING"}, {"distance": {"text": "102 ft", "value": 31}, "duration": {"text": "1 min", "value": 23}, "end_location": {"lat": 29.8013705, "lng": -95.4592806}, "html_instructions": "Turn <b>right</b> toward <b>W 18th St</b>", "maneuver": "turn-right", "polyline": {"points": "ep{tDjkseQKAK?I@IB"}, "start_location": {"lat": 29.8011512, "lng": -95.4592626}, "travel_mode": "WALKING"}, {"distance": {"text": "240 ft", "value": 73}, "duration": {"text": "1 min", "value": 61}, "end_location": {"lat": 29.8014508, "lng": -95.4585436}, "html_instructions": "Turn <b>right</b> onto <b>W 18th St</b>", "maneuver": "turn-right", "polyline": {"points": "qq{tDnkseQ?Q?aA?M?QAO?OM?"}, "start_location": {"lat": 29.8013705, "lng": -95.4592806}, "travel_mode": "WALKING"}, {"distance": {"text": "440 ft", "value": 134}, "duration": {"text": "2 mins", "value": 127}, "end_location": {"lat": 29.80261729999999, "lng": -95.45858140000001}, "html_instructions": "Turn <b>left</b> onto <b>Mangum Rd</b>", "maneuver": "turn-left", "polyline": {"points": "ar{tDzfseQM@M?mED"}, "start_location": {"lat": 29.8014508, "lng": -95.4585436}, "travel_mode": "WALKING"}, {"distance": {"text": "0.1 mi", "value": 168}, "duration": {"text": "2 mins", "value": 133}, "end_location": {"lat": 29.8021725, "lng": -95.45703209999999}, "html_instructions": "Turn <b>right</b>", "maneuver": "turn-right", "polyline": {"points": "ky{tDbgseQ@[Ae@?g@ASDKP]d@}@Xq@B]"}, "start_location": {"lat": 29.80261729999999, "lng": -95.45858140000001}, "travel_mode": "WALKING"}, {"distance": {"text": "348 ft", "value": 106}, "duration": {"text": "1 min", "value": 80}, "end_location": {"lat": 29.8024852, "lng": -95.4562641}, "html_instructions": "Turn <b>left</b><div style=\"font-size:0.9em\">Partial restricted usage road</div>", "maneuver": "turn-left", "polyline": {"points": "qv{tDl}reQQOIIOMEKKAQUGGEIAE?C?A@C@EBEV_@"}, "start_location": {"lat": 29.8021725, "lng": -95.45703209999999}, "travel_mode": "WALKING"}, {"distance": {"text": "33 ft", "value": 10}, "duration": {"text": "1 min", "value": 8}, "end_location": {"lat": 29.8025494, "lng": -95.456192}, "html_instructions": "Turn <b>left</b><div style=\"font-size:0.9em\">Restricted usage road</div>", "maneuver": "turn-left", "polyline": {"points": "qx{tDrxreQKM"}, "start_location": {"lat": 29.8024852, "lng": -95.4562641}, "travel_mode": "WALKING"}, {"distance": {"text": "0.1 mi", "value": 201}, "duration": {"text": "2 mins", "value": 144}, "end_location": {"lat": 29.8019199, "lng": -95.45428179999999}, "html_instructions": "Turn <b>right</b><div style=\"font-size:0.9em\">Restricted usage road</div><div style=\"font-size:0.9em\">Destination will be on the left</div>", "maneuver": "turn-right", "polyline": {"points": "}x{tDdxreQNWHMJSRa@Ts@R}@Jy@Hy@?G@Q@a@"}, "start_location": {"lat": 29.8025494, "lng": -95.456192}, "travel_mode": "WALKING"}], "travel_mode": "WALKING"}], "traffic_speed_entry": [], "via_waypoint": []}], "overview_polyline": {"points": "o_ptDlg}eQCH@LFDfC??|@RFPNx@tA\\b@JHNQ^_@p@g@|@i@n@UzAe@fBU`@CzCAj@AR?LB?n@?`@H?O??c@AwCCgKEeKA}A@uDC{DEaG?mA?KP?BDMA@{A?]?OM?c@?}A?Aa@o@?S?AT?RWAaBB}C@_G@yGBmGDoB?ePFeEDeE?}ADaBBo@AaF@sC?qBBiB@k@?GIEAUGq@UaAg@kAeB_@q@c@qA}@uEcAoFqC{NcG{[]mBQmBsA{P]_EUqAQg@Yk@m@{@aDwD_BeB_AcA_CwCaEqEuBcCgA_B_@y@Uy@Im@G_AAu@?kAE}IGaRAs@@c@Fu@N_AZeAp@yBRuAF}@BoBBgDNwAHa@Tu@Tg@p@oAf@kA\\uAHs@D}@GmJCs@WyAa@kAi@{@uA_Bk@u@OYa@gAYyAWgDMmAKa@a@mAsBoEa@aA_@y@QLm@DyA@sDD}DDsCAa@?}DBmLHkF@w@?U@?o@Ag@AqB?UY@mB?S?aAE}LH{F@?RiA?iED_DBA@mRHi@Sw@CSKISGOB_B?cCBeCX?t@AbB?BXQ^?rA?d@W?fA_ADUHYK@]MSQYOs@?e@@m@?AxAA`AzC`CRwAL@HCFMHo@D}@DOVe@Le@Cc@GOQGYCK@YPOPMDu@DwC?E~DAzD?z@cCPoABoKFcB@sIFaJB{HBiEBkGHcFBk@As@Ks@Wq@_@i@]oAiAu@u@c@a@MRqBzCkCvDg@z@a@L{@vA]b@Sd@w@lAYh@OQKPKKKAU@IB?Q?oAAa@?OM?[@mED@[AmAB_@v@{AXq@B][YUYKAQUMQ?ODKV_@KMXe@^u@Ts@^wBHaABs@"}, "summary": "", "warnings": ["Walking directions are in beta. Use caution \u2013 This route may be missing sidewalks or pedestrian paths."], "waypoint_order": []}, {"bounds": {"northeast": {"lat": 29.803869, "lng": -95.4082861}, "southwest": {"lat": 29.7373469, "lng": -95.51106650000001}}, "copyrights": "Map data \u00a92022", "legs": [{"arrival_time": {"text": "4:49pm", "time_zone": "America/Chicago", "value": 1642027797}, "departure_time": {"text": "3:26pm", "time_zone": "America/Chicago", "value": 1642022803}, "distance": {"text": "13.6 mi", "value": 21944}, "duration": {"text": "1 hour 23 mins", "value": 4994}, "end_address": "4400 W 18th St, Houston, TX 77092, USA", "end_location": {"lat": 29.8019199, "lng": -95.45428179999999}, "start_address": "2515 Old Farm Rd, Houston, TX 77063, USA", "start_location": {"lat": 29.7421607, "lng": -95.5098268}, "steps": [{"distance": {"text": "0.4 mi", "value": 673}, "duration": {"text": "9 mins", "value": 521}, "end_location": {"lat": 29.7373952, "lng": -95.51038609999999}, "html_instructions": "Walk to Westheimer Rd @ Old Farm Rd", "polyline": {"points": "o_ptDlg}eQA@AF?F@DBBB@fC??|@LDD@JFDFLVj@|@NRLNJHNQHITURO\\WTOf@Y`@OLEl@Ul@OPC\\GZCZENAPApBAh@?\\?LAR?LB?X?T?^?@"}, "start_location": {"lat": 29.7421607, "lng": -95.5098268}, "steps": [{"distance": {"text": "308 ft", "value": 94}, "duration": {"text": "1 min", "value": 68}, "end_location": {"lat": 29.7414477, "lng": -95.50998229999999}, "html_instructions": "Head <b>west</b>", "polyline": {"points": "o_ptDlg}eQA@AF?F@DBBB@fC?"}, "start_location": {"lat": 29.7421607, "lng": -95.5098268}, "travel_mode": "WALKING"}, {"distance": {"text": "112 ft", "value": 34}, "duration": {"text": "1 min", "value": 26}, "end_location": {"lat": 29.7414505, "lng": -95.51029469999999}, "html_instructions": "Turn <b>right</b> toward <b>Old Farm Rd</b>", "maneuver": "turn-right", "polyline": {"points": "a{otDjh}eQ?|@"}, "start_location": {"lat": 29.7414477, "lng": -95.50998229999999}, "travel_mode": "WALKING"}, {"distance": {"text": "361 ft", "value": 110}, "duration": {"text": "1 min", "value": 79}, "end_location": {"lat": 29.7407594, "lng": -95.51106650000001}, "html_instructions": "Turn <b>left</b> toward <b>Old Farm Rd</b>", "maneuver": "turn-left", "polyline": {"points": "a{otDhj}eQLDD@JFDFLVj@|@NRLNJH"}, "start_location": {"lat": 29.7414505, "lng": -95.51029469999999}, "travel_mode": "WALKING"}, {"distance": {"text": "0.2 mi", "value": 397}, "duration": {"text": "5 mins", "value": 307}, "end_location": {"lat": 29.7373967, "lng": -95.5101088}, "html_instructions": "Turn <b>left</b> onto <b>Old Farm Rd</b>", "maneuver": "turn-left", "polyline": {"points": "wvotDdo}eQNQHITURO\\WTOf@Y`@OLEl@Ul@OPC\\GZCZENAPApBAh@?\\?LAR?LB?X"}, "start_location": {"lat": 29.7407594, "lng": -95.51106650000001}, "travel_mode": "WALKING"}, {"distance": {"text": "125 ft", "value": 38}, "duration": {"text": "1 min", "value": 41}, "end_location": {"lat": 29.7373952, "lng": -95.51038609999999}, "html_instructions": "Turn <b>right</b> onto <b>Westheimer Rd</b>", "maneuver": "turn-right", "polyline": {"points": "waotDdi}eQ?T?^?@"}, "start_location": {"lat": 29.7373967, "lng": -95.5101088}, "travel_mode": "WALKING"}], "travel_mode": "WALKING"}, {"distance": {"text": "6.0 mi", "value": 9680}, "duration": {"text": "31 mins", "value": 1836}, "end_location": {"lat": 29.742508, "lng": -95.41104399999999}, "html_instructions": "Bus towards Downtown", "polyline": {"points": "maotD|j}eQO??A?a@?U?U?gAAc@?oB?YCoE?m@?c@?WAyB?wA?]Aw@?UAK?OAy@?I?I?{@@sA?S?QAMAaA@g@AcAAeA?kB?a@Cm@?K?I?Q?e@?K@S?kA?]AmCAa@?GAkA?]?G?Y?o@?{BA_A?gCAqAAk@?g@?a@AeBAcA?sA?gB?YAE?k@?A?e@?K?kCAY?q@AcDAsA?gAC}D?c@Au@?oAAS?e@?K?K@u@?i@Aw@?K?U?m@AmA?QAQ?S?U?i@AkA?O?S?[A]?UAqC?wA?MAM@y@?S?yAAuCAS?E?a@?y@?o@?Q?OAkA?M?[?[AaAA}D?YAc@?g@?U?w@?YAg@?g@?W?Q?_@?QA[?WCwB?qAAk@@SA_@?uA?cA?C?YAs@?m@CWAc@Cc@AGC[AI?MWyAEWQu@AAYiAWeACII]_@_BMi@COUaAMe@G[WcAc@kBGWQo@Qo@GUyAaGWeAWeA_@_BK{AIcBA{@?a@EkA?GEiA?OCsACi@Ai@Au@A[Ae@IcDASAg@A[Cs@A_@EiBAs@E}@?IAQEoCAk@?CEmACq@CsAEcBA[GcA@KKYCk@?CA[Ci@EcBCqAG{BCkAG{B?C?WCkAAQCaACs@A}@EoBAa@EuACgAAa@Ae@Cw@A]AcA?GEmAG_CASA_@Cu@?SAg@?AAgA?a@CsBA]A]?I?aB?K?CAiAAuA?w@A{AAkB?c@AuBAeA?SAi@?m@?]?A?s@?UBoA@Q?IB_A?O?O@_@DQBS?IB_ADwCBsA@}AByC@eA@W@Y?M?QDgCByB?S@MAiAAk@Ek@OqBCW]_CCKOgAAGGi@MuA?GEcBAuB?o@A_A?a@?[GOAmAAaB?K?UAaA?{CA_@?iD?i@As@?u@?Q@CAiD?E?_@?S?a@AwAA{@AgEAs@?o@AyAAgA?CAc@DOAQCcACeBC}@CwAAcB?e@?]EaAA}@AYA[Ak@?_@CiAEWCeA?_@CsACyAAWC}BAOAc@EwBAg@?]?YAQ?o@A[AcC?Y?m@AsA?e@A}@LA"}, "start_location": {"lat": 29.7373469, "lng": -95.5103901}, "transit_details": {"arrival_stop": {"location": {"lat": 29.742508, "lng": -95.41104399999999}, "name": "Westheimer Rd @ S Shepherd Dr"}, "arrival_time": {"text": "4:06pm", "time_zone": "America/Chicago", "value": 1642025160}, "departure_stop": {"location": {"lat": 29.7373469, "lng": -95.5103901}, "name": "Westheimer Rd @ Old Farm Rd"}, "departure_time": {"text": "3:35pm", "time_zone": "America/Chicago", "value": 1642023324}, "headsign": "Downtown", "line": {"agencies": [{"name": "Metropolitan Transit Authority of Harris County", "phone": "1 (713) 635-4000", "url": "http://www.ridemetro.org/"}], "color": "#004080", "name": "Westheimer", "short_name": "82", "text_color": "#ffffff", "url": "https://www.ridemetro.org/MetroPDFs/Schedules/BusSchedules/n082-Westheimer.pdf", "vehicle": {"icon": "//maps.gstatic.com/mapfiles/transit/iw2/6/bus2.png", "name": "Bus", "type": "BUS"}}, "num_stops": 37, "trip_short_name": "WHEIMER"}, "travel_mode": "TRANSIT"}, {"distance": {"text": "269 ft", "value": 82}, "duration": {"text": "1 min", "value": 72}, "end_location": {"lat": 29.7421224, "lng": -95.41070619999999}, "html_instructions": "Walk to S Shepherd Dr @ Westheimer Rd", "polyline": {"points": "}aptD`~ieQ?O?QAQ?OZ?H?V?J?L?"}, "start_location": {"lat": 29.7425472, "lng": -95.4110462}, "steps": [{"distance": {"text": "95 ft", "value": 29}, "duration": {"text": "1 min", "value": 22}, "end_location": {"lat": 29.7425611, "lng": -95.4107114}, "html_instructions": "Head <b>east</b> on <b>Westheimer Rd</b> toward <b>S Shepherd Dr</b>", "polyline": {"points": "}aptD`~ieQ?O?QAQ?O"}, "start_location": {"lat": 29.7425472, "lng": -95.4110462}, "travel_mode": "WALKING"}, {"distance": {"text": "174 ft", "value": 53}, "duration": {"text": "1 min", "value": 50}, "end_location": {"lat": 29.7421224, "lng": -95.41070619999999}, "html_instructions": "Turn <b>right</b> onto <b>S Shepherd Dr</b>", "maneuver": "turn-right", "polyline": {"points": "_bptD|{ieQZ?H?V?J?L?"}, "start_location": {"lat": 29.7425611, "lng": -95.4107114}, "travel_mode": "WALKING"}], "travel_mode": "WALKING"}, {"distance": {"text": "4.4 mi", "value": 7010}, "duration": {"text": "16 mins", "value": 960}, "end_location": {"lat": 29.803613, "lng": -95.41008699999999}, "html_instructions": "Bus towards N Shepherd P&R", "polyline": {"points": "e_ptDr{ieQ?PO?K?W?I?c@?E?}ABE?q@?gA?]Aa@G[GSCg@AS@M?Y?a@?m@?_A?c@@S?sC@gA@iA?kD?iB?_@?[?Y?q@@gB?{@?Y@qA?eA?I?uD@i@@_A?Q?O?{@?m@?M?g@@y@@g@@Q?[?{@?OGEAGCEEGCECECGEY[OYEKCECGEQ_AuCAEEIQe@IQCEACGIEGEGGIIIEEOKGEQKMEk@Oo@@M?{@?WIgB?KEC?SAYAU?IA]?SAeA?S?g@AcA@EBIFKFA@CBIHCDGHGXQ@aAJa@Da@DC?}AL]D]DK@KEA?A?I?G?M?MAAAA?C?AAE?CAA?OCC?AAM?WA[FE@E@c@HG@YD_@HeAPKBw@TgABW?C?W?k@@_A@K?[@SBe@Dc@@SBa@?eA@[?M?eA@c@?e@?]?_@@Y?k@?M?qCBg@?Q?M@U?e@?M?qCB]?w@@_@?E@W?e@?mB@gA?k@@]?qB@c@@a@CE@e@@m@?S@kA?cA@aCBM?oC@eA@oA@Y?[?O?a@Bm@?U?o@?e@@I?A?A?y@?M@YAS@O?_@@w@@y@?]?M?YAMAMCOEYIIAa@Kc@Ku@QGACAm@MAAOCIAK?OAM?M?A?I?O?S@M@IBc@Jq@P}@Vg@Jk@Ji@Hc@Be@DE?c@Bs@ByABA?oCBYA}B@I?A?q@@K?E?k@?C?O@u@?S?k@@w@@K?a@?O?[@U?U?U?k@@k@?Y@C?I?S?kC@y@@K?W@[?S?A?W?G?U@S?c@?e@@O?E?[?mCBeA@U?Y?S?U@A?S?aA@_@?e@@Q?S?U?s@?C?W?qB@sB@eBBg@?oBBaGBq@@w@?aB@i@@W@_B@yA@aB@Q?qD@U@gB?eB@eBA_A@?K"}, "start_location": {"lat": 29.74211099999999, "lng": -95.41066}, "transit_details": {"arrival_stop": {"location": {"lat": 29.803613, "lng": -95.41008699999999}, "name": "N Shepherd Dr @ W 20th St"}, "arrival_time": {"text": "4:29pm", "time_zone": "America/Chicago", "value": 1642026540}, "departure_stop": {"location": {"lat": 29.74211099999999, "lng": -95.41066}, "name": "S Shepherd Dr @ Westheimer Rd"}, "departure_time": {"text": "4:13pm", "time_zone": "America/Chicago", "value": 1642025580}, "headsign": "N Shepherd P&R", "line": {"agencies": [{"name": "Metropolitan Transit Authority of Harris County", "phone": "1 (713) 635-4000", "url": "http://www.ridemetro.org/"}], "color": "#004080", "name": "Shepherd", "short_name": "27", "text_color": "#ffffff", "url": "https://www.ridemetro.org/MetroPDFs/Schedules/BusSchedules/n027-Shepherd.pdf", "vehicle": {"icon": "//maps.gstatic.com/mapfiles/transit/iw2/6/bus2.png", "name": "Bus", "type": "BUS"}}, "num_stops": 29, "trip_short_name": "SHEPHERD"}, "travel_mode": "TRANSIT"}, {"distance": {"text": "112 ft", "value": 34}, "duration": {"text": "1 min", "value": 34}, "end_location": {"lat": 29.803842, "lng": -95.41002979999999}, "html_instructions": "Walk to W 20th St @ N Shepherd Dr", "polyline": {"points": "q_|tDdxieQ_@@M??Q"}, "start_location": {"lat": 29.8036121, "lng": -95.410111}, "steps": [{"distance": {"text": "69 ft", "value": 21}, "duration": {"text": "1 min", "value": 15}, "end_location": {"lat": 29.8038391, "lng": -95.4101207}, "html_instructions": "Head <b>north</b> on <b>N Shepherd Dr</b> toward <b>W 20th St</b>", "polyline": {"points": "q_|tDdxieQ_@@M?"}, "start_location": {"lat": 29.8036121, "lng": -95.410111}, "travel_mode": "WALKING"}, {"distance": {"text": "43 ft", "value": 13}, "duration": {"text": "1 min", "value": 19}, "end_location": {"lat": 29.803842, "lng": -95.41002979999999}, "html_instructions": "Turn <b>right</b> onto <b>W 20th St</b>", "maneuver": "turn-right", "polyline": {"points": "_a|tDfxieQ?Q"}, "start_location": {"lat": 29.8038391, "lng": -95.4101207}, "travel_mode": "WALKING"}], "travel_mode": "WALKING"}, {"distance": {"text": "2.7 mi", "value": 4367}, "duration": {"text": "10 mins", "value": 582}, "end_location": {"lat": 29.80163, "lng": -95.454342}, "html_instructions": "Bus towards Memorial City", "polyline": {"points": "ea|tDvwieQJ?@V?fA@`ABfE?tABtJ?pB@rA?r@?H?|@?jB?@?j@@h@AL?\\?J@f@?|B?h@?|@?n@?N?|G?J@tE?d@@dC?p@AL@J?V@P@H?B?D@F@HBH@JDPDLDLDHDJDJHLFHFHLL?@TVTVn@v@NRh@h@NPVX^f@BJBFBFf@v@P`@DZDVBT@F?D@F?H?P@P?X?N?F?j@@pAIpB@f@?V?fA?j@?V@h@AjA?h@@~@?b@@^Af@@d@?X?bA?jA?b@@nC?J?d@Aj@?v@?P@dB?jA?bC?`A?\\@dH?`D?dC@fE?jD?T@`F@vB?jD?vC?X?`E@V@zCAb@?fAAX@fB@fA?T@|B?l@A~A?x@?XAzB?`A?dB?l@?P?F?H@^?Z?@?H?@?Z?h@?f@?j@?^?t@@j@BnAAV@|@@fB?bBG?"}, "start_location": {"lat": 29.803869, "lng": -95.410039}, "transit_details": {"arrival_stop": {"location": {"lat": 29.80163, "lng": -95.454342}, "name": "W 18th St @ Northwest Fwy"}, "arrival_time": {"text": "4:48pm", "time_zone": "America/Chicago", "value": 1642027720}, "departure_stop": {"location": {"lat": 29.803869, "lng": -95.410039}, "name": "W 20th St @ N Shepherd Dr"}, "departure_time": {"text": "4:38pm", "time_zone": "America/Chicago", "value": 1642027138}, "headsign": "Memorial City", "line": {"agencies": [{"name": "Metropolitan Transit Authority of Harris County", "phone": "1 (713) 635-4000", "url": "http://www.ridemetro.org/"}], "color": "#004080", "name": "Long Point / Cavalcade", "short_name": "26", "text_color": "#ffffff", "url": "https://www.ridemetro.org/MetroPDFs/Schedules/BusSchedules/n026-Long-Point-Cavalcade.pdf", "vehicle": {"icon": "//maps.gstatic.com/mapfiles/transit/iw2/6/bus2.png", "name": "Bus", "type": "BUS"}}, "num_stops": 14, "trip_short_name": "LONGPOINT"}, "travel_mode": "TRANSIT"}, {"distance": {"text": "322 ft", "value": 98}, "duration": {"text": "1 min", "value": 77}, "end_location": {"lat": 29.8019199, "lng": -95.45428179999999}, "html_instructions": "Walk to 4400 W 18th St, Houston, TX 77092, USA", "polyline": {"points": "es{tDrlreQ?z@YEc@E?G@Q@a@"}, "start_location": {"lat": 29.8016264, "lng": -95.454342}, "steps": [{"distance": {"text": "95 ft", "value": 29}, "duration": {"text": "1 min", "value": 22}, "end_location": {"lat": 29.8016252, "lng": -95.45463819999999}, "html_instructions": "Head <b>west</b> on <b>W 18th St</b>/<wbr/><b>NW Mall</b>", "polyline": {"points": "es{tDrlreQ?z@"}, "start_location": {"lat": 29.8016264, "lng": -95.454342}, "travel_mode": "WALKING"}, {"distance": {"text": "131 ft", "value": 40}, "duration": {"text": "1 min", "value": 33}, "end_location": {"lat": 29.8019405, "lng": -95.4545788}, "html_instructions": "Turn <b>right</b><div style=\"font-size:0.9em\">Restricted usage road</div>", "maneuver": "turn-right", "polyline": {"points": "es{tDnnreQYEc@E"}, "start_location": {"lat": 29.8016252, "lng": -95.45463819999999}, "travel_mode": "WALKING"}, {"distance": {"text": "95 ft", "value": 29}, "duration": {"text": "1 min", "value": 22}, "end_location": {"lat": 29.8019199, "lng": -95.45428179999999}, "html_instructions": "Turn <b>right</b><div style=\"font-size:0.9em\">Restricted usage road</div><div style=\"font-size:0.9em\">Destination will be on the left</div>", "maneuver": "turn-right", "polyline": {"points": "cu{tDbnreQ?G@Q@a@"}, "start_location": {"lat": 29.8019405, "lng": -95.4545788}, "travel_mode": "WALKING"}], "travel_mode": "WALKING"}], "traffic_speed_entry": [], "via_waypoint": []}], "overview_polyline": {"points": "o_ptDlg}eQCH@LFDfC??|@RFPNx@tA\\b@JHNQ^_@p@g@|@i@n@UzAe@fBU`@CzCAj@AR?LB?n@?`@H?O??c@AwCCgKEeKA}A@uDC{DEaG@wEEsJGqRCsJIaVAqHIaPAmG?uDC}IIyUEoJA}DAmACeAKkB_@iCaCyJeCkKkCmKw@eDU_EGqDMwEW}K[{MKoDIwDI_B@KKYCo@O{F]_O[iNYcLMoJEqJIsOHuG?_@Fq@B]HwEJqKBqAJcHCuBU}Cu@kFWoCIiI?}@GOAmAAmBAwAAoKAcJKcSAg@Ba@O_IGiFG_DCiBEWCeACsBEqBMiHCqBGoMLAG@?a@Aa@d@?b@?L?@I?PO?c@?qCB}CA}@O{@E}A@wRDs[F_D@oCB{@?OGMEYQa@a@Ue@mAuDc@gAS[]a@WQ_@Qk@Oo@@iA?WIgB?OEmAEkCAkB?OJ[VKNGXQ@cBPe@DeDZYEc@AAASC{@GsEx@cAX_BBgCBaBJw@DgB@sC@}B@oIDyIF_GB}D@wOJaIFgLFu@GuA]eBa@iAUw@Ao@@WDuA\\eBb@uATsBLmCFqCBcD?oB@mEDgFBeMHuPLeMFoSLuRJkE?_A@?K?B_@@M??QE@J?@~AHtU@zM@nJB|W@bABZLp@Vp@^l@x@~@hBtBf@j@^f@BJFNf@v@P`@Jr@D\\@h@@bA@|BIpB@f@?~A?bA?tB@hB@pC?zLBdWDvd@@jKA`HDbIA`F?tK?bEDpE@`HG??z@YEc@E?GBs@"}, "summary": "", "warnings": ["Walking directions are in beta. Use caution \u2013 This route may be missing sidewalks or pedestrian paths."], "waypoint_order": []}], "status": "OK"}