{"geocoded_waypoints": [{"geocoder_status": "OK", "place_id": "ChIJo5zLf9TrQIYROu4TQ9zrLo8", "types": ["establishment", "point_of_interest", "primary_school", "school"]}, {"geocoder_status": "OK", "place_id": "ChIJ9_tphxzHQIYRIMyPy_d3VZU", "types": ["establishment", "point_of_interest"]}], "routes": [{"bounds": {"northeast": {"lat": 29.8026444, "lng": -95.45426839999999}, "southwest": {"lat": 29.626727, "lng": -95.48477319999999}}, "copyrights": "Map data \u00a92022 Google", "legs": [{"arrival_time": {"text": "5:05pm", "time_zone": "America/Chicago", "value": 1642028735}, "departure_time": {"text": "3:19pm", "time_zone": "America/Chicago", "value": 1642022358}, "distance": {"text": "17.8 mi", "value": 28608}, "duration": {"text": "1 hour 46 mins", "value": 6377}, "end_address": "4400 W 18th St, Houston, TX 77092, USA", "end_location": {"lat": 29.8019199, "lng": -95.45428179999999}, "start_address": "5515 W Orem Dr, Houston, TX 77085, USA", "start_location": {"lat": 29.6273378, "lng": -95.4729488}, "steps": [{"distance": {"text": "0.5 mi", "value": 845}, "duration": {"text": "11 mins", "value": 642}, "end_location": {"lat": 29.6267287, "lng": -95.46504829999999}, "html_instructions": "Walk to S Post Oak Rd @ W Orem Dr", "polyline": {"points": "{qysD|`veQZqA@K?ECG?AECGAGAG@A?K@MGHo@Hi@Fc@BYD[Fm@FcABy@@o@@k@?K?I?_@?o@?c@?aA@w@B_G?EBcE?uA?uC?Q?U?OpAC"}, "start_location": {"lat": 29.6273378, "lng": -95.4729488}, "steps": [{"distance": {"text": "308 ft", "value": 94}, "duration": {"text": "1 min", "value": 69}, "end_location": {"lat": 29.6275016, "lng": -95.4723429}, "html_instructions": "Head <b>east</b> toward <b>W Orem Dr</b>", "polyline": {"points": "{qysD|`veQZqA@K?ECG?AECGAGAG@A?K@MG"}, "start_location": {"lat": 29.6273378, "lng": -95.4729488}, "travel_mode": "WALKING"}, {"distance": {"text": "0.4 mi", "value": 701}, "duration": {"text": "9 mins", "value": 527}, "end_location": {"lat": 29.6271432, "lng": -95.4650707}, "html_instructions": "Turn <b>right</b> onto <b>W Orem Dr</b>", "maneuver": "turn-right", "polyline": {"points": "{rysDb}ueQHo@Hi@Fc@BYD[Fm@FcABy@@o@@k@?K?I?_@?o@?c@?aA@w@B_G?EBcE?uA?uC?Q?U?O"}, "start_location": {"lat": 29.6275016, "lng": -95.4723429}, "travel_mode": "WALKING"}, {"distance": {"text": "164 ft", "value": 50}, "duration": {"text": "1 min", "value": 46}, "end_location": {"lat": 29.6267287, "lng": -95.46504829999999}, "html_instructions": "Turn <b>right</b> onto <b>S Post Oak Rd</b>", "maneuver": "turn-right", "polyline": {"points": "spysDtoteQpAC"}, "start_location": {"lat": 29.6271432, "lng": -95.4650707}, "travel_mode": "WALKING"}], "travel_mode": "WALKING"}, {"distance": {"text": "15.0 mi", "value": 24084}, "duration": {"text": "1 hour 8 mins", "value": 4080}, "end_location": {"lat": 29.783077, "lng": -95.455467}, "html_instructions": "Bus towards Northwest TC", "polyline": {"points": "anysDnoteQ?HyABK?O?c@?OAu@EA?g@GYCuASuBs@g@Qy@]_@Sc@UMGMG_@ScA[sBq@w@Oa@Ga@CE?iAGqF@gA?S?yA?gAAcA@s@?mBA[?C?m@@U?y@@_A@sA?E?S@I?U@}@@o@?S?]@A?S?S@}A@kBB_@?q@@Q@i@?g@@Y?_A@aA?k@@a@@G?SAoB?mB?gA?Y@iB?aD@UGWA{@Ac@A_@?q@?G?sB@I?Q@}A@a@@Y?[@g@AG?a@?gA@uB@OCE?M@O?S?y@@g@?I?M?M@A?M?[BS@O?M@G@G@QJgA?_@?kB@i@?u@@kC?s@?o@@M?cA?qABW?yA@sA@kA@]?K?aA@S?_A?q@@eA@g@?Y?K?cA@O?mA?aA?cB@iB@kB@c@?}A@q@@_BBsDDiCHGAm@?i@ASAMAC?C?k@I]E_AMg@IUCaASMCw@S[Gw@Q}Bm@e@Me@MQEEAGCYCSGeAYYQCAsCy@IEs@Wk@SUKqBg@m@KGCSGw@W_@M_@MWGEAQEw@UWIOEUGQMc@U[OKEIE[KWKQGc@QEAsBq@EA_Bi@cA[ECoFeB?Au@W_Bc@eAe@_By@aA[oBOgBBkD@H{@N{@H[[M?AU?A@YAA?_@CMYH_@\\g@?ARw@JMNEHJDNAR[p@[t@KLSHw@F?|CCfA?h@ClAj@@nABDmA@g@?AHkAA?_@@S?oACiA?s@Au@G_@G[EYEc@Iu@M}@GsCRiBLU@gAD_DNyCFA?gA?W@oC@qB@gB?w@?E?e@@wA?]@iAA]?@~@?r@@`A?v@?l@@X?NAfA@tB?^?dA@rD@lA?dD@L?X?Z?lA?d@@dC?\\?h@?F?Z@nB?d@?p@?H?X?B@t@?`@E@_ARS@I@G?O?Y@G?S?{@@}A@o@@Q?wBAKJi@@mDAY?wABE?M?gA@c@?iA?a@@Y?U?c@?mB@u@@Q?a@AcBB{@?kA@q@?Q?sC@iB@o@?Y?wD@gC@[?O?kD@yA@qA@cA?u@@U?q@?s@?MIk@Ae@?Q?w@?eB@S?eA@?V?`ATV@?@?\\G?BA@?@@@?B@T@`@@L?^?ZGb@[b@@VD`A?|@?P@bA@\\@fDCv@@jA?h@@j@?dB?x@@tA@f@?~A?d@?b@?h@?\\?N?t@?b@@d@?ViA?U?mA@I?sA?M@g@?Y?mA@_@?_@?O?G?YAk@@[?Y?s@@Q?u@?[?g@?w@@kC?[@yD@mB@{@?W@qD?Q?cB?cA@kB@q@@wA@O?u@?e@@Q?uD@mA?aA?c@?m@?A?Q?{B?qA@sA@a@?kC@aA?iCDaB@}A?uB?Q?eA@m@?c@?YAO?GAG?C?KAC?A?A?QAs@Cq@Aq@CE?A?YAe@AEAS?A?SA{@@cB?_A@[@cA?mB@oA?iC@w@@M?kA@_@?q@@c@?W@yA?Y@[?Y?k@?uEBoC@O@gA?G@M?yA@o@?m@@I?U@U?{@?sA@e@?Y?oA@S?aA@oA@_@??R@t@?fA?R?Z@N?N@F?L@V?H?HArA@L?J?^?hCiA?I?[?M?}B@c@@Y?I?w@@u@?uA?qA?cA@I?uB@iA?c@?uC@e@?]?K@g@?K?{B@_A?w@?aB@_A?K?g@?K@y@?Y?_A@C?S?A?o@?O@{@?mA@{A@I?uA@c@?e@?c@@[?c@?YAeB@a@?e@@{A?Y?iA@_B@s@@o@?w@@a@?O?U?sB?w@@m@?q@?aC@E?OAm@@Q?eA@eA@c@?iAAm@@mA@S?c@@]?_A?U?kA@G?m@?Y?c@@iA?]?Y@_@?i@?kA@Q?E?M?i@?M?Q?C?Q?]@_B@iA?K?Y@I?ODq@_AKQGKAAO[O]Qs@CEEYCSC_@C_@Aa@?SO?Q?YBWDA?SB[Dk@H_@FSBc@B_@HW@mB?oA@sAB]?y@B]?oABg@@Y?m@@}@AMAG?EA]Ca@EA?EAMAQAa@?gA?eA@o@?U?U?g@@M@I?WBg@F]JSFOFUJYNWROJGBm@b@uBzAmAx@UNABMHq@b@WNSNWRSLMJe@^y@v@ED_@`@WZQRY\\m@z@QXS\\Wd@[h@m@dAKNSX_@f@[^CAA?A?C?A@A?GFIHYVMLOLMJEBUTYX[TOPQPQNMFMFOFODSD[F{@FoAFqAFgBFgADw@BSAoE?kB@}@?OAC?q@CWAI?eAAB_B@]?C?]@A@i@@k@@q@@q@DeALcBDo@FkBBeAFyD?G@_@?i@?S@mC?C?qA?Q?o@?w@?[AqA?W?]AeC?{@?S?w@Aa@AoAEaBAUQ{FIqCEgA_@wKCcACe@Ak@AQGaBAS?MAcB?YAk@?E?[AQ?Y?cB?m@?cAAkA?gA@iB?mA?mA?i@?C?G?]@wB?G?C@{A@i@?[Bg@@Y@Y@UB_@Do@De@A?De@RwB\\aCd@gCRu@Z{@j@cAr@cAtB{BPWH[Fe@kHBQ?i@Sw@CSKISGOB_B?yA?i@BeCX?V?\\A^?\\?@?b@?BXQ^?f@?j@?d@W?"}, "start_location": {"lat": 29.626729, "lng": -95.465041}, "transit_details": {"arrival_stop": {"location": {"lat": 29.783077, "lng": -95.455467}, "name": "Northwest Transit Center - South Platform"}, "arrival_time": {"text": "4:38pm", "time_zone": "America/Chicago", "value": 1642027080}, "departure_stop": {"location": {"lat": 29.626729, "lng": -95.465041}, "name": "S Post Oak Rd @ W Orem Dr"}, "departure_time": {"text": "3:30pm", "time_zone": "America/Chicago", "value": 1642023000}, "headsign": "Northwest TC", "line": {"agencies": [{"name": "Metropolitan Transit Authority of Harris County", "phone": "1 (713) 635-4000", "url": "http://www.ridemetro.org/"}], "color": "#004080", "name": "Chimney Rock / S Post Oak", "short_name": "49", "text_color": "#ffffff", "url": "https://www.ridemetro.org/MetroPDFs/Schedules/BusSchedules/n049-Chimney-Rock-S-Post-Oak.pdf", "vehicle": {"icon": "//maps.gstatic.com/mapfiles/transit/iw2/6/bus2.png", "name": "Bus", "type": "BUS"}}, "num_stops": 64, "trip_short_name": "CHIMROCPOS"}, "travel_mode": "TRANSIT"}, {"distance": {"text": "0.2 mi", "value": 263}, "duration": {"text": "3 mins", "value": 192}, "end_location": {"lat": 29.7837801, "lng": -95.4554653}, "html_instructions": "Walk to Northwest Transit Center - North Platform", "polyline": {"points": "_}wtDtqreQDUBODIK@]MMMECOKICKAK@E?U?E?_@@m@?AxAAX?f@"}, "start_location": {"lat": 29.7827161, "lng": -95.4551537}, "steps": [{"distance": {"text": "121 ft", "value": 37}, "duration": {"text": "1 min", "value": 26}, "end_location": {"lat": 29.78264219999999, "lng": -95.4549134}, "html_instructions": "Head <b>east</b>", "polyline": {"points": "_}wtDtqreQDUBODI"}, "start_location": {"lat": 29.7827161, "lng": -95.4551537}, "travel_mode": "WALKING"}, {"distance": {"text": "482 ft", "value": 147}, "duration": {"text": "2 mins", "value": 109}, "end_location": {"lat": 29.7837613, "lng": -95.45468609999999}, "html_instructions": "Sharp <b>left</b> toward <b>Old Katy Rd</b>", "maneuver": "turn-sharp-left", "polyline": {"points": "o|wtDdpreQK@]MMMECOKICKAK@E?U?E?_@@m@?"}, "start_location": {"lat": 29.78264219999999, "lng": -95.4549134}, "travel_mode": "WALKING"}, {"distance": {"text": "259 ft", "value": 79}, "duration": {"text": "1 min", "value": 57}, "end_location": {"lat": 29.7837801, "lng": -95.4554653}, "html_instructions": "Turn <b>left</b> onto <b>Old Katy Rd</b>", "maneuver": "turn-left", "polyline": {"points": "ocxtDxnreQAxAAX?f@"}, "start_location": {"lat": 29.7837613, "lng": -95.45468609999999}, "travel_mode": "WALKING"}], "travel_mode": "WALKING"}, {"distance": {"text": "1.7 mi", "value": 2678}, "duration": {"text": "7 mins", "value": 408}, "end_location": {"lat": 29.801027, "lng": -95.45922999999999}, "html_instructions": "Bus towards SH 249", "polyline": {"points": "w~wtDvwreQRwAF@D?DABA@CDIDSB[@g@BUBM@AN]FGJY@K?MCUCKCCA?OGQAGAE?E@GDQJOPMD[BY@W?aAAY@c@?AVAzAAb@?f@?L?ZAn@?`B?R?f@sBNO@Q@Y?W?K@wA@y@@K?u@?wA@U?O?}@@I?Y?_@?_@@oA@oD@eABM?A?a@?c@?qA@W?w@?cA@s@?c@@_@?uA@a@?OAY?q@@c@?_@?[@cA@a@?U?G?C?E?]@S?S@]@c@?}@@M?w@@]?mA@_B@W?E?e@Aa@EQEWG[OUM[QIG_@Ui@i@e@_@OQQQOMCCc@a@MR{A|BU\\W`@sBtCg@z@a@L{@vA]b@Sd@w@lAYh@OQ"}, "start_location": {"lat": 29.7830001, "lng": -95.4561157}, "transit_details": {"arrival_stop": {"location": {"lat": 29.801027, "lng": -95.45922999999999}, "name": "Hempstead Rd @ W 18th St"}, "arrival_time": {"text": "4:55pm", "time_zone": "America/Chicago", "value": 1642028148}, "departure_stop": {"location": {"lat": 29.7830001, "lng": -95.4561157}, "name": "Northwest Transit Center - North Platform"}, "departure_time": {"text": "4:49pm", "time_zone": "America/Chicago", "value": 1642027740}, "headsign": "SH 249", "line": {"agencies": [{"name": "Metropolitan Transit Authority of Harris County", "phone": "1 (713) 635-4000", "url": "http://www.ridemetro.org/"}], "color": "#004080", "name": "Antoine / Washington", "short_name": "85", "text_color": "#ffffff", "url": "https://www.ridemetro.org/MetroPDFs/Schedules/BusSchedules/n085-Antoine-Washington.pdf", "vehicle": {"icon": "//maps.gstatic.com/mapfiles/transit/iw2/6/bus2.png", "name": "Bus", "type": "BUS"}}, "num_stops": 8, "trip_short_name": "ANTOINWAS"}, "travel_mode": "TRANSIT"}, {"distance": {"text": "0.5 mi", "value": 738}, "duration": {"text": "10 mins", "value": 587}, "end_location": {"lat": 29.8019199, "lng": -95.45428179999999}, "html_instructions": "Walk to 4400 W 18th St, Houston, TX 77092, USA", "polyline": {"points": "mo{tDdkseQKPKKKAK?I@IB?Q?aA?M?QAO?OM?M@M?mED@[Ae@?g@ASDKP]d@}@Xq@B]QOIIOMEKKAQUGGEIAE?C?A@C@EBEV_@KMNWHMJSRa@Ts@R}@Jy@Hy@?G@Q@a@"}, "start_location": {"lat": 29.8010254, "lng": -95.4592253}, "steps": [{"distance": {"text": "49 ft", "value": 15}, "duration": {"text": "1 min", "value": 11}, "end_location": {"lat": 29.8011512, "lng": -95.4592626}, "html_instructions": "Head <b>northwest</b>", "polyline": {"points": "mo{tDdkseQKPKK"}, "start_location": {"lat": 29.8010254, "lng": -95.4592253}, "travel_mode": "WALKING"}, {"distance": {"text": "102 ft", "value": 31}, "duration": {"text": "1 min", "value": 23}, "end_location": {"lat": 29.8013705, "lng": -95.4592806}, "html_instructions": "Turn <b>right</b> toward <b>W 18th St</b>", "maneuver": "turn-right", "polyline": {"points": "ep{tDjkseQKAK?I@IB"}, "start_location": {"lat": 29.8011512, "lng": -95.4592626}, "travel_mode": "WALKING"}, {"distance": {"text": "240 ft", "value": 73}, "duration": {"text": "1 min", "value": 61}, "end_location": {"lat": 29.8014508, "lng": -95.4585436}, "html_instructions": "Turn <b>right</b> onto <b>W 18th St</b>", "maneuver": "turn-right", "polyline": {"points": "qq{tDnkseQ?Q?aA?M?QAO?OM?"}, "start_location": {"lat": 29.8013705, "lng": -95.4592806}, "travel_mode": "WALKING"}, {"distance": {"text": "440 ft", "value": 134}, "duration": {"text": "2 mins", "value": 127}, "end_location": {"lat": 29.80261729999999, "lng": -95.45858140000001}, "html_instructions": "Turn <b>left</b> onto <b>Mangum Rd</b>", "maneuver": "turn-left", "polyline": {"points": "ar{tDzfseQM@M?mED"}, "start_location": {"lat": 29.8014508, "lng": -95.4585436}, "travel_mode": "WALKING"}, {"distance": {"text": "0.1 mi", "value": 168}, "duration": {"text": "2 mins", "value": 133}, "end_location": {"lat": 29.8021725, "lng": -95.45703209999999}, "html_instructions": "Turn <b>right</b>", "maneuver": "turn-right", "polyline": {"points": "ky{tDbgseQ@[Ae@?g@ASDKP]d@}@Xq@B]"}, "start_location": {"lat": 29.80261729999999, "lng": -95.45858140000001}, "travel_mode": "WALKING"}, {"distance": {"text": "348 ft", "value": 106}, "duration": {"text": "1 min", "value": 80}, "end_location": {"lat": 29.8024852, "lng": -95.4562641}, "html_instructions": "Turn <b>left</b><div style=\"font-size:0.9em\">Partial restricted usage road</div>", "maneuver": "turn-left", "polyline": {"points": "qv{tDl}reQQOIIOMEKKAQUGGEIAE?C?A@C@EBEV_@"}, "start_location": {"lat": 29.8021725, "lng": -95.45703209999999}, "travel_mode": "WALKING"}, {"distance": {"text": "33 ft", "value": 10}, "duration": {"text": "1 min", "value": 8}, "end_location": {"lat": 29.8025494, "lng": -95.456192}, "html_instructions": "Turn <b>left</b><div style=\"font-size:0.9em\">Restricted usage road</div>", "maneuver": "turn-left", "polyline": {"points": "qx{tDrxreQKM"}, "start_location": {"lat": 29.8024852, "lng": -95.4562641}, "travel_mode": "WALKING"}, {"distance": {"text": "0.1 mi", "value": 201}, "duration": {"text": "2 mins", "value": 144}, "end_location": {"lat": 29.8019199, "lng": -95.45428179999999}, "html_instructions": "Turn <b>right</b><div style=\"font-size:0.9em\">Restricted usage road</div><div style=\"font-size:0.9em\">Destination will be on the left</div>", "maneuver": "turn-right", "polyline": {"points": "}x{tDdxreQNWHMJSRa@Ts@R}@Jy@Hy@?G@Q@a@"}, "start_location": {"lat": 29.8025494, "lng": -95.456192}, "travel_mode": "WALKING"}], "travel_mode": "WALKING"}], "traffic_speed_entry": [], "via_waypoint": []}], "overview_polyline": {"points": "{qysD|`veQ\\}ACMEEOCI@K@MGRyAJ}@LiAJ}BBqBHwT?sG?OpAC?FeBBs@?oBOoBW}CeAyAq@q@]m@[wDmAyAWg@CiAGqF@{A?yG?{D?cFBy@B_DBwIJcIFyHAcC@aD@UGsACcAAwD@kDDmB?}DBUCkBBmCFm@DQJgA?kC@_H@sEDqKFyID}IB_HDsGHqCFyBEqAO_Eo@uJaC{@QeAYYQwC{@_C}@_Ds@[KoC{@gBg@e@Mu@c@mAg@qJaDkHcC_Bc@eAe@_By@aA[oBOgBBkD@H{@XwA[OW@[A_@CMYH_@\\g@Ry@JMNEHJDNAR[p@g@bASHw@FCdFCvBzBDFuBHmAa@@aFEuAOu@KyAW}@GsCRiBL}AF_DNyCFiA?aKD{D@gB?]?@~@@tB?dB@fFDpQ@dJBfIeAT]By@@}EDiCAKJi@@gEA}AByB@uJDoQF{TFaFBeB?MIk@Aw@?}C@yA@?xAXV\\G?BABBZBjBGb@[b@FxABpDA~E@jA@tFBbG?zB@~B?ViA?cB@sC@gD@yE@aSF}QFcEBwI@iLBmE@kFFkH@{BA_@CwDKqBGgSHyJFyPHcGFeMF_@??R@|B@nABnD?hDsA?kEBgKBqNDuMBiSJgKBqKFyL@kEDiF@mHBuIDeC?sEBc@@ODq@_AS]Q]a@qAI_@MuB?SO?k@BiANkAPw@F_@HW@}D@iEF_EFyAEgAKiCCaD@wAFg@F]Jc@No@Zg@^yF|DwA`AwA`AsBhBcBnB_AtAk@bAiBxC{@fAEAG@m@h@q@j@{AvAc@`@[NoAZkCNyDN_CHcFAiD@SAyCGLiHFwBRsCJqDFaEBkF?gBCmMC}Dc@eO{@}VEeG?oRBsHFgCL_C\\cE\\aCd@gCn@qBj@cAr@cAtB{BPWPaA}HBi@Sw@CSKISGOB_B?cCBeCX?t@AbB?BXQ^?rA?d@W?fA_ADUHYK@]MSQYOs@?e@@m@?AxAA`AzC`CRwAL@HCFMHo@D}@DOVe@Le@Cc@GOQGYCK@YPOPMDu@DwC?E~DAzD?z@cCPoABoKFcB@sIFaJB{HBiEBkGHcFBk@As@Ks@Wq@_@i@]oAiAu@u@c@a@MRqBzCkCvDg@z@a@L{@vA]b@Sd@w@lAYh@OQKPKKKAU@IB?Q?oAAa@?OM?[@mED@[AmAB_@v@{AXq@B][YUYKAQUMQ?ODKV_@KMXe@^u@Ts@^wBHaABs@"}, "summary": "", "warnings": ["Walking directions are in beta. Use caution \u2013 This route may be missing sidewalks or pedestrian paths."], "waypoint_order": []}, {"bounds": {"northeast": {"lat": 29.803817, "lng": -95.45426839999999}, "southwest": {"lat": 29.626727, "lng": -95.48477319999999}}, "copyrights": "Map data \u00a92022 Google", "legs": [{"arrival_time": {"text": "5:36pm", "time_zone": "America/Chicago", "value": 1642030584}, "departure_time": {"text": "3:39pm", "time_zone": "America/Chicago", "value": 1642023558}, "distance": {"text": "18.0 mi", "value": 28953}, "duration": {"text": "1 hour 57 mins", "value": 7026}, "end_address": "4400 W 18th St, Houston, TX 77092, USA", "end_location": {"lat": 29.8019199, "lng": -95.45428179999999}, "start_address": "5515 W Orem Dr, Houston, TX 77085, USA", "start_location": {"lat": 29.6273378, "lng": -95.4729488}, "steps": [{"distance": {"text": "0.5 mi", "value": 845}, "duration": {"text": "11 mins", "value": 642}, "end_location": {"lat": 29.6267287, "lng": -95.46504829999999}, "html_instructions": "Walk to S Post Oak Rd @ W Orem Dr", "polyline": {"points": "{qysD|`veQZqA@K?ECG?AECGAGAG@A?K@MGHo@Hi@Fc@BYD[Fm@FcABy@@o@@k@?K?I?_@?o@?c@?aA@w@B_G?EBcE?uA?uC?Q?U?OpAC"}, "start_location": {"lat": 29.6273378, "lng": -95.4729488}, "steps": [{"distance": {"text": "308 ft", "value": 94}, "duration": {"text": "1 min", "value": 69}, "end_location": {"lat": 29.6275016, "lng": -95.4723429}, "html_instructions": "Head <b>east</b> toward <b>W Orem Dr</b>", "polyline": {"points": "{qysD|`veQZqA@K?ECG?AECGAGAG@A?K@MG"}, "start_location": {"lat": 29.6273378, "lng": -95.4729488}, "travel_mode": "WALKING"}, {"distance": {"text": "0.4 mi", "value": 701}, "duration": {"text": "9 mins", "value": 527}, "end_location": {"lat": 29.6271432, "lng": -95.4650707}, "html_instructions": "Turn <b>right</b> onto <b>W Orem Dr</b>", "maneuver": "turn-right", "polyline": {"points": "{rysDb}ueQHo@Hi@Fc@BYD[Fm@FcABy@@o@@k@?K?I?_@?o@?c@?aA@w@B_G?EBcE?uA?uC?Q?U?O"}, "start_location": {"lat": 29.6275016, "lng": -95.4723429}, "travel_mode": "WALKING"}, {"distance": {"text": "164 ft", "value": 50}, "duration": {"text": "1 min", "value": 46}, "end_location": {"lat": 29.6267287, "lng": -95.46504829999999}, "html_instructions": "Turn <b>right</b> onto <b>S Post Oak Rd</b>", "maneuver": "turn-right", "polyline": {"points": "spysDtoteQpAC"}, "start_location": {"lat": 29.6271432, "lng": -95.4650707}, "travel_mode": "WALKING"}], "travel_mode": "WALKING"}, {"distance": {"text": "15.0 mi", "value": 24084}, "duration": {"text": "1 hour 8 mins", "value": 4080}, "end_location": {"lat": 29.783077, "lng": -95.455467}, "html_instructions": "Bus towards Northwest TC", "polyline": {"points": "anysDnoteQ?HyABK?O?c@?OAu@EA?g@GYCuASuBs@g@Qy@]_@Sc@UMGMG_@ScA[sBq@w@Oa@Ga@CE?iAGqF@gA?S?yA?gAAcA@s@?mBA[?C?m@@U?y@@_A@sA?E?S@I?U@}@@o@?S?]@A?S?S@}A@kBB_@?q@@Q@i@?g@@Y?_A@aA?k@@a@@G?SAoB?mB?gA?Y@iB?aD@UGWA{@Ac@A_@?q@?G?sB@I?Q@}A@a@@Y?[@g@AG?a@?gA@uB@OCE?M@O?S?y@@g@?I?M?M@A?M?[BS@O?M@G@G@QJgA?_@?kB@i@?u@@kC?s@?o@@M?cA?qABW?yA@sA@kA@]?K?aA@S?_A?q@@eA@g@?Y?K?cA@O?mA?aA?cB@iB@kB@c@?}A@q@@_BBsDDiCHGAm@?i@ASAMAC?C?k@I]E_AMg@IUCaASMCw@S[Gw@Q}Bm@e@Me@MQEEAGCYCSGeAYYQCAsCy@IEs@Wk@SUKqBg@m@KGCSGw@W_@M_@MWGEAQEw@UWIOEUGQMc@U[OKEIE[KWKQGc@QEAsBq@EA_Bi@cA[ECoFeB?Au@W_Bc@eAe@_By@aA[oBOgBBkD@H{@N{@H[[M?AU?A@YAA?_@CMYH_@\\g@?ARw@JMNEHJDNAR[p@[t@KLSHw@F?|CCfA?h@ClAj@@nABDmA@g@?AHkAA?_@@S?oACiA?s@Au@G_@G[EYEc@Iu@M}@GsCRiBLU@gAD_DNyCFA?gA?W@oC@qB@gB?w@?E?e@@wA?]@iAA]?@~@?r@@`A?v@?l@@X?NAfA@tB?^?dA@rD@lA?dD@L?X?Z?lA?d@@dC?\\?h@?F?Z@nB?d@?p@?H?X?B@t@?`@E@_ARS@I@G?O?Y@G?S?{@@}A@o@@Q?wBAKJi@@mDAY?wABE?M?gA@c@?iA?a@@Y?U?c@?mB@u@@Q?a@AcBB{@?kA@q@?Q?sC@iB@o@?Y?wD@gC@[?O?kD@yA@qA@cA?u@@U?q@?s@?MIk@Ae@?Q?w@?eB@S?eA@?V?`ATV@?@?\\G?BA@?@@@?B@T@`@@L?^?ZGb@[b@@VD`A?|@?P@bA@\\@fDCv@@jA?h@@j@?dB?x@@tA@f@?~A?d@?b@?h@?\\?N?t@?b@@d@?ViA?U?mA@I?sA?M@g@?Y?mA@_@?_@?O?G?YAk@@[?Y?s@@Q?u@?[?g@?w@@kC?[@yD@mB@{@?W@qD?Q?cB?cA@kB@q@@wA@O?u@?e@@Q?uD@mA?aA?c@?m@?A?Q?{B?qA@sA@a@?kC@aA?iCDaB@}A?uB?Q?eA@m@?c@?YAO?GAG?C?KAC?A?A?QAs@Cq@Aq@CE?A?YAe@AEAS?A?SA{@@cB?_A@[@cA?mB@oA?iC@w@@M?kA@_@?q@@c@?W@yA?Y@[?Y?k@?uEBoC@O@gA?G@M?yA@o@?m@@I?U@U?{@?sA@e@?Y?oA@S?aA@oA@_@??R@t@?fA?R?Z@N?N@F?L@V?H?HArA@L?J?^?hCiA?I?[?M?}B@c@@Y?I?w@@u@?uA?qA?cA@I?uB@iA?c@?uC@e@?]?K@g@?K?{B@_A?w@?aB@_A?K?g@?K@y@?Y?_A@C?S?A?o@?O@{@?mA@{A@I?uA@c@?e@?c@@[?c@?YAeB@a@?e@@{A?Y?iA@_B@s@@o@?w@@a@?O?U?sB?w@@m@?q@?aC@E?OAm@@Q?eA@eA@c@?iAAm@@mA@S?c@@]?_A?U?kA@G?m@?Y?c@@iA?]?Y@_@?i@?kA@Q?E?M?i@?M?Q?C?Q?]@_B@iA?K?Y@I?ODq@_AKQGKAAO[O]Qs@CEEYCSC_@C_@Aa@?SO?Q?YBWDA?SB[Dk@H_@FSBc@B_@HW@mB?oA@sAB]?y@B]?oABg@@Y?m@@}@AMAG?EA]Ca@EA?EAMAQAa@?gA?eA@o@?U?U?g@@M@I?WBg@F]JSFOFUJYNWROJGBm@b@uBzAmAx@UNABMHq@b@WNSNWRSLMJe@^y@v@ED_@`@WZQRY\\m@z@QXS\\Wd@[h@m@dAKNSX_@f@[^CAA?A?C?A@A?GFIHYVMLOLMJEBUTYX[TOPQPQNMFMFOFODSD[F{@FoAFqAFgBFgADw@BSAoE?kB@}@?OAC?q@CWAI?eAAB_B@]?C?]@A@i@@k@@q@@q@DeALcBDo@FkBBeAFyD?G@_@?i@?S@mC?C?qA?Q?o@?w@?[AqA?W?]AeC?{@?S?w@Aa@AoAEaBAUQ{FIqCEgA_@wKCcACe@Ak@AQGaBAS?MAcB?YAk@?E?[AQ?Y?cB?m@?cAAkA?gA@iB?mA?mA?i@?C?G?]@wB?G?C@{A@i@?[Bg@@Y@Y@UB_@Do@De@A?De@RwB\\aCd@gCRu@Z{@j@cAr@cAtB{BPWH[Fe@kHBQ?i@Sw@CSKISGOB_B?yA?i@BeCX?V?\\A^?\\?@?b@?BXQ^?f@?j@?d@W?"}, "start_location": {"lat": 29.626729, "lng": -95.465041}, "transit_details": {"arrival_stop": {"location": {"lat": 29.783077, "lng": -95.455467}, "name": "Northwest Transit Center - South Platform"}, "arrival_time": {"text": "4:58pm", "time_zone": "America/Chicago", "value": 1642028280}, "departure_stop": {"location": {"lat": 29.626729, "lng": -95.465041}, "name": "S Post Oak Rd @ W Orem Dr"}, "departure_time": {"text": "3:50pm", "time_zone": "America/Chicago", "value": 1642024200}, "headsign": "Northwest TC", "line": {"agencies": [{"name": "Metropolitan Transit Authority of Harris County", "phone": "1 (713) 635-4000", "url": "http://www.ridemetro.org/"}], "color": "#004080", "name": "Chimney Rock / S Post Oak", "short_name": "49", "text_color": "#ffffff", "url": "https://www.ridemetro.org/MetroPDFs/Schedules/BusSchedules/n049-Chimney-Rock-S-Post-Oak.pdf", "vehicle": {"icon": "//maps.gstatic.com/mapfiles/transit/iw2/6/bus2.png", "name": "Bus", "type": "BUS"}}, "num_stops": 64, "trip_short_name": "CHIMROCPOS"}, "travel_mode": "TRANSIT"}, {"distance": {"text": "0.2 mi", "value": 263}, "duration": {"text": "3 mins", "value": 192}, "end_location": {"lat": 29.7837801, "lng": -95.4554653}, "html_instructions": "Walk to Northwest Transit Center - North Platform", "polyline": {"points": "_}wtDtqreQDUBODIK@]MMMECOKICKAK@E?U?E?_@@m@?AxAAX?f@"}, "start_location": {"lat": 29.7827161, "lng": -95.4551537}, "steps": [{"distance": {"text": "121 ft", "value": 37}, "duration": {"text": "1 min", "value": 26}, "end_location": {"lat": 29.78264219999999, "lng": -95.4549134}, "html_instructions": "Head <b>east</b>", "polyline": {"points": "_}wtDtqreQDUBODI"}, "start_location": {"lat": 29.7827161, "lng": -95.4551537}, "travel_mode": "WALKING"}, {"distance": {"text": "482 ft", "value": 147}, "duration": {"text": "2 mins", "value": 109}, "end_location": {"lat": 29.7837613, "lng": -95.45468609999999}, "html_instructions": "Sharp <b>left</b> toward <b>Old Katy Rd</b>", "maneuver": "turn-sharp-left", "polyline": {"points": "o|wtDdpreQK@]MMMECOKICKAK@E?U?E?_@@m@?"}, "start_location": {"lat": 29.78264219999999, "lng": -95.4549134}, "travel_mode": "WALKING"}, {"distance": {"text": "259 ft", "value": 79}, "duration": {"text": "1 min", "value": 57}, "end_location": {"lat": 29.7837801, "lng": -95.4554653}, "html_instructions": "Turn <b>left</b> onto <b>Old Katy Rd</b>", "maneuver": "turn-left", "polyline": {"points": "ocxtDxnreQAxAAX?f@"}, "start_location": {"lat": 29.7837613, "lng": -95.45468609999999}, "travel_mode": "WALKING"}], "travel_mode": "WALKING"}, {"distance": {"text": "2.0 mi", "value": 3143}, "duration": {"text": "9 mins", "value": 523}, "end_location": {"lat": 29.803817, "lng": -95.458625}, "html_instructions": "Bus towards Dacoma Shuttle", "polyline": {"points": "w~wtDvwreQRwAF@D?DABA@CDIDSB[@g@BUBM@AN]FGJY@K?MCUCKCCA?OGQAGAE?E@GDQJOPMD[BY@W?aAAY@c@?AVAzAAb@?f@?L?ZAn@?`B?R?f@sBNO@Q@Y?W?K@wA@y@@K?u@?wA@U?O?}@@I?Y?_@?_@@oA@oD@eABM?A?a@?c@?qA@W?w@?cA@s@?c@@_@?uA@a@?OAY?q@@c@?_@?[@cA@a@?U?G?C?E?]@S?S@]@c@?}@@M?w@@]?mA@_B@W?E?e@Aa@EQEWG[OUM[QIG_@Ui@i@e@_@OQQQOMCCc@a@MR{A|BU\\W`@sBtCg@z@a@L{@vA]b@Sd@w@lAYh@OVk@r@Yj@EsB?]@aAAU?a@[@uEDaA@gAD_A@e@??I"}, "start_location": {"lat": 29.7830001, "lng": -95.4561157}, "transit_details": {"arrival_stop": {"location": {"lat": 29.803817, "lng": -95.458625}, "name": "Mangum Rd @ W 20th St"}, "arrival_time": {"text": "5:28pm", "time_zone": "America/Chicago", "value": 1642030123}, "departure_stop": {"location": {"lat": 29.7830001, "lng": -95.4561157}, "name": "Northwest Transit Center - North Platform"}, "departure_time": {"text": "5:20pm", "time_zone": "America/Chicago", "value": 1642029600}, "headsign": "Dacoma Shuttle", "line": {"agencies": [{"name": "Metropolitan Transit Authority of Harris County", "phone": "1 (713) 635-4000", "url": "http://www.ridemetro.org/"}], "color": "#004080", "name": "Dacoma", "short_name": "89", "text_color": "#ffffff", "url": "https://www.ridemetro.org/MetroPDFs/Schedules/BusSchedules/n089-Dacoma.pdf", "vehicle": {"icon": "//maps.gstatic.com/mapfiles/transit/iw2/6/bus2.png", "name": "Bus", "type": "BUS"}}, "num_stops": 9, "trip_short_name": "DACOMA"}, "travel_mode": "TRANSIT"}, {"distance": {"text": "0.4 mi", "value": 618}, "duration": {"text": "8 mins", "value": 461}, "end_location": {"lat": 29.8019199, "lng": -95.45428179999999}, "html_instructions": "Walk to 4400 W 18th St, Houston, TX 77092, USA", "polyline": {"points": "{`|tDlgseQd@A~@AdACbAA@[Ae@?g@ASDKP]d@}@Xq@B]QOIIOMEKKAQUGGEIAE?C?A@C@EBEV_@KMNWHMJSRa@Ts@R}@Jy@Hy@?G@Q@a@"}, "start_location": {"lat": 29.8038169, "lng": -95.458628}, "steps": [{"distance": {"text": "436 ft", "value": 133}, "duration": {"text": "2 mins", "value": 96}, "end_location": {"lat": 29.80261729999999, "lng": -95.45858140000001}, "html_instructions": "Head <b>south</b> on <b>Mangum Rd</b>", "polyline": {"points": "{`|tDlgseQd@A~@AdACbAA"}, "start_location": {"lat": 29.8038169, "lng": -95.458628}, "travel_mode": "WALKING"}, {"distance": {"text": "0.1 mi", "value": 168}, "duration": {"text": "2 mins", "value": 133}, "end_location": {"lat": 29.8021725, "lng": -95.45703209999999}, "html_instructions": "Turn <b>left</b>", "maneuver": "turn-left", "polyline": {"points": "ky{tDbgseQ@[Ae@?g@ASDKP]d@}@Xq@B]"}, "start_location": {"lat": 29.80261729999999, "lng": -95.45858140000001}, "travel_mode": "WALKING"}, {"distance": {"text": "348 ft", "value": 106}, "duration": {"text": "1 min", "value": 80}, "end_location": {"lat": 29.8024852, "lng": -95.4562641}, "html_instructions": "Turn <b>left</b><div style=\"font-size:0.9em\">Partial restricted usage road</div>", "maneuver": "turn-left", "polyline": {"points": "qv{tDl}reQQOIIOMEKKAQUGGEIAE?C?A@C@EBEV_@"}, "start_location": {"lat": 29.8021725, "lng": -95.45703209999999}, "travel_mode": "WALKING"}, {"distance": {"text": "33 ft", "value": 10}, "duration": {"text": "1 min", "value": 8}, "end_location": {"lat": 29.8025494, "lng": -95.456192}, "html_instructions": "Turn <b>left</b><div style=\"font-size:0.9em\">Restricted usage road</div>", "maneuver": "turn-left", "polyline": {"points": "qx{tDrxreQKM"}, "start_location": {"lat": 29.8024852, "lng": -95.4562641}, "travel_mode": "WALKING"}, {"distance": {"text": "0.1 mi", "value": 201}, "duration": {"text": "2 mins", "value": 144}, "end_location": {"lat": 29.8019199, "lng": -95.45428179999999}, "html_instructions": "Turn <b>right</b><div style=\"font-size:0.9em\">Restricted usage road</div><div style=\"font-size:0.9em\">Destination will be on the left</div>", "maneuver": "turn-right", "polyline": {"points": "}x{tDdxreQNWHMJSRa@Ts@R}@Jy@Hy@?G@Q@a@"}, "start_location": {"lat": 29.8025494, "lng": -95.456192}, "travel_mode": "WALKING"}], "travel_mode": "WALKING"}], "traffic_speed_entry": [], "via_waypoint": []}], "overview_polyline": {"points": "{qysD|`veQ\\}ACMEEOCI@K@MGRyAJ}@LiAJ}BBqBHwT?sG?OpAC?FeBBs@?oBOoBW}CeAyAq@q@]m@[wDmAyAWg@CiAGqF@{A?yG?{D?cFBy@B_DBwIJcIFyHAcC@aD@UGsACcAAwD@kDDmB?}DBUCkBBmCFm@DQJgA?kC@_H@sEDqKFyID}IB_HDsGHqCFyBEqAO_Eo@uJaC{@QeAYYQwC{@_C}@_Ds@[KoC{@gBg@e@Mu@c@mAg@qJaDkHcC_Bc@eAe@_By@aA[oBOgBBkD@H{@XwA[OW@[A_@CMYH_@\\g@Ry@JMNEHJDNAR[p@g@bASHw@FCdFCvBzBDFuBHmAa@@aFEuAOu@KyAW}@GsCRiBL}AF_DNyCFiA?aKD{D@gB?]?@~@@tB?dB@fFDpQ@dJBfIeAT]By@@}EDiCAKJi@@gEA}AByB@uJDoQF{TFaFBeB?MIk@Aw@?}C@yA@?xAXV\\G?BABBZBjBGb@[b@FxABpDA~E@jA@tFBbG?zB@~B?ViA?cB@sC@gD@yE@aSF}QFcEBwI@iLBmE@kFFkH@{BA_@CwDKqBGgSHyJFyPHcGFeMF_@??R@|B@nABnD?hDsA?kEBgKBqNDuMBiSJgKBqKFyL@kEDiF@mHBuIDeC?sEBc@@ODq@_AS]Q]a@qAI_@MuB?SO?k@BiANkAPw@F_@HW@}D@iEF_EFyAEgAKiCCaD@wAFg@F]Jc@No@Zg@^yF|DwA`AwA`AsBhBcBnB_AtAk@bAiBxC{@fAEAG@m@h@q@j@{AvAc@`@[NoAZkCNyDN_CHcFAiD@SAyCGLiHFwBRsCJqDFaEBkF?gBCmMC}Dc@eO{@}VEeG?oRBsHFgCL_C\\cE\\aCd@gCn@qBj@cAr@cAtB{BPWPaA}HBi@Sw@CSKISGOB_B?cCBeCX?t@AbB?BXQ^?rA?d@W?fA_ADUHYK@]MSQYOs@?e@@m@?AxAA`AzC`CRwAL@HCFMHo@D}@DOVe@Le@Cc@GOQGYCK@YPOPMDu@DwC?E~DAzD?z@cCPoABoKFcB@sIFaJB{HBiEBkGHcFBk@As@Ks@Wq@_@i@]oAiAu@u@c@a@MRqBzCkCvDg@z@a@L{@vA]b@Sd@w@lAi@`Ak@r@Yj@EqC?wA?a@[@wGFgCFe@??Id@?dCEbAA@[AmAB_@v@{AXq@B][YUYKAQUMQAIFQV_@KMXe@^u@Ts@^wBHaABs@"}, "summary": "", "warnings": ["Walking directions are in beta. Use caution \u2013 This route may be missing sidewalks or pedestrian paths."], "waypoint_order": []}, {"bounds": {"northeast": {"lat": 29.8026444, "lng": -95.45426839999999}, "southwest": {"lat": 29.626727, "lng": -95.48477319999999}}, "copyrights": "Map data \u00a92022 Google", "legs": [{"arrival_time": {"text": "5:49pm", "time_zone": "America/Chicago", "value": 1642031375}, "departure_time": {"text": "3:59pm", "time_zone": "America/Chicago", "value": 1642024758}, "distance": {"text": "17.8 mi", "value": 28608}, "duration": {"text": "1 hour 50 mins", "value": 6617}, "end_address": "4400 W 18th St, Houston, TX 77092, USA", "end_location": {"lat": 29.8019199, "lng": -95.45428179999999}, "start_address": "5515 W Orem Dr, Houston, TX 77085, USA", "start_location": {"lat": 29.6273378, "lng": -95.4729488}, "steps": [{"distance": {"text": "0.5 mi", "value": 845}, "duration": {"text": "11 mins", "value": 642}, "end_location": {"lat": 29.6267287, "lng": -95.46504829999999}, "html_instructions": "Walk to S Post Oak Rd @ W Orem Dr", "polyline": {"points": "{qysD|`veQZqA@K?ECG?AECGAGAG@A?K@MGHo@Hi@Fc@BYD[Fm@FcABy@@o@@k@?K?I?_@?o@?c@?aA@w@B_G?EBcE?uA?uC?Q?U?OpAC"}, "start_location": {"lat": 29.6273378, "lng": -95.4729488}, "steps": [{"distance": {"text": "308 ft", "value": 94}, "duration": {"text": "1 min", "value": 69}, "end_location": {"lat": 29.6275016, "lng": -95.4723429}, "html_instructions": "Head <b>east</b> toward <b>W Orem Dr</b>", "polyline": {"points": "{qysD|`veQZqA@K?ECG?AECGAGAG@A?K@MG"}, "start_location": {"lat": 29.6273378, "lng": -95.4729488}, "travel_mode": "WALKING"}, {"distance": {"text": "0.4 mi", "value": 701}, "duration": {"text": "9 mins", "value": 527}, "end_location": {"lat": 29.6271432, "lng": -95.4650707}, "html_instructions": "Turn <b>right</b> onto <b>W Orem Dr</b>", "maneuver": "turn-right", "polyline": {"points": "{rysDb}ueQHo@Hi@Fc@BYD[Fm@FcABy@@o@@k@?K?I?_@?o@?c@?aA@w@B_G?EBcE?uA?uC?Q?U?O"}, "start_location": {"lat": 29.6275016, "lng": -95.4723429}, "travel_mode": "WALKING"}, {"distance": {"text": "164 ft", "value": 50}, "duration": {"text": "1 min", "value": 46}, "end_location": {"lat": 29.6267287, "lng": -95.46504829999999}, "html_instructions": "Turn <b>right</b> onto <b>S Post Oak Rd</b>", "maneuver": "turn-right", "polyline": {"points": "spysDtoteQpAC"}, "start_location": {"lat": 29.6271432, "lng": -95.4650707}, "travel_mode": "WALKING"}], "travel_mode": "WALKING"}, {"distance": {"text": "15.0 mi", "value": 24084}, "duration": {"text": "1 hour 8 mins", "value": 4080}, "end_location": {"lat": 29.783077, "lng": -95.455467}, "html_instructions": "Bus towards Northwest TC", "polyline": {"points": "anysDnoteQ?HyABK?O?c@?OAu@EA?g@GYCuASuBs@g@Qy@]_@Sc@UMGMG_@ScA[sBq@w@Oa@Ga@CE?iAGqF@gA?S?yA?gAAcA@s@?mBA[?C?m@@U?y@@_A@sA?E?S@I?U@}@@o@?S?]@A?S?S@}A@kBB_@?q@@Q@i@?g@@Y?_A@aA?k@@a@@G?SAoB?mB?gA?Y@iB?aD@UGWA{@Ac@A_@?q@?G?sB@I?Q@}A@a@@Y?[@g@AG?a@?gA@uB@OCE?M@O?S?y@@g@?I?M?M@A?M?[BS@O?M@G@G@QJgA?_@?kB@i@?u@@kC?s@?o@@M?cA?qABW?yA@sA@kA@]?K?aA@S?_A?q@@eA@g@?Y?K?cA@O?mA?aA?cB@iB@kB@c@?}A@q@@_BBsDDiCHGAm@?i@ASAMAC?C?k@I]E_AMg@IUCaASMCw@S[Gw@Q}Bm@e@Me@MQEEAGCYCSGeAYYQCAsCy@IEs@Wk@SUKqBg@m@KGCSGw@W_@M_@MWGEAQEw@UWIOEUGQMc@U[OKEIE[KWKQGc@QEAsBq@EA_Bi@cA[ECoFeB?Au@W_Bc@eAe@_By@aA[oBOgBBkD@H{@N{@H[[M?AU?A@YAA?_@CMYH_@\\g@?ARw@JMNEHJDNAR[p@[t@KLSHw@F?|CCfA?h@ClAj@@nABDmA@g@?AHkAA?_@@S?oACiA?s@Au@G_@G[EYEc@Iu@M}@GsCRiBLU@gAD_DNyCFA?gA?W@oC@qB@gB?w@?E?e@@wA?]@iAA]?@~@?r@@`A?v@?l@@X?NAfA@tB?^?dA@rD@lA?dD@L?X?Z?lA?d@@dC?\\?h@?F?Z@nB?d@?p@?H?X?B@t@?`@E@_ARS@I@G?O?Y@G?S?{@@}A@o@@Q?wBAKJi@@mDAY?wABE?M?gA@c@?iA?a@@Y?U?c@?mB@u@@Q?a@AcBB{@?kA@q@?Q?sC@iB@o@?Y?wD@gC@[?O?kD@yA@qA@cA?u@@U?q@?s@?MIk@Ae@?Q?w@?eB@S?eA@?V?`ATV@?@?\\G?BA@?@@@?B@T@`@@L?^?ZGb@[b@@VD`A?|@?P@bA@\\@fDCv@@jA?h@@j@?dB?x@@tA@f@?~A?d@?b@?h@?\\?N?t@?b@@d@?ViA?U?mA@I?sA?M@g@?Y?mA@_@?_@?O?G?YAk@@[?Y?s@@Q?u@?[?g@?w@@kC?[@yD@mB@{@?W@qD?Q?cB?cA@kB@q@@wA@O?u@?e@@Q?uD@mA?aA?c@?m@?A?Q?{B?qA@sA@a@?kC@aA?iCDaB@}A?uB?Q?eA@m@?c@?YAO?GAG?C?KAC?A?A?QAs@Cq@Aq@CE?A?YAe@AEAS?A?SA{@@cB?_A@[@cA?mB@oA?iC@w@@M?kA@_@?q@@c@?W@yA?Y@[?Y?k@?uEBoC@O@gA?G@M?yA@o@?m@@I?U@U?{@?sA@e@?Y?oA@S?aA@oA@_@??R@t@?fA?R?Z@N?N@F?L@V?H?HArA@L?J?^?hCiA?I?[?M?}B@c@@Y?I?w@@u@?uA?qA?cA@I?uB@iA?c@?uC@e@?]?K@g@?K?{B@_A?w@?aB@_A?K?g@?K@y@?Y?_A@C?S?A?o@?O@{@?mA@{A@I?uA@c@?e@?c@@[?c@?YAeB@a@?e@@{A?Y?iA@_B@s@@o@?w@@a@?O?U?sB?w@@m@?q@?aC@E?OAm@@Q?eA@eA@c@?iAAm@@mA@S?c@@]?_A?U?kA@G?m@?Y?c@@iA?]?Y@_@?i@?kA@Q?E?M?i@?M?Q?C?Q?]@_B@iA?K?Y@I?ODq@_AKQGKAAO[O]Qs@CEEYCSC_@C_@Aa@?SO?Q?YBWDA?SB[Dk@H_@FSBc@B_@HW@mB?oA@sAB]?y@B]?oABg@@Y?m@@}@AMAG?EA]Ca@EA?EAMAQAa@?gA?eA@o@?U?U?g@@M@I?WBg@F]JSFOFUJYNWROJGBm@b@uBzAmAx@UNABMHq@b@WNSNWRSLMJe@^y@v@ED_@`@WZQRY\\m@z@QXS\\Wd@[h@m@dAKNSX_@f@[^CAA?A?C?A@A?GFIHYVMLOLMJEBUTYX[TOPQPQNMFMFOFODSD[F{@FoAFqAFgBFgADw@BSAoE?kB@}@?OAC?q@CWAI?eAAB_B@]?C?]@A@i@@k@@q@@q@DeALcBDo@FkBBeAFyD?G@_@?i@?S@mC?C?qA?Q?o@?w@?[AqA?W?]AeC?{@?S?w@Aa@AoAEaBAUQ{FIqCEgA_@wKCcACe@Ak@AQGaBAS?MAcB?YAk@?E?[AQ?Y?cB?m@?cAAkA?gA@iB?mA?mA?i@?C?G?]@wB?G?C@{A@i@?[Bg@@Y@Y@UB_@Do@De@A?De@RwB\\aCd@gCRu@Z{@j@cAr@cAtB{BPWH[Fe@kHBQ?i@Sw@CSKISGOB_B?yA?i@BeCX?V?\\A^?\\?@?b@?BXQ^?f@?j@?d@W?"}, "start_location": {"lat": 29.626729, "lng": -95.465041}, "transit_details": {"arrival_stop": {"location": {"lat": 29.783077, "lng": -95.455467}, "name": "Northwest Transit Center - South Platform"}, "arrival_time": {"text": "5:18pm", "time_zone": "America/Chicago", "value": 1642029480}, "departure_stop": {"location": {"lat": 29.626729, "lng": -95.465041}, "name": "S Post Oak Rd @ W Orem Dr"}, "departure_time": {"text": "4:10pm", "time_zone": "America/Chicago", "value": 1642025400}, "headsign": "Northwest TC", "line": {"agencies": [{"name": "Metropolitan Transit Authority of Harris County", "phone": "1 (713) 635-4000", "url": "http://www.ridemetro.org/"}], "color": "#004080", "name": "Chimney Rock / S Post Oak", "short_name": "49", "text_color": "#ffffff", "url": "https://www.ridemetro.org/MetroPDFs/Schedules/BusSchedules/n049-Chimney-Rock-S-Post-Oak.pdf", "vehicle": {"icon": "//maps.gstatic.com/mapfiles/transit/iw2/6/bus2.png", "name": "Bus", "type": "BUS"}}, "num_stops": 64, "trip_short_name": "CHIMROCPOS"}, "travel_mode": "TRANSIT"}, {"distance": {"text": "0.2 mi", "value": 263}, "duration": {"text": "3 mins", "value": 192}, "end_location": {"lat": 29.7837801, "lng": -95.4554653}, "html_instructions": "Walk to Northwest Transit Center - North Platform", "polyline": {"points": "_}wtDtqreQDUBODIK@]MMMECOKICKAK@E?U?E?_@@m@?AxAAX?f@"}, "start_location": {"lat": 29.7827161, "lng": -95.4551537}, "steps": [{"distance": {"text": "121 ft", "value": 37}, "duration": {"text": "1 min", "value": 26}, "end_location": {"lat": 29.78264219999999, "lng": -95.4549134}, "html_instructions": "Head <b>east</b>", "polyline": {"points": "_}wtDtqreQDUBODI"}, "start_location": {"lat": 29.7827161, "lng": -95.4551537}, "travel_mode": "WALKING"}, {"distance": {"text": "482 ft", "value": 147}, "duration": {"text": "2 mins", "value": 109}, "end_location": {"lat": 29.7837613, "lng": -95.45468609999999}, "html_instructions": "Sharp <b>left</b> toward <b>Old Katy Rd</b>", "maneuver": "turn-sharp-left", "polyline": {"points": "o|wtDdpreQK@]MMMECOKICKAK@E?U?E?_@@m@?"}, "start_location": {"lat": 29.78264219999999, "lng": -95.4549134}, "travel_mode": "WALKING"}, {"distance": {"text": "259 ft", "value": 79}, "duration": {"text": "1 min", "value": 57}, "end_location": {"lat": 29.7837801, "lng": -95.4554653}, "html_instructions": "Turn <b>left</b> onto <b>Old Katy Rd</b>", "maneuver": "turn-left", "polyline": {"points": "ocxtDxnreQAxAAX?f@"}, "start_location": {"lat": 29.7837613, "lng": -95.45468609999999}, "travel_mode": "WALKING"}], "travel_mode": "WALKING"}, {"distance": {"text": "1.7 mi", "value": 2678}, "duration": {"text": "7 mins", "value": 408}, "end_location": {"lat": 29.801027, "lng": -95.45922999999999}, "html_instructions": "Bus towards Greenspoint TC", "polyline": {"points": "w~wtDvwreQRwAF@D?DABA@CDIDSB[@g@BUBM@AN]FGJY@K?MCUCKCCA?OGQAGAE?E@GDQJOPMD[BY@W?aAAY@c@?AVAzAAb@?f@?L?ZAn@?`B?R?f@sBNO@Q@Y?W?K@wA@y@@K?u@?wA@U?O?}@@I?Y?_@?_@@oA@oD@eABM?A?a@?c@?qA@W?w@?cA@s@?c@@_@?uA@a@?OAY?q@@c@?_@?[@cA@a@?U?G?C?E?]@S?S@]@c@?}@@M?w@@]?mA@_B@W?E?e@Aa@EQEWG[OUM[QIG_@Ui@i@e@_@OQQQOMCCc@a@MR{A|BU\\W`@sBtCg@z@a@L{@vA]b@Sd@w@lAYh@OQ"}, "start_location": {"lat": 29.7830001, "lng": -95.4561157}, "transit_details": {"arrival_stop": {"location": {"lat": 29.801027, "lng": -95.45922999999999}, "name": "Hempstead Rd @ W 18th St"}, "arrival_time": {"text": "5:39pm", "time_zone": "America/Chicago", "value": 1642030788}, "departure_stop": {"location": {"lat": 29.7830001, "lng": -95.4561157}, "name": "Northwest Transit Center - North Platform"}, "departure_time": {"text": "5:33pm", "time_zone": "America/Chicago", "value": 1642030380}, "headsign": "Greenspoint TC", "line": {"agencies": [{"name": "Metropolitan Transit Authority of Harris County", "phone": "1 (713) 635-4000", "url": "http://www.ridemetro.org/"}], "color": "#004080", "name": "Antoine / Washington", "short_name": "85", "text_color": "#ffffff", "url": "https://www.ridemetro.org/MetroPDFs/Schedules/BusSchedules/n085-Antoine-Washington.pdf", "vehicle": {"icon": "//maps.gstatic.com/mapfiles/transit/iw2/6/bus2.png", "name": "Bus", "type": "BUS"}}, "num_stops": 8, "trip_short_name": "ANTOINWAS"}, "travel_mode": "TRANSIT"}, {"distance": {"text": "0.5 mi", "value": 738}, "duration": {"text": "10 mins", "value": 587}, "end_location": {"lat": 29.8019199, "lng": -95.45428179999999}, "html_instructions": "Walk to 4400 W 18th St, Houston, TX 77092, USA", "polyline": {"points": "mo{tDdkseQKPKKKAK?I@IB?Q?aA?M?QAO?OM?M@M?mED@[Ae@?g@ASDKP]d@}@Xq@B]QOIIOMEKKAQUGGEIAE?C?A@C@EBEV_@KMNWHMJSRa@Ts@R}@Jy@Hy@?G@Q@a@"}, "start_location": {"lat": 29.8010254, "lng": -95.4592253}, "steps": [{"distance": {"text": "49 ft", "value": 15}, "duration": {"text": "1 min", "value": 11}, "end_location": {"lat": 29.8011512, "lng": -95.4592626}, "html_instructions": "Head <b>northwest</b>", "polyline": {"points": "mo{tDdkseQKPKK"}, "start_location": {"lat": 29.8010254, "lng": -95.4592253}, "travel_mode": "WALKING"}, {"distance": {"text": "102 ft", "value": 31}, "duration": {"text": "1 min", "value": 23}, "end_location": {"lat": 29.8013705, "lng": -95.4592806}, "html_instructions": "Turn <b>right</b> toward <b>W 18th St</b>", "maneuver": "turn-right", "polyline": {"points": "ep{tDjkseQKAK?I@IB"}, "start_location": {"lat": 29.8011512, "lng": -95.4592626}, "travel_mode": "WALKING"}, {"distance": {"text": "240 ft", "value": 73}, "duration": {"text": "1 min", "value": 61}, "end_location": {"lat": 29.8014508, "lng": -95.4585436}, "html_instructions": "Turn <b>right</b> onto <b>W 18th St</b>", "maneuver": "turn-right", "polyline": {"points": "qq{tDnkseQ?Q?aA?M?QAO?OM?"}, "start_location": {"lat": 29.8013705, "lng": -95.4592806}, "travel_mode": "WALKING"}, {"distance": {"text": "440 ft", "value": 134}, "duration": {"text": "2 mins", "value": 127}, "end_location": {"lat": 29.80261729999999, "lng": -95.45858140000001}, "html_instructions": "Turn <b>left</b> onto <b>Mangum Rd</b>", "maneuver": "turn-left", "polyline": {"points": "ar{tDzfseQM@M?mED"}, "start_location": {"lat": 29.8014508, "lng": -95.4585436}, "travel_mode": "WALKING"}, {"distance": {"text": "0.1 mi", "value": 168}, "duration": {"text": "2 mins", "value": 133}, "end_location": {"lat": 29.8021725, "lng": -95.45703209999999}, "html_instructions": "Turn <b>right</b>", "maneuver": "turn-right", "polyline": {"points": "ky{tDbgseQ@[Ae@?g@ASDKP]d@}@Xq@B]"}, "start_location": {"lat": 29.80261729999999, "lng": -95.45858140000001}, "travel_mode": "WALKING"}, {"distance": {"text": "348 ft", "value": 106}, "duration": {"text": "1 min", "value": 80}, "end_location": {"lat": 29.8024852, "lng": -95.4562641}, "html_instructions": "Turn <b>left</b><div style=\"font-size:0.9em\">Partial restricted usage road</div>", "maneuver": "turn-left", "polyline": {"points": "qv{tDl}reQQOIIOMEKKAQUGGEIAE?C?A@C@EBEV_@"}, "start_location": {"lat": 29.8021725, "lng": -95.45703209999999}, "travel_mode": "WALKING"}, {"distance": {"text": "33 ft", "value": 10}, "duration": {"text": "1 min", "value": 8}, "end_location": {"lat": 29.8025494, "lng": -95.456192}, "html_instructions": "Turn <b>left</b><div style=\"font-size:0.9em\">Restricted usage road</div>", "maneuver": "turn-left", "polyline": {"points": "qx{tDrxreQKM"}, "start_location": {"lat": 29.8024852, "lng": -95.4562641}, "travel_mode": "WALKING"}, {"distance": {"text": "0.1 mi", "value": 201}, "duration": {"text": "2 mins", "value": 144}, "end_location": {"lat": 29.8019199, "lng": -95.45428179999999}, "html_instructions": "Turn <b>right</b><div style=\"font-size:0.9em\">Restricted usage road</div><div style=\"font-size:0.9em\">Destination will be on the left</div>", "maneuver": "turn-right", "polyline": {"points": "}x{tDdxreQNWHMJSRa@Ts@R}@Jy@Hy@?G@Q@a@"}, "start_location": {"lat": 29.8025494, "lng": -95.456192}, "travel_mode": "WALKING"}], "travel_mode": "WALKING"}], "traffic_speed_entry": [], "via_waypoint": []}], "overview_polyline": {"points": "{qysD|`veQ\\}ACMEEOCI@K@MGRyAJ}@LiAJ}BBqBHwT?sG?OpAC?FeBBs@?oBOoBW}CeAyAq@q@]m@[wDmAyAWg@CiAGqF@{A?yG?{D?cFBy@B_DBwIJcIFyHAcC@aD@UGsACcAAwD@kDDmB?}DBUCkBBmCFm@DQJgA?kC@_H@sEDqKFyID}IB_HDsGHqCFyBEqAO_Eo@uJaC{@QeAYYQwC{@_C}@_Ds@[KoC{@gBg@e@Mu@c@mAg@qJaDkHcC_Bc@eAe@_By@aA[oBOgBBkD@H{@XwA[OW@[A_@CMYH_@\\g@Ry@JMNEHJDNAR[p@g@bASHw@FCdFCvBzBDFuBHmAa@@aFEuAOu@KyAW}@GsCRiBL}AF_DNyCFiA?aKD{D@gB?]?@~@@tB?dB@fFDpQ@dJBfIeAT]By@@}EDiCAKJi@@gEA}AByB@uJDoQF{TFaFBeB?MIk@Aw@?}C@yA@?xAXV\\G?BABBZBjBGb@[b@FxABpDA~E@jA@tFBbG?zB@~B?ViA?cB@sC@gD@yE@aSF}QFcEBwI@iLBmE@kFFkH@{BA_@CwDKqBGgSHyJFyPHcGFeMF_@??R@|B@nABnD?hDsA?kEBgKBqNDuMBiSJgKBqKFyL@kEDiF@mHBuIDeC?sEBc@@ODq@_AS]Q]a@qAI_@MuB?SO?k@BiANkAPw@F_@HW@}D@iEF_EFyAEgAKiCCaD@wAFg@F]Jc@No@Zg@^yF|DwA`AwA`AsBhBcBnB_AtAk@bAiBxC{@fAEAG@m@h@q@j@{AvAc@`@[NoAZkCNyDN_CHcFAiD@SAyCGLiHFwBRsCJqDFaEBkF?gBCmMC}Dc@eO{@}VEeG?oRBsHFgCL_C\\cE\\aCd@gCn@qBj@cAr@cAtB{BPWPaA}HBi@Sw@CSKISGOB_B?cCBeCX?t@AbB?BXQ^?rA?d@W?fA_ADUHYK@]MSQYOs@?e@@m@?AxAA`AzC`CRwAL@HCFMHo@D}@DOVe@Le@Cc@GOQGYCK@YPOPMDu@DwC?E~DAzD?z@cCPoABoKFcB@sIFaJB{HBiEBkGHcFBk@As@Ks@Wq@_@i@]oAiAu@u@c@a@MRqBzCkCvDg@z@a@L{@vA]b@Sd@w@lAYh@OQKPKKKAU@IB?Q?oAAa@?OM?[@mED@[AmAB_@v@{AXq@B][YUYKAQUMQ?ODKV_@KMXe@^u@Ts@^wBHaABs@"}, "summary": "", "warnings": ["Walking directions are in beta. Use caution \u2013 This route may be missing sidewalks or pedestrian paths."], "waypoint_order": []}, {"bounds": {"northeast": {"lat": 29.803869, "lng": -95.40828479999999}, "southwest": {"lat": 29.626727, "lng": -95.4729488}}, "copyrights": "Map data \u00a92022 Google", "legs": [{"arrival_time": {"text": "5:49pm", "time_zone": "America/Chicago", "value": 1642031397}, "departure_time": {"text": "3:59pm", "time_zone": "America/Chicago", "value": 1642024758}, "distance": {"text": "19.5 mi", "value": 31379}, "duration": {"text": "1 hour 51 mins", "value": 6639}, "end_address": "4400 W 18th St, Houston, TX 77092, USA", "end_location": {"lat": 29.8019199, "lng": -95.45428179999999}, "start_address": "5515 W Orem Dr, Houston, TX 77085, USA", "start_location": {"lat": 29.6273378, "lng": -95.4729488}, "steps": [{"distance": {"text": "0.5 mi", "value": 845}, "duration": {"text": "11 mins", "value": 642}, "end_location": {"lat": 29.6267287, "lng": -95.46504829999999}, "html_instructions": "Walk to S Post Oak Rd @ W Orem Dr", "polyline": {"points": "{qysD|`veQZqA@K?ECG?AECGAGAG@A?K@MGHo@Hi@Fc@BYD[Fm@FcABy@@o@@k@?K?I?_@?o@?c@?aA@w@B_G?EBcE?uA?uC?Q?U?OpAC"}, "start_location": {"lat": 29.6273378, "lng": -95.4729488}, "steps": [{"distance": {"text": "308 ft", "value": 94}, "duration": {"text": "1 min", "value": 69}, "end_location": {"lat": 29.6275016, "lng": -95.4723429}, "html_instructions": "Head <b>east</b> toward <b>W Orem Dr</b>", "polyline": {"points": "{qysD|`veQZqA@K?ECG?AECGAGAG@A?K@MG"}, "start_location": {"lat": 29.6273378, "lng": -95.4729488}, "travel_mode": "WALKING"}, {"distance": {"text": "0.4 mi", "value": 701}, "duration": {"text": "9 mins", "value": 527}, "end_location": {"lat": 29.6271432, "lng": -95.4650707}, "html_instructions": "Turn <b>right</b> onto <b>W Orem Dr</b>", "maneuver": "turn-right", "polyline": {"points": "{rysDb}ueQHo@Hi@Fc@BYD[Fm@FcABy@@o@@k@?K?I?_@?o@?c@?aA@w@B_G?EBcE?uA?uC?Q?U?O"}, "start_location": {"lat": 29.6275016, "lng": -95.4723429}, "travel_mode": "WALKING"}, {"distance": {"text": "164 ft", "value": 50}, "duration": {"text": "1 min", "value": 46}, "end_location": {"lat": 29.6267287, "lng": -95.46504829999999}, "html_instructions": "Turn <b>right</b> onto <b>S Post Oak Rd</b>", "maneuver": "turn-right", "polyline": {"points": "spysDtoteQpAC"}, "start_location": {"lat": 29.6271432, "lng": -95.4650707}, "travel_mode": "WALKING"}], "travel_mode": "WALKING"}, {"distance": {"text": "6.6 mi", "value": 10676}, "duration": {"text": "30 mins", "value": 1800}, "end_location": {"lat": 29.705711, "lng": -95.468828}, "html_instructions": "Bus towards Northwest TC", "polyline": {"points": "anysDnoteQ?HyABK?O?c@?OAu@EA?g@GYCuASuBs@g@Qy@]_@Sc@UMGMG_@ScA[sBq@w@Oa@Ga@CE?iAGqF@gA?S?yA?gAAcA@s@?mBA[?C?m@@U?y@@_A@sA?E?S@I?U@}@@o@?S?]@A?S?S@}A@kBB_@?q@@Q@i@?g@@Y?_A@aA?k@@a@@G?SAoB?mB?gA?Y@iB?aD@UGWA{@Ac@A_@?q@?G?sB@I?Q@}A@a@@Y?[@g@AG?a@?gA@uB@OCE?M@O?S?y@@g@?I?M?M@A?M?[BS@O?M@G@G@QJgA?_@?kB@i@?u@@kC?s@?o@@M?cA?qABW?yA@sA@kA@]?K?aA@S?_A?q@@eA@g@?Y?K?cA@O?mA?aA?cB@iB@kB@c@?}A@q@@_BBsDDiCHGAm@?i@ASAMAC?C?k@I]E_AMg@IUCaASMCw@S[Gw@Q}Bm@e@Me@MQEEAGCYCSGeAYYQCAsCy@IEs@Wk@SUKqBg@m@KGCSGw@W_@M_@MWGEAQEw@UWIOEUGQMc@U[OKEIE[KWKQGc@QEAsBq@EA_Bi@cA[ECoFeB?Au@W_Bc@eAe@_By@aA[oBOgBBkD@H{@N{@H[[M?AU?A@YAA?_@CMYH_@\\g@?ARw@JMNEHJDNAR[p@[t@KLSHw@F?|CCfA?h@ClAj@@nABDmA@g@?AHkAA?_@@S?oACiA?s@Au@G_@G[EYEc@Iu@M}@GsCRiBLU@gAD_DNyCFA?gA?W@oC@qB@gB?w@?E?e@@wA?]@iAA]?@~@?r@@`A?v@?l@@X?NAfA@tB?^?dA@rD@lA?dD@L?X?Z?lA?d@@dC?\\?h@?F?Z@nB?d@?p@?H?X?B@t@?`@E@_ARS@I@G?O?Y@G?S?{@@}A@o@@Q?wBAKJi@@mDAY?wABE?M?gA@c@?iA?a@@Y?U?c@?mB@u@@Q?a@AcBB{@?kA@q@?Q?sC@iB@o@?Y?wD@gC@[?O?kD@yA@qA@cA?u@@U?q@?s@?MIk@Ae@?Q?w@?eB@S?eA@?V?`ATV@?@?\\G?BA@?@@@?B@T@`@@LQ@"}, "start_location": {"lat": 29.626729, "lng": -95.465041}, "transit_details": {"arrival_stop": {"location": {"lat": 29.705711, "lng": -95.468828}, "name": "Bellaire Transit Center"}, "arrival_time": {"text": "4:40pm", "time_zone": "America/Chicago", "value": 1642027200}, "departure_stop": {"location": {"lat": 29.626729, "lng": -95.465041}, "name": "S Post Oak Rd @ W Orem Dr"}, "departure_time": {"text": "4:10pm", "time_zone": "America/Chicago", "value": 1642025400}, "headsign": "Northwest TC", "line": {"agencies": [{"name": "Metropolitan Transit Authority of Harris County", "phone": "1 (713) 635-4000", "url": "http://www.ridemetro.org/"}], "color": "#004080", "name": "Chimney Rock / S Post Oak", "short_name": "49", "text_color": "#ffffff", "url": "https://www.ridemetro.org/MetroPDFs/Schedules/BusSchedules/n049-Chimney-Rock-S-Post-Oak.pdf", "vehicle": {"icon": "//maps.gstatic.com/mapfiles/transit/iw2/6/bus2.png", "name": "Bus", "type": "BUS"}}, "num_stops": 32, "trip_short_name": "CHIMROCPOS"}, "travel_mode": "TRANSIT"}, {"distance": {"text": "4.0 mi", "value": 6433}, "duration": {"text": "17 mins", "value": 1020}, "end_location": {"lat": 29.7254958, "lng": -95.41073010000001}, "html_instructions": "Bus towards Wheeler TC", "polyline": {"points": "u{htDdgueQK?EmA\\G\\U@w@@]S?eA@g@?q@?K?S?yA?q@@q@?_@?]w@Qc@MYa@aAMW]y@Sg@GOUi@Um@Sg@Ui@GOw@kBIUWo@m@wAKYc@gAqA}CWm@CIQ_@i@wA]u@O[Qi@EUCICKQa@Uu@Wi@?AEG?AAE_AwBa@eA[u@CEOQiAkC?AIS_@{@CIcBaEaAcCO]EKKWYq@o@{AIQoCyGQe@]y@e@iAM][w@GMWo@KYO_@Qc@MWk@sAKYg@kAeAkCUg@M[c@gAMYEMO]M[CGWk@aAcCEIi@sAQc@wBiFg@qA]y@M[g@mA_@}@wAmDUi@EKEKCQEW_A}BUe@AEc@aAGCCACGMUAEGQEMCEHAGSm@uAQc@a@cAUm@a@cAc@gAGQk@qAWk@]u@k@uAYs@IWKUKWIQEMM[ACc@gA_@}@Qc@Yq@{BqFmAuCWi@KYGQI[CSC[?SAY?gA?K@WC}B?_B?Q?s@?q@AK?iA?OAgCA{ACkC?_A?U?_@A{E?i@CkH?KC}FCuDAsA?UA}CAaC?KAuDA}A?m@?k@Ag@G]?cAAO?K?a@?W?a@?cAAk@?a@?_AAsAAyA?yAAOAyA?_@AiB?cAAuB?E?_@E{KN?"}, "start_location": {"lat": 29.705711, "lng": -95.468828}, "transit_details": {"arrival_stop": {"location": {"lat": 29.7254958, "lng": -95.41073010000001}, "name": "Bissonnet St @ S Shepherd Dr"}, "arrival_time": {"text": "5:00pm", "time_zone": "America/Chicago", "value": 1642028400}, "departure_stop": {"location": {"lat": 29.705711, "lng": -95.468828}, "name": "Bellaire Transit Center"}, "departure_time": {"text": "4:43pm", "time_zone": "America/Chicago", "value": 1642027380}, "headsign": "Wheeler TC", "line": {"agencies": [{"name": "Metropolitan Transit Authority of Harris County", "phone": "1 (713) 635-4000", "url": "http://www.ridemetro.org/"}], "color": "#004080", "name": "Bissonnet", "short_name": "65", "text_color": "#ffffff", "url": "https://www.ridemetro.org/MetroPDFs/Schedules/BusSchedules/n065-Bissonnet.pdf", "vehicle": {"icon": "//maps.gstatic.com/mapfiles/transit/iw2/6/bus2.png", "name": "Bus", "type": "BUS"}}, "num_stops": 24, "trip_short_name": "BISSONNET"}, "travel_mode": "TRANSIT"}, {"distance": {"text": "164 ft", "value": 50}, "duration": {"text": "1 min", "value": 45}, "end_location": {"lat": 29.7253171, "lng": -95.41048599999999}, "html_instructions": "Walk to S Shepherd Dr @ Bissonnet St", "polyline": {"points": "swltD`|ieQA_@?Ol@?"}, "start_location": {"lat": 29.72554409999999, "lng": -95.41073209999999}, "steps": [{"distance": {"text": "66 ft", "value": 20}, "duration": {"text": "1 min", "value": 14}, "end_location": {"lat": 29.7255475, "lng": -95.41048649999999}, "html_instructions": "Head <b>east</b> on <b>Bissonnet St</b> toward <b>S Shepherd Dr</b>", "polyline": {"points": "swltD`|ieQA_@?O"}, "start_location": {"lat": 29.72554409999999, "lng": -95.41073209999999}, "travel_mode": "WALKING"}, {"distance": {"text": "98 ft", "value": 30}, "duration": {"text": "1 min", "value": 31}, "end_location": {"lat": 29.7253171, "lng": -95.41048599999999}, "html_instructions": "Turn <b>right</b> onto <b>S Shepherd Dr</b>", "maneuver": "turn-right", "polyline": {"points": "uwltDpzieQl@?"}, "start_location": {"lat": 29.7255475, "lng": -95.41048649999999}, "travel_mode": "WALKING"}], "travel_mode": "WALKING"}, {"distance": {"text": "5.5 mi", "value": 8876}, "duration": {"text": "22 mins", "value": 1320}, "end_location": {"lat": 29.803613, "lng": -95.41008699999999}, "html_instructions": "Bus towards N Shepherd P&R", "polyline": {"points": "gvltDjzieQ?Ls@?iD@yB?S?c@@gB?oCBU@eB@e@?]?eA?S?O?U?aA?i@@A?[?A?Y@k@?]?m@?W?iD@c@@aA@eADcAAQ?aA?S@c@?U@y@Ao@AgB?cA@sA?cA@Q?iD@wA?u@@e@?c@?M?_A@]?y@?y@@Y?K?y@@O?s@?y@?eB@cA?y@@O?K?W?I?c@?E?}ABE?q@?gA?]Aa@G[GSCg@AS@M?Y?a@?m@?_A?c@@S?sC@gA@iA?kD?iB?_@?[?Y?q@@gB?{@?Y@qA?eA?I?uD@i@@_A?Q?O?{@?m@?M?g@@y@@g@@Q?[?{@?OGEAGCEEGCECECGEY[OYEKCECGEQ_AuCAEEIQe@IQCEACGIEGEGGIIIEEOKGEQKMEk@Oo@@M?{@?WIgB?KEC?SAYAU?IA]?SAeA?S?g@AcA@EBIFKFA@CBIHCDGHGXQ@aAJa@Da@DC?}AL]D]DK@KEA?A?I?G?M?MAAAA?C?AAE?CAA?OCC?AAM?WA[FE@E@c@HG@YD_@HeAPKBw@TgABW?C?W?k@@_A@K?[@SBe@Dc@@SBa@?eA@[?M?eA@c@?e@?]?_@@Y?k@?M?qCBg@?Q?M@U?e@?M?qCB]?w@@_@?E@W?e@?mB@gA?k@@]?qB@c@@a@CE@e@@m@?S@kA?cA@aCBM?oC@eA@oA@Y?[?O?a@Bm@?U?o@?e@@I?A?A?y@?M@YAS@O?_@@w@@y@?]?M?YAMAMCOEYIIAa@Kc@Ku@QGACAm@MAAOCIAK?OAM?M?A?I?O?S@M@IBc@Jq@P}@Vg@Jk@Ji@Hc@Be@DE?c@Bs@ByABA?oCBYA}B@I?A?q@@K?E?k@?C?O@u@?S?k@@w@@K?a@?O?[@U?U?U?k@@k@?Y@C?I?S?kC@y@@K?W@[?S?A?W?G?U@S?c@?e@@O?E?[?mCBeA@U?Y?S?U@A?S?aA@_@?e@@Q?S?U?s@?C?W?qB@sB@eBBg@?oBBaGBq@@w@?aB@i@@W@_B@yA@aB@Q?qD@U@gB?eB@eBA_A@?K"}, "start_location": {"lat": 29.7253163, "lng": -95.4104565}, "transit_details": {"arrival_stop": {"location": {"lat": 29.803613, "lng": -95.41008699999999}, "name": "N Shepherd Dr @ W 20th St"}, "arrival_time": {"text": "5:29pm", "time_zone": "America/Chicago", "value": 1642030140}, "departure_stop": {"location": {"lat": 29.7253163, "lng": -95.4104565}, "name": "S Shepherd Dr @ Bissonnet St"}, "departure_time": {"text": "5:07pm", "time_zone": "America/Chicago", "value": 1642028820}, "headsign": "N Shepherd P&R", "line": {"agencies": [{"name": "Metropolitan Transit Authority of Harris County", "phone": "1 (713) 635-4000", "url": "http://www.ridemetro.org/"}], "color": "#004080", "name": "Shepherd", "short_name": "27", "text_color": "#ffffff", "url": "https://www.ridemetro.org/MetroPDFs/Schedules/BusSchedules/n027-Shepherd.pdf", "vehicle": {"icon": "//maps.gstatic.com/mapfiles/transit/iw2/6/bus2.png", "name": "Bus", "type": "BUS"}}, "num_stops": 38, "trip_short_name": "SHEPHERD"}, "travel_mode": "TRANSIT"}, {"distance": {"text": "112 ft", "value": 34}, "duration": {"text": "1 min", "value": 34}, "end_location": {"lat": 29.803842, "lng": -95.41002979999999}, "html_instructions": "Walk to W 20th St @ N Shepherd Dr", "polyline": {"points": "q_|tDdxieQ_@@M??Q"}, "start_location": {"lat": 29.8036121, "lng": -95.410111}, "steps": [{"distance": {"text": "69 ft", "value": 21}, "duration": {"text": "1 min", "value": 15}, "end_location": {"lat": 29.8038391, "lng": -95.4101207}, "html_instructions": "Head <b>north</b> on <b>N Shepherd Dr</b> toward <b>W 20th St</b>", "polyline": {"points": "q_|tDdxieQ_@@M?"}, "start_location": {"lat": 29.8036121, "lng": -95.410111}, "travel_mode": "WALKING"}, {"distance": {"text": "43 ft", "value": 13}, "duration": {"text": "1 min", "value": 19}, "end_location": {"lat": 29.803842, "lng": -95.41002979999999}, "html_instructions": "Turn <b>right</b> onto <b>W 20th St</b>", "maneuver": "turn-right", "polyline": {"points": "_a|tDfxieQ?Q"}, "start_location": {"lat": 29.8038391, "lng": -95.4101207}, "travel_mode": "WALKING"}], "travel_mode": "WALKING"}, {"distance": {"text": "2.7 mi", "value": 4367}, "duration": {"text": "10 mins", "value": 582}, "end_location": {"lat": 29.80163, "lng": -95.454342}, "html_instructions": "Bus towards Memorial City", "polyline": {"points": "ea|tDvwieQJ?@V?fA@`ABfE?tABtJ?pB@rA?r@?H?|@?jB?@?j@@h@AL?\\?J@f@?|B?h@?|@?n@?N?|G?J@tE?d@@dC?p@AL@J?V@P@H?B?D@F@HBH@JDPDLDLDHDJDJHLFHFHLL?@TVTVn@v@NRh@h@NPVX^f@BJBFBFf@v@P`@DZDVBT@F?D@F?H?P@P?X?N?F?j@@pAIpB@f@?V?fA?j@?V@h@AjA?h@@~@?b@@^Af@@d@?X?bA?jA?b@@nC?J?d@Aj@?v@?P@dB?jA?bC?`A?\\@dH?`D?dC@fE?jD?T@`F@vB?jD?vC?X?`E@V@zCAb@?fAAX@fB@fA?T@|B?l@A~A?x@?XAzB?`A?dB?l@?P?F?H@^?Z?@?H?@?Z?h@?f@?j@?^?t@@j@BnAAV@|@@fB?bBG?"}, "start_location": {"lat": 29.803869, "lng": -95.410039}, "transit_details": {"arrival_stop": {"location": {"lat": 29.80163, "lng": -95.454342}, "name": "W 18th St @ Northwest Fwy"}, "arrival_time": {"text": "5:48pm", "time_zone": "America/Chicago", "value": 1642031320}, "departure_stop": {"location": {"lat": 29.803869, "lng": -95.410039}, "name": "W 20th St @ N Shepherd Dr"}, "departure_time": {"text": "5:38pm", "time_zone": "America/Chicago", "value": 1642030738}, "headsign": "Memorial City", "line": {"agencies": [{"name": "Metropolitan Transit Authority of Harris County", "phone": "1 (713) 635-4000", "url": "http://www.ridemetro.org/"}], "color": "#004080", "name": "Long Point / Cavalcade", "short_name": "26", "text_color": "#ffffff", "url": "https://www.ridemetro.org/MetroPDFs/Schedules/BusSchedules/n026-Long-Point-Cavalcade.pdf", "vehicle": {"icon": "//maps.gstatic.com/mapfiles/transit/iw2/6/bus2.png", "name": "Bus", "type": "BUS"}}, "num_stops": 14, "trip_short_name": "LONGPOINT"}, "travel_mode": "TRANSIT"}, {"distance": {"text": "322 ft", "value": 98}, "duration": {"text": "1 min", "value": 77}, "end_location": {"lat": 29.8019199, "lng": -95.45428179999999}, "html_instructions": "Walk to 4400 W 18th St, Houston, TX 77092, USA", "polyline": {"points": "es{tDrlreQ?z@YEc@E?G@Q@a@"}, "start_location": {"lat": 29.8016264, "lng": -95.454342}, "steps": [{"distance": {"text": "95 ft", "value": 29}, "duration": {"text": "1 min", "value": 22}, "end_location": {"lat": 29.8016252, "lng": -95.45463819999999}, "html_instructions": "Head <b>west</b> on <b>W 18th St</b>/<wbr/><b>NW Mall</b>", "polyline": {"points": "es{tDrlreQ?z@"}, "start_location": {"lat": 29.8016264, "lng": -95.454342}, "travel_mode": "WALKING"}, {"distance": {"text": "131 ft", "value": 40}, "duration": {"text": "1 min", "value": 33}, "end_location": {"lat": 29.8019405, "lng": -95.4545788}, "html_instructions": "Turn <b>right</b><div style=\"font-size:0.9em\">Restricted usage road</div>", "maneuver": "turn-right", "polyline": {"points": "es{tDnnreQYEc@E"}, "start_location": {"lat": 29.8016252, "lng": -95.45463819999999}, "travel_mode": "WALKING"}, {"distance": {"text": "95 ft", "value": 29}, "duration": {"text": "1 min", "value": 22}, "end_location": {"lat": 29.8019199, "lng": -95.45428179999999}, "html_instructions": "Turn <b>right</b><div style=\"font-size:0.9em\">Restricted usage road</div><div style=\"font-size:0.9em\">Destination will be on the left</div>", "maneuver": "turn-right", "polyline": {"points": "cu{tDbnreQ?G@Q@a@"}, "start_location": {"lat": 29.8019405, "lng": -95.4545788}, "travel_mode": "WALKING"}], "travel_mode": "WALKING"}], "traffic_speed_entry": [], "via_waypoint": []}], "overview_polyline": {"points": "{qysD|`veQ\\}ACMEEOCI@K@MGRyAJ}@LiAJ}BBqBHwT?sG?OpAC?FeBBs@?oBOoBW}CeAyAq@q@]m@[wDmAyAWg@CiAGqF@{A?yG?{D?cFBy@B_DBwIJcIFyHAcC@aD@UGsACcAAwD@kDDmB?}DBUCkBBmCFm@DQJgA?kC@_H@sEDqKFyID}IB_HDsGHqCFyBEqAO_Eo@uJaC{@QeAYYQwC{@_C}@_Ds@[KoC{@gBg@e@Mu@c@mAg@qJaDkHcC_Bc@eAe@_By@aA[oBOgBBkD@H{@XwA[OW@[A_@CMYH_@\\g@Ry@JMNEHJDNAR[p@g@bASHw@FCdFCvBzBDFuBHmAa@@aFEuAOu@KyAW}@GsCRiBL}AF_DNyCFiA?aKD{D@gB?]?@~@@tB?dB@fFDpQ@dJBfIeAT]By@@}EDiCAKJi@@gEA}AByB@uJDoQF{TFaFBeB?MIk@Aw@?}C@yA@?xAXV\\G?BABBZBn@]@EmA\\G\\U@w@@]S?mB@kD?cB@_@?]w@_@}@o@yAoA{CoEyKo@aBiBkE}AwDa@eAI_@Um@m@_BGQaCyFOQiAkCIUiEkKwGaPiDqIiFeMiNc]sCaHI]EW{BkFKEQ]Sk@HAGS_AyB}B}FiBeEeCkGwAmDuCcHeB_ESk@Mo@Co@AaBAaGAcCG_QE}PI}OIaUG]?cAA[?_DI_OCcI?e@E{KN?G?A_@?Ol@??E?L}E@yG@qHFkG@gE@mEBgCFkD?cDAcIBaNDuHB{IBmCByB?_AIo@K{@?wB?sTDeZF}CBqC@c@S[QY[OYIQkAuDe@gAU]g@e@YQy@U}@@{@?WIgB?KEWAwACuCCcA@EBUNSTOb@sALeDX{@JK@KEC?Q?[ACAQCSCOAWA[FKBk@JkCd@w@TgAB[?oCByBLu@BaB@}C@cC@qHDyLHcGBeAAk@BqEBeJFuC@uCBuC@{BD_CAk@KiBc@oBc@g@Gm@A{@Bm@NoBh@sAVmALcCLeGD}FBkMJu^TqLFgTNcUJeD??K?Bm@@?QE@J?@V@hCFdWBrK?tJ@zVD~@BZPt@Vn@f@n@zAhBhAnAv@`AFRj@~@V|@Jz@BrC@pAIpB@~@@tDAtB@bB@fC?xMBnZ@nOBxI?bIBnKAlFBhGCnH@tH?fEBhEBdD?bBG??z@}@KB{@"}, "summary": "", "warnings": ["Walking directions are in beta. Use caution \u2013 This route may be missing sidewalks or pedestrian paths."], "waypoint_order": []}], "status": "OK"}