{"geocoded_waypoints": [{"geocoder_status": "OK", "place_id": "ChIJ8f67JDa8QIYRnrEX-jtGByA", "types": ["establishment", "point_of_interest", "primary_school", "school"]}, {"geocoder_status": "OK", "place_id": "ChIJ9_tphxzHQIYRIMyPy_d3VZU", "types": ["establishment", "point_of_interest"]}], "routes": [{"bounds": {"northeast": {"lat": 29.8041315, "lng": -95.2889726}, "southwest": {"lat": 29.7365701, "lng": -95.45463819999999}}, "copyrights": "Map data \u00a92022", "legs": [{"arrival_time": {"text": "4:34pm", "time_zone": "America/Chicago", "value": 1642026897}, "departure_time": {"text": "3:19pm", "time_zone": "America/Chicago", "value": 1642022379}, "distance": {"text": "14.2 mi", "value": 22843}, "duration": {"text": "1 hour 15 mins", "value": 4518}, "end_address": "4400 W 18th St, Houston, TX 77092, USA", "end_location": {"lat": 29.8019199, "lng": -95.45428179999999}, "start_address": "7521 Avenue H, Houston, TX 77012, USA", "start_location": {"lat": 29.7369546, "lng": -95.2889726}, "steps": [{"distance": {"text": "0.1 mi", "value": 224}, "duration": {"text": "3 mins", "value": 177}, "end_location": {"lat": 29.7381588, "lng": -95.28991459999999}, "html_instructions": "Walk to 75th St @ Avenue I", "polyline": {"points": "}~ntD`crdQkApFCNaCw@_@M"}, "start_location": {"lat": 29.7369546, "lng": -95.2889726}, "steps": [{"distance": {"text": "420 ft", "value": 128}, "duration": {"text": "2 mins", "value": 95}, "end_location": {"lat": 29.7373522, "lng": -95.2902616}, "html_instructions": "Head <b>west</b> on <b>Avenue H</b> toward <b>75th St</b>", "polyline": {"points": "}~ntD`crdQkApFCN"}, "start_location": {"lat": 29.7369546, "lng": -95.2889726}, "travel_mode": "WALKING"}, {"distance": {"text": "315 ft", "value": 96}, "duration": {"text": "1 min", "value": 82}, "end_location": {"lat": 29.7381588, "lng": -95.28991459999999}, "html_instructions": "Turn <b>right</b> onto <b>75th St</b>", "maneuver": "turn-right", "polyline": {"points": "maotDbkrdQaCw@_@M"}, "start_location": {"lat": 29.7373522, "lng": -95.2902616}, "travel_mode": "WALKING"}], "travel_mode": "WALKING"}, {"distance": {"text": "3.9 mi", "value": 6304}, "duration": {"text": "18 mins", "value": 1094}, "end_location": {"lat": 29.758442, "lng": -95.347867}, "html_instructions": "Bus towards Bellaire TC", "polyline": {"points": "qfotDbirdQBK^J`Cv@p@RXHd@Lf@NI^_@lBEPEPw@xDGXe@~B[|AMh@Sz@KZY`Ac@fBABAHERG\\IXMp@e@vBcAzEMj@[tAMj@g@xBkAhFI^Op@ETS|@yAbHELETKf@Sz@g@~BKb@I^S~@CHGXMj@YnAgA`FCLIb@]xAGXoAzFER}A`HI^GZCJERABAFKd@On@k@lCKh@g@xBS`AiAlFGXs@dDER{@tDMp@k@lCs@dDGTw@vD{@`EMj@i@fCKb@g@hCWjAMn@GTe@vBI^g@~BCPGVe@zBUfAWjAa@tBABi@lCK`@I^CLENCHWnAI`@_@dBUfAMr@ABGVk@dCCLEP_@fBKh@CLYnAUlAKf@EV[xAS|@[|ACJKb@]`BG\\Mh@Mj@CHM\\GPQZKLKLMLCBKJSP_@b@Wb@AB[l@cAnBIPIL{AtCELoAbCOXy@bBmAbCKP?@GLCDWf@[l@INc@z@Yh@IP{AtCaAjB[j@OXaB|CGLyArCwArCkAzBS^A@GDOTABYf@a@t@g@`Aa@v@IROZILMVQZGLGJ]n@M^N\\N^QJ"}, "start_location": {"lat": 29.738167, "lng": -95.289941}, "transit_details": {"arrival_stop": {"location": {"lat": 29.758442, "lng": -95.347867}, "name": "Navigation Blvd @ Canal St"}, "arrival_time": {"text": "3:40pm", "time_zone": "America/Chicago", "value": 1642023650}, "departure_stop": {"location": {"lat": 29.738167, "lng": -95.289941}, "name": "75th St @ Avenue I"}, "departure_time": {"text": "3:22pm", "time_zone": "America/Chicago", "value": 1642022556}, "headsign": "Bellaire TC", "line": {"agencies": [{"name": "Metropolitan Transit Authority of Harris County", "phone": "1 (713) 635-4000", "url": "http://www.ridemetro.org/"}], "color": "#004080", "name": "Canal / Memorial", "short_name": "20", "text_color": "#ffffff", "url": "https://www.ridemetro.org/MetroPDFs/Schedules/BusSchedules/n020-Canal-Memorial.pdf", "vehicle": {"icon": "//maps.gstatic.com/mapfiles/transit/iw2/6/bus2.png", "name": "Bus", "type": "BUS"}}, "num_stops": 31, "trip_short_name": "CANALMEM"}, "travel_mode": "TRANSIT"}, {"distance": {"text": "276 ft", "value": 84}, "duration": {"text": "1 min", "value": 65}, "end_location": {"lat": 29.7582918, "lng": -95.3476335}, "html_instructions": "Walk to Navigation Blvd @ Canal St", "polyline": {"points": "{dstD|r}dQO_@ISFMBKHQPl@BH"}, "start_location": {"lat": 29.7583825, "lng": -95.3478308}, "steps": [{"distance": {"text": "115 ft", "value": 35}, "duration": {"text": "1 min", "value": 25}, "end_location": {"lat": 29.7584722, "lng": -95.34749839999999}, "html_instructions": "Head <b>northeast</b> on <b>Navigation Blvd</b> toward <b>Canal St</b>", "polyline": {"points": "{dstD|r}dQO_@ISFM"}, "start_location": {"lat": 29.7583825, "lng": -95.3478308}, "travel_mode": "WALKING"}, {"distance": {"text": "56 ft", "value": 17}, "duration": {"text": "1 min", "value": 14}, "end_location": {"lat": 29.7584037, "lng": -95.3473494}, "html_instructions": "Turn <b>right</b> onto <b>Canal St</b>", "maneuver": "turn-right", "polyline": {"points": "mestDzp}dQBKHQ"}, "start_location": {"lat": 29.7584722, "lng": -95.34749839999999}, "travel_mode": "WALKING"}, {"distance": {"text": "105 ft", "value": 32}, "duration": {"text": "1 min", "value": 26}, "end_location": {"lat": 29.7582918, "lng": -95.3476335}, "html_instructions": "Turn <b>right</b> onto <b>Navigation Blvd</b>", "maneuver": "turn-right", "polyline": {"points": "_estD|o}dQPl@BH"}, "start_location": {"lat": 29.7584037, "lng": -95.3473494}, "travel_mode": "WALKING"}], "travel_mode": "WALKING"}, {"distance": {"text": "3.2 mi", "value": 5112}, "duration": {"text": "12 mins", "value": 720}, "end_location": {"lat": 29.801755, "lng": -95.342097}, "html_instructions": "Bus towards Greenspoint TC", "polyline": {"points": "cdstDpq}dQKFCISs@c@y@MWc@{@MUA?KWCGCKAAGWIa@Ke@C[Uo@EKMWMQEGKKQOAAAASMi@_@OCg@_@s@i@s@g@c@[MKOMWOEC_@Uc@SYMAAKCUIe@Si@Sa@O_@KOEQEa@AeCAu@?oA?y@@{@@K?sA?M?c@?u@Ca@@k@?M?gBBK?s@?S?}@@E?K@C?A?SDODKBA?A@C@OFKBA@ODEBm@Rc@Pa@B[BQ?e@?cAAC?U?MAA?Y?YAM?k@Ac@?W?O?C?M?q@AMAMAICIAGCICIEOKYQWQKMyAcBq@u@WYYYMIIEME]KSAWAw@?]?]A{BBy@?w@?_@?i@B]?c@?K?_B@A?O@e@?_@?]?i@?c@?Q?Q?mC@c@?S?cEB[?M@a@?_A?I?E?m@?O?sA?I?uA?q@@I?oB@I?Q?q@?g@?A?E?_@?K?K?M?[?W?Q?U@qB@]?Q@S?{B?C?U?_@?sIDY?{FBc@@eD@U?iGDc@@cDB_FFQ?aA@_A?A?oC@kIDO?wCBgKFK?qA@kB@o@AgBCu@?k@?m@?AS"}, "start_location": {"lat": 29.758256, "lng": -95.34761499999999}, "transit_details": {"arrival_stop": {"location": {"lat": 29.801755, "lng": -95.342097}, "name": "Jensen Dr @ Cavalcade St"}, "arrival_time": {"text": "4:01pm", "time_zone": "America/Chicago", "value": 1642024860}, "departure_stop": {"location": {"lat": 29.758256, "lng": -95.34761499999999}, "name": "Navigation Blvd @ Canal St"}, "departure_time": {"text": "3:49pm", "time_zone": "America/Chicago", "value": 1642024140}, "headsign": "Greenspoint TC", "line": {"agencies": [{"name": "Metropolitan Transit Authority of Harris County", "phone": "1 (713) 635-4000", "url": "http://www.ridemetro.org/"}], "color": "#004080", "name": "Jensen / Greens", "short_name": "6", "text_color": "#ffffff", "url": "https://www.ridemetro.org/MetroPDFs/Schedules/BusSchedules/n006-Jensen-Greens.pdf", "vehicle": {"icon": "//maps.gstatic.com/mapfiles/transit/iw2/6/bus2.png", "name": "Bus", "type": "BUS"}}, "num_stops": 22, "trip_short_name": "JENSENGREE"}, "travel_mode": "TRANSIT"}, {"distance": {"text": "207 ft", "value": 63}, "duration": {"text": "1 min", "value": 66}, "end_location": {"lat": 29.8021569, "lng": -95.34201689999999}, "html_instructions": "Walk to Cavalcade St @ Jensen Dr", "polyline": {"points": "}s{tDno|dQi@?M?O?O?D["}, "start_location": {"lat": 29.8017549, "lng": -95.3421599}, "steps": [{"distance": {"text": "148 ft", "value": 45}, "duration": {"text": "1 min", "value": 43}, "end_location": {"lat": 29.8021865, "lng": -95.3421642}, "html_instructions": "Head <b>north</b> on <b>Jensen Dr</b> toward <b>Cavalcade St</b>", "polyline": {"points": "}s{tDno|dQi@?M?O?O?"}, "start_location": {"lat": 29.8017549, "lng": -95.3421599}, "travel_mode": "WALKING"}, {"distance": {"text": "59 ft", "value": 18}, "duration": {"text": "1 min", "value": 23}, "end_location": {"lat": 29.8021569, "lng": -95.34201689999999}, "html_instructions": "Turn <b>right</b> onto <b>Cavalcade St</b>", "maneuver": "turn-right", "polyline": {"points": "uv{tDno|dQD["}, "start_location": {"lat": 29.8021865, "lng": -95.3421642}, "travel_mode": "WALKING"}], "travel_mode": "WALKING"}, {"distance": {"text": "6.8 mi", "value": 10958}, "duration": {"text": "26 mins", "value": 1569}, "end_location": {"lat": 29.80163, "lng": -95.454342}, "html_instructions": "Bus towards Memorial City", "polyline": {"points": "qv{tDpn|dQHBGb@K~@AHW|Bc@jEo@fFWlBK|@EVSbBQpAGr@Mp@Eb@CNOrAKdBCf@?HAx@?xB@d@@j@?pA@nA?X@dB?T@fAB~D@bD@ZBbEBzB@fAGrAAXGvA@vD@xC@^@tD@x@?V?v@?l@?\\BpD@nB?fA@jA?tA?T?\\?lA@nA?tA@dA?Z@bA?pB@vDAlBAV?LANAT?RAXCR?@CXQ|@Kf@Sz@ENOr@CRE\\Cb@KfCARCpAAv@AXCf@?DAT?LAHCfAAd@?D?lB?h@?VBjC?lB?x@@z@@fB?fD@fDE`BA|@?HA\\@V?lA@L?\\?x@?V@j@@t@?L?JB`@@T@NBN@N@V?f@@f@?`A?r@?L?xBAP?JALAPANIbAEb@?TAR?V?fH?p@@vD@xAC^C^CRA@ETC\\Af@?P?P?LA`@@\\BpA?^@j@?H@tA?n@?b@@b@?X?P?V@`A?v@@dA?V?vA@T?lB@jB@tA?XB|E?~A@zB@nB?V?V@t@?L?R?L@R?N?f@?h@@|@?\\?d@?b@@n@?pA@|B?d@?`@@t@?T?pA@v@@rA?v@@bD@~@?nA@H?tB@^@dC?P?j@@x@?x@?t@@P?dA@|A?\\?^@dC@zB?xA?N@V?fA@`ABfE?tABtJ?pB@rA?r@?H?|@?jB?@?j@@h@AL?\\?J@f@?|B?h@?|@?n@?N?|G?J@tE?d@@dC?p@AL@J?V@P@H?B?D@F@HBH@JDPDLDLDHDJDJHLFHFHLL?@TVTVn@v@NRh@h@NPVX^f@BJBFBFf@v@P`@DZDVBT@F?D@F?H?P@P?X?N?F?j@@pAIpB@f@?V?fA?j@?V@h@AjA?h@@~@?b@@^Af@@d@?X?bA?jA?b@@nC?J?d@Aj@?v@?P@dB?jA?bC?`A?\\@dH?`D?dC@fE?jD?T@`F@vB?jD?vC?X?`E@V@zCAb@?fAAX@fB@fA?T@|B?l@A~A?x@?XAzB?`A?dB?l@?P?F?H@^?Z?@?H?@?Z?h@?f@?j@?^?t@@j@BnAAV@|@@fB?bBG?"}, "start_location": {"lat": 29.802168, "lng": -95.34201399999999}, "transit_details": {"arrival_stop": {"location": {"lat": 29.80163, "lng": -95.454342}, "name": "W 18th St @ Northwest Fwy"}, "arrival_time": {"text": "4:33pm", "time_zone": "America/Chicago", "value": 1642026820}, "departure_stop": {"location": {"lat": 29.802168, "lng": -95.34201399999999}, "name": "Cavalcade St @ Jensen Dr"}, "departure_time": {"text": "4:07pm", "time_zone": "America/Chicago", "value": 1642025251}, "headsign": "Memorial City", "line": {"agencies": [{"name": "Metropolitan Transit Authority of Harris County", "phone": "1 (713) 635-4000", "url": "http://www.ridemetro.org/"}], "color": "#004080", "name": "Long Point / Cavalcade", "short_name": "26", "text_color": "#ffffff", "url": "https://www.ridemetro.org/MetroPDFs/Schedules/BusSchedules/n026-Long-Point-Cavalcade.pdf", "vehicle": {"icon": "//maps.gstatic.com/mapfiles/transit/iw2/6/bus2.png", "name": "Bus", "type": "BUS"}}, "num_stops": 41, "trip_short_name": "LONGPOINT"}, "travel_mode": "TRANSIT"}, {"distance": {"text": "322 ft", "value": 98}, "duration": {"text": "1 min", "value": 77}, "end_location": {"lat": 29.8019199, "lng": -95.45428179999999}, "html_instructions": "Walk to 4400 W 18th St, Houston, TX 77092, USA", "polyline": {"points": "es{tDrlreQ?z@YEc@E?G@Q@a@"}, "start_location": {"lat": 29.8016264, "lng": -95.454342}, "steps": [{"distance": {"text": "95 ft", "value": 29}, "duration": {"text": "1 min", "value": 22}, "end_location": {"lat": 29.8016252, "lng": -95.45463819999999}, "html_instructions": "Head <b>west</b> on <b>W 18th St</b>/<wbr/><b>NW Mall</b>", "polyline": {"points": "es{tDrlreQ?z@"}, "start_location": {"lat": 29.8016264, "lng": -95.454342}, "travel_mode": "WALKING"}, {"distance": {"text": "131 ft", "value": 40}, "duration": {"text": "1 min", "value": 33}, "end_location": {"lat": 29.8019405, "lng": -95.4545788}, "html_instructions": "Turn <b>right</b><div style=\"font-size:0.9em\">Restricted usage road</div>", "maneuver": "turn-right", "polyline": {"points": "es{tDnnreQYEc@E"}, "start_location": {"lat": 29.8016252, "lng": -95.45463819999999}, "travel_mode": "WALKING"}, {"distance": {"text": "95 ft", "value": 29}, "duration": {"text": "1 min", "value": 22}, "end_location": {"lat": 29.8019199, "lng": -95.45428179999999}, "html_instructions": "Turn <b>right</b><div style=\"font-size:0.9em\">Restricted usage road</div><div style=\"font-size:0.9em\">Destination will be on the left</div>", "maneuver": "turn-right", "polyline": {"points": "cu{tDbnreQ?G@Q@a@"}, "start_location": {"lat": 29.8019405, "lng": -95.4545788}, "travel_mode": "WALKING"}], "travel_mode": "WALKING"}], "traffic_speed_entry": [], "via_waypoint": []}], "overview_polyline": {"points": "}~ntD`crdQoA`GaDeAADBK`DbAxCz@u@pDaCpLa@dBe@|Am@hCeA`F{BhKmCtLgE~RwK|f@qHr]sHv]{D~QkDrPoBhJcCbLiAnFcAfFsBtJg@dB]h@YZcAdAyBdEuBbEgFdKyBhEwInPqGbMIFQXeCvEq@tA_AdBM^N\\N^QJJGO_@ISFML]Tv@DCKFW}@cBcDUk@_@aBC[Uo@Sc@SY][aAq@OCg@_@gBqAyAeAe@Y}@a@iAc@kAc@o@Qs@G{DAqEBaB?yACcEDqC@U@q@NWJc@Nm@Rc@Pa@Bm@BiBAg@A{DCqACi@K}@g@c@_@kCyCq@s@WOk@Qk@CoF@{DBeGBuI@mKDyJBkD?kGDsXHc\\Voc@TyF@wFCAS@Jw@?_@?B]HBGb@MhA{@hIgAtIw@jG_@xCOrAKdBCp@ArDBpAB`HF`MJbLIlBGvA@vDBxDBnF?zCFlSBfG@tD?dHEjAEbAUvA_@bBUbAIp@OjDEdBG~BGtBAbEH~XIfEBpCBrDDpAFn@BfB?|FE|@QlCAdKBpGG~@OhAAxABpDDnHDjMNf^JxZNt_@FlPHt]@bH@dX?jFD~@BZPt@Vn@f@n@dDxDv@`AFRj@~@V|@Jz@Bt@?|A@pAIpB@~@@tDAtB@bB@fC@bI?|MBv`@BxI?bIBnKAlFBhGCnH?fF@vBBfJBdD?bBG??z@}@KB{@"}, "summary": "", "warnings": ["Walking directions are in beta. Use caution \u2013 This route may be missing sidewalks or pedestrian paths."], "waypoint_order": []}, {"bounds": {"northeast": {"lat": 29.8041315, "lng": -95.2889726}, "southwest": {"lat": 29.7365701, "lng": -95.45463819999999}}, "copyrights": "Map data \u00a92022", "legs": [{"arrival_time": {"text": "4:34pm", "time_zone": "America/Chicago", "value": 1642026897}, "departure_time": {"text": "3:19pm", "time_zone": "America/Chicago", "value": 1642022379}, "distance": {"text": "13.7 mi", "value": 22006}, "duration": {"text": "1 hour 15 mins", "value": 4518}, "end_address": "4400 W 18th St, Houston, TX 77092, USA", "end_location": {"lat": 29.8019199, "lng": -95.45428179999999}, "start_address": "7521 Avenue H, Houston, TX 77012, USA", "start_location": {"lat": 29.7369546, "lng": -95.2889726}, "steps": [{"distance": {"text": "0.1 mi", "value": 224}, "duration": {"text": "3 mins", "value": 177}, "end_location": {"lat": 29.7381588, "lng": -95.28991459999999}, "html_instructions": "Walk to 75th St @ Avenue I", "polyline": {"points": "}~ntD`crdQkApFCNaCw@_@M"}, "start_location": {"lat": 29.7369546, "lng": -95.2889726}, "steps": [{"distance": {"text": "420 ft", "value": 128}, "duration": {"text": "2 mins", "value": 95}, "end_location": {"lat": 29.7373522, "lng": -95.2902616}, "html_instructions": "Head <b>west</b> on <b>Avenue H</b> toward <b>75th St</b>", "polyline": {"points": "}~ntD`crdQkApFCN"}, "start_location": {"lat": 29.7369546, "lng": -95.2889726}, "travel_mode": "WALKING"}, {"distance": {"text": "315 ft", "value": 96}, "duration": {"text": "1 min", "value": 82}, "end_location": {"lat": 29.7381588, "lng": -95.28991459999999}, "html_instructions": "Turn <b>right</b> onto <b>75th St</b>", "maneuver": "turn-right", "polyline": {"points": "maotDbkrdQaCw@_@M"}, "start_location": {"lat": 29.7373522, "lng": -95.2902616}, "travel_mode": "WALKING"}], "travel_mode": "WALKING"}, {"distance": {"text": "4.8 mi", "value": 7791}, "duration": {"text": "23 mins", "value": 1393}, "end_location": {"lat": 29.762215, "lng": -95.36054899999999}, "html_instructions": "Bus towards Bellaire TC", "polyline": {"points": "qfotDbirdQBK^J`Cv@p@RXHd@Lf@NI^_@lBEPEPw@xDGXe@~B[|AMh@Sz@KZY`Ac@fBABAHERG\\IXMp@e@vBcAzEMj@[tAMj@g@xBkAhFI^Op@ETS|@yAbHELETKf@Sz@g@~BKb@I^S~@CHGXMj@YnAgA`FCLIb@]xAGXoAzFER}A`HI^GZCJERABAFKd@On@k@lCKh@g@xBS`AiAlFGXs@dDER{@tDMp@k@lCs@dDGTw@vD{@`EMj@i@fCKb@g@hCWjAMn@GTe@vBI^g@~BCPGVe@zBUfAWjAa@tBABi@lCK`@I^CLENCHWnAI`@_@dBUfAMr@ABGVk@dCCLEP_@fBKh@CLYnAUlAKf@EV[xAS|@[|ACJKb@]`BG\\Mh@Mj@CHM\\GPQZKLKLMLCBKJSP_@b@Wb@AB[l@cAnBIPIL{AtCELoAbCOXy@bBmAbCKP?@GLCDWf@[l@INc@z@Yh@IP{AtCaAjB[j@OXaB|CGLyArCwArCkAzBS^A@GDOTABYf@a@t@g@`Aa@v@IROZILMVQZGLGJ]n@M^N\\N^Nd@^hA|@pCNd@J^@BZ~@Nl@Hv@@V?ZAVEPGLIRA@S`@U^MTMVEV]v@EFEHGNKP[l@hAz@hAz@m@nAc@z@ABQ\\y@`Be@|@CFw@zAKREJKPO\\U`@KPSb@OVe@~@o@nAe@~@MTw@zAGJa@x@GHqAnCQ^OXs@tACH]l@MT}@`BQXGG"}, "start_location": {"lat": 29.738167, "lng": -95.289941}, "transit_details": {"arrival_stop": {"location": {"lat": 29.762215, "lng": -95.36054899999999}, "name": "Congress St @ Main St"}, "arrival_time": {"text": "3:45pm", "time_zone": "America/Chicago", "value": 1642023949}, "departure_stop": {"location": {"lat": 29.738167, "lng": -95.289941}, "name": "75th St @ Avenue I"}, "departure_time": {"text": "3:22pm", "time_zone": "America/Chicago", "value": 1642022556}, "headsign": "Bellaire TC", "line": {"agencies": [{"name": "Metropolitan Transit Authority of Harris County", "phone": "1 (713) 635-4000", "url": "http://www.ridemetro.org/"}], "color": "#004080", "name": "Canal / Memorial", "short_name": "20", "text_color": "#ffffff", "url": "https://www.ridemetro.org/MetroPDFs/Schedules/BusSchedules/n020-Canal-Memorial.pdf", "vehicle": {"icon": "//maps.gstatic.com/mapfiles/transit/iw2/6/bus2.png", "name": "Bus", "type": "BUS"}}, "num_stops": 37, "trip_short_name": "CANALMEM"}, "travel_mode": "TRANSIT"}, {"distance": {"text": "154 ft", "value": 47}, "duration": {"text": "1 min", "value": 46}, "end_location": {"lat": 29.7620638, "lng": -95.36088579999999}, "html_instructions": "Walk to Preston NB", "polyline": {"points": "s|stDhb`eQIPGL@CEFJHJFTP"}, "start_location": {"lat": 29.7621781, "lng": -95.3605335}, "steps": [{"distance": {"text": "69 ft", "value": 21}, "duration": {"text": "1 min", "value": 25}, "end_location": {"lat": 29.762227, "lng": -95.3607553}, "html_instructions": "Head <b>northwest</b> on <b>Congress St</b> toward <b>Main St</b>", "polyline": {"points": "s|stDhb`eQIPGL@CEFJH"}, "start_location": {"lat": 29.7621781, "lng": -95.3605335}, "travel_mode": "WALKING"}, {"distance": {"text": "85 ft", "value": 26}, "duration": {"text": "1 min", "value": 21}, "end_location": {"lat": 29.7620638, "lng": -95.36088579999999}, "html_instructions": "Turn <b>left</b>", "maneuver": "turn-left", "polyline": {"points": "}|stDvc`eQJFTP"}, "start_location": {"lat": 29.762227, "lng": -95.3607553}, "travel_mode": "WALKING"}], "travel_mode": "WALKING"}, {"distance": {"text": "3.3 mi", "value": 5311}, "duration": {"text": "12 mins", "value": 720}, "end_location": {"lat": 29.802746, "lng": -95.36810299999999}, "html_instructions": "Light rail towards Northline TC", "polyline": {"points": "qzstDle`eQEFMK_Aq@_Aq@sAaAu@g@}AmAAACA_@SAA[QIEQIUIMGQEOEAAMC]G_@M]MMEc@GOCMCgAUaASEAE?ICIAc@I]I[GYECA]Ec@Ec@EWCSGQCGCQCOCMAKAMAC?G?O?O?Q@O@OBOBw@P]H[HE@WHIBA?MBQBA@M@SDM@UD_@JA?MD[Fu@N]HWFA?QDUFYJa@R}@^C@aA`@c@PKDSHUJUJSJ?@_@RYNa@ZWRCBSLWNSHCBWJC@a@N_@Na@NcC~@mAd@UHc@PiAb@e@P[JWJ}Al@i@R{Bx@QJYPOHc@NYHSBSFq@Vi@RmAb@_@Ne@Py@ZeA`@o@TEBC@i@Rm@T_A\\u@XYJa@Pm@Ta@Ny@ZMDKBI@E@I?OAKCMEKGIIEGEGEMEM{@cDIYQs@e@cBMk@i@mB?AMe@CKAIAI?K?k@AOAOCMEMEKEECEMKMIMEMCKCsAMOAc@EMA{AOc@EE?o@GSCQAOASASA{AIWASAW?a@A_DAU@M@K?UCoAAM?k@?O@M@MDKDsBdA{At@]PyBfAQJKDKJKHKJKLIJYj@_@p@i@|@U\\g@x@IJc@p@QTcB|B{ArBSXMLIJOPORONeA|AiAzAKPINa@n@KPKPKNo@|@_@f@IJMNMLMJKHOFOFODOBQ@O@Q?kBAW?_@?o@?U?S@O?{AFM?W@U?M?{B?{BAQ?}BAaBAK?I@I@KBkA\\?@"}, "start_location": {"lat": 29.761851, "lng": -95.361029}, "transit_details": {"arrival_stop": {"location": {"lat": 29.802746, "lng": -95.36810299999999}, "name": "Cavalcade"}, "arrival_time": {"text": "4:06pm", "time_zone": "America/Chicago", "value": 1642025160}, "departure_stop": {"location": {"lat": 29.761851, "lng": -95.361029}, "name": "Preston NB"}, "departure_time": {"text": "3:54pm", "time_zone": "America/Chicago", "value": 1642024440}, "headsign": "Northline TC", "line": {"agencies": [{"name": "Metropolitan Transit Authority of Harris County", "phone": "1 (713) 635-4000", "url": "http://www.ridemetro.org/"}], "color": "#e60f33", "name": "Metrorail Red Line", "short_name": "Red", "text_color": "#ffffff", "url": "https://www.ridemetro.org/Pages/RedLine.aspx", "vehicle": {"icon": "//maps.gstatic.com/mapfiles/transit/iw2/6/tram2.png", "name": "Light rail", "type": "TRAM"}}, "num_stops": 6}, "travel_mode": "TRANSIT"}, {"distance": {"text": "374 ft", "value": 114}, "duration": {"text": "2 mins", "value": 132}, "end_location": {"lat": 29.80337, "lng": -95.3681249}, "html_instructions": "Walk to Cavalcade St @ Fulton St", "polyline": {"points": "}y{tDnraeQ]JYJ]NOHE@MFMD?Q@Q?O@Q?S"}, "start_location": {"lat": 29.8027124, "lng": -95.36824179999999}, "steps": [{"distance": {"text": "253 ft", "value": 77}, "duration": {"text": "1 min", "value": 75}, "end_location": {"lat": 29.8033907, "lng": -95.3684799}, "html_instructions": "Head <b>north</b> on <b>Fulton St</b> toward <b>Cavalcade St</b>", "polyline": {"points": "}y{tDnraeQ]JYJ]NOHE@MFMD?Q"}, "start_location": {"lat": 29.8027124, "lng": -95.36824179999999}, "travel_mode": "WALKING"}, {"distance": {"text": "121 ft", "value": 37}, "duration": {"text": "1 min", "value": 57}, "end_location": {"lat": 29.80337, "lng": -95.3681249}, "html_instructions": "Turn <b>right</b> onto <b>Cavalcade St</b>", "maneuver": "turn-right", "polyline": {"points": "e~{tD~saeQ@Q?O@Q?S"}, "start_location": {"lat": 29.8033907, "lng": -95.3684799}, "travel_mode": "WALKING"}], "travel_mode": "WALKING"}, {"distance": {"text": "5.2 mi", "value": 8421}, "duration": {"text": "19 mins", "value": 1120}, "end_location": {"lat": 29.80163, "lng": -95.454342}, "html_instructions": "Bus towards Memorial City", "polyline": {"points": "a~{tDvqaeQF@AV?LANAT?RAXCR?@CXQ|@Kf@Sz@ENOr@CRE\\Cb@KfCARCpAAv@AXCf@?DAT?LAHCfAAd@?D?lB?h@?VBjC?lB?x@@z@@fB?fD@fDE`BA|@?HA\\@V?lA@L?\\?x@?V@j@@t@?L?JB`@@T@NBN@N@V?f@@f@?`A?r@?L?xBAP?JALAPANIbAEb@?TAR?V?fH?p@@vD@xAC^C^CRA@ETC\\Af@?P?P?LA`@@\\BpA?^@j@?H@tA?n@?b@@b@?X?P?V@`A?v@@dA?V?vA@T?lB@jB@tA?XB|E?~A@zB@nB?V?V@t@?L?R?L@R?N?f@?h@@|@?\\?d@?b@@n@?pA@|B?d@?`@@t@?T?pA@v@@rA?v@@bD@~@?nA@H?tB@^@dC?P?j@@x@?x@?t@@P?dA@|A?\\?^@dC@zB?xA?N@V?fA@`ABfE?tABtJ?pB@rA?r@?H?|@?jB?@?j@@h@AL?\\?J@f@?|B?h@?|@?n@?N?|G?J@tE?d@@dC?p@AL@J?V@P@H?B?D@F@HBH@JDPDLDLDHDJDJHLFHFHLL?@TVTVn@v@NRh@h@NPVX^f@BJBFBFf@v@P`@DZDVBT@F?D@F?H?P@P?X?N?F?j@@pAIpB@f@?V?fA?j@?V@h@AjA?h@@~@?b@@^Af@@d@?X?bA?jA?b@@nC?J?d@Aj@?v@?P@dB?jA?bC?`A?\\@dH?`D?dC@fE?jD?T@`F@vB?jD?vC?X?`E@V@zCAb@?fAAX@fB@fA?T@|B?l@A~A?x@?XAzB?`A?dB?l@?P?F?H@^?Z?@?H?@?Z?h@?f@?j@?^?t@@j@BnAAV@|@@fB?bBG?"}, "start_location": {"lat": 29.803368, "lng": -95.368125}, "transit_details": {"arrival_stop": {"location": {"lat": 29.80163, "lng": -95.454342}, "name": "W 18th St @ Northwest Fwy"}, "arrival_time": {"text": "4:33pm", "time_zone": "America/Chicago", "value": 1642026820}, "departure_stop": {"location": {"lat": 29.803368, "lng": -95.368125}, "name": "Cavalcade St @ Fulton St"}, "departure_time": {"text": "4:15pm", "time_zone": "America/Chicago", "value": 1642025700}, "headsign": "Memorial City", "line": {"agencies": [{"name": "Metropolitan Transit Authority of Harris County", "phone": "1 (713) 635-4000", "url": "http://www.ridemetro.org/"}], "color": "#004080", "name": "Long Point / Cavalcade", "short_name": "26", "text_color": "#ffffff", "url": "https://www.ridemetro.org/MetroPDFs/Schedules/BusSchedules/n026-Long-Point-Cavalcade.pdf", "vehicle": {"icon": "//maps.gstatic.com/mapfiles/transit/iw2/6/bus2.png", "name": "Bus", "type": "BUS"}}, "num_stops": 31, "trip_short_name": "LONGPOINT"}, "travel_mode": "TRANSIT"}, {"distance": {"text": "322 ft", "value": 98}, "duration": {"text": "1 min", "value": 77}, "end_location": {"lat": 29.8019199, "lng": -95.45428179999999}, "html_instructions": "Walk to 4400 W 18th St, Houston, TX 77092, USA", "polyline": {"points": "es{tDrlreQ?z@YEc@E?G@Q@a@"}, "start_location": {"lat": 29.8016264, "lng": -95.454342}, "steps": [{"distance": {"text": "95 ft", "value": 29}, "duration": {"text": "1 min", "value": 22}, "end_location": {"lat": 29.8016252, "lng": -95.45463819999999}, "html_instructions": "Head <b>west</b> on <b>W 18th St</b>/<wbr/><b>NW Mall</b>", "polyline": {"points": "es{tDrlreQ?z@"}, "start_location": {"lat": 29.8016264, "lng": -95.454342}, "travel_mode": "WALKING"}, {"distance": {"text": "131 ft", "value": 40}, "duration": {"text": "1 min", "value": 33}, "end_location": {"lat": 29.8019405, "lng": -95.4545788}, "html_instructions": "Turn <b>right</b><div style=\"font-size:0.9em\">Restricted usage road</div>", "maneuver": "turn-right", "polyline": {"points": "es{tDnnreQYEc@E"}, "start_location": {"lat": 29.8016252, "lng": -95.45463819999999}, "travel_mode": "WALKING"}, {"distance": {"text": "95 ft", "value": 29}, "duration": {"text": "1 min", "value": 22}, "end_location": {"lat": 29.8019199, "lng": -95.45428179999999}, "html_instructions": "Turn <b>right</b><div style=\"font-size:0.9em\">Restricted usage road</div><div style=\"font-size:0.9em\">Destination will be on the left</div>", "maneuver": "turn-right", "polyline": {"points": "cu{tDbnreQ?G@Q@a@"}, "start_location": {"lat": 29.8019405, "lng": -95.4545788}, "travel_mode": "WALKING"}], "travel_mode": "WALKING"}], "traffic_speed_entry": [], "via_waypoint": []}], "overview_polyline": {"points": "}~ntD`crdQoA`GaDeAADBK`DbAxCz@u@pDaCpLa@dBe@|Am@hCeA`F{BhKmCtLgE~RwK|f@qHr]sHv]{D~QkDrPoBhJcCbLiAnFcAfFsBtJg@dB]h@YZcAdAyBdEuBbEgFdKyBhEwInPqGbMIFQXeCvEq@tA_AdBM^N\\^dAxB`H\\bAXdB@r@AVEPQ`@Ub@c@t@MVEVc@~@MXg@~@rCvBeBlDiErIoEtIiBjDgD~GmBnDQXGGDCIPGL@CEFJH`@Xh@ZEFmA}@sCsByCyBgAm@gAa@}@S}@[q@MgDq@_@GwBa@iBSeAS{@Ki@Aa@@_@DaCh@i@No@Ja@Fu@PaB\\iAVo@R_Br@uBz@sAl@_@T{@j@gAt@s@ZyLtEwDvAeDlAk@\\s@Xm@L}DvAiHnCiJlDi@LYAYIUQKOqAyEcCoJCqAE]KYIK[U[I_BQ}CYmBQiFUaECc@B_CE{@@[FyFrCcDdBWTUXyBxDgBlCaFxGy@`AeDzEeAbBgB`C[X[P_@La@DeD?yB@qCHyOESBwA`@F\\w@VaAb@MD?Q@a@@e@F@EjAEbAUvA_@bBUbAIp@OjDEdBG~BGtBAbEBjIDrNIfEFdIDpAFn@BfB?|FE|@QlCAdKBpGG~@OhAAxABpDBzDDjIHlTHxU\\~aAJv\\BrK?tJ@zVD~@BZPt@Vn@f@n@zAhBhAnAv@`AFRj@~@V|@Jz@BrC@pAIpB@~@@tDAtB@bB@fC?xMBnZ@nOBxI?bIBnKAlFBhGCnH@tH?fEBhEBdD?bBG??z@}@KB{@"}, "summary": "", "warnings": ["Walking directions are in beta. Use caution \u2013 This route may be missing sidewalks or pedestrian paths."], "waypoint_order": []}, {"bounds": {"northeast": {"lat": 29.8026478, "lng": -95.2889726}, "southwest": {"lat": 29.7365701, "lng": -95.4593211}}, "copyrights": "Map data \u00a92022", "legs": [{"arrival_time": {"text": "4:35pm", "time_zone": "America/Chicago", "value": 1642026935}, "departure_time": {"text": "3:19pm", "time_zone": "America/Chicago", "value": 1642022379}, "distance": {"text": "14.0 mi", "value": 22492}, "duration": {"text": "1 hour 16 mins", "value": 4556}, "end_address": "4400 W 18th St, Houston, TX 77092, USA", "end_location": {"lat": 29.8019199, "lng": -95.45428179999999}, "start_address": "7521 Avenue H, Houston, TX 77012, USA", "start_location": {"lat": 29.7369546, "lng": -95.2889726}, "steps": [{"distance": {"text": "0.1 mi", "value": 224}, "duration": {"text": "3 mins", "value": 177}, "end_location": {"lat": 29.7381588, "lng": -95.28991459999999}, "html_instructions": "Walk to 75th St @ Avenue I", "polyline": {"points": "}~ntD`crdQkApFCNaCw@_@M"}, "start_location": {"lat": 29.7369546, "lng": -95.2889726}, "steps": [{"distance": {"text": "420 ft", "value": 128}, "duration": {"text": "2 mins", "value": 95}, "end_location": {"lat": 29.7373522, "lng": -95.2902616}, "html_instructions": "Head <b>west</b> on <b>Avenue H</b> toward <b>75th St</b>", "polyline": {"points": "}~ntD`crdQkApFCN"}, "start_location": {"lat": 29.7369546, "lng": -95.2889726}, "travel_mode": "WALKING"}, {"distance": {"text": "315 ft", "value": 96}, "duration": {"text": "1 min", "value": 82}, "end_location": {"lat": 29.7381588, "lng": -95.28991459999999}, "html_instructions": "Turn <b>right</b> onto <b>75th St</b>", "maneuver": "turn-right", "polyline": {"points": "maotDbkrdQaCw@_@M"}, "start_location": {"lat": 29.7373522, "lng": -95.2902616}, "travel_mode": "WALKING"}], "travel_mode": "WALKING"}, {"distance": {"text": "5.2 mi", "value": 8397}, "duration": {"text": "25 mins", "value": 1524}, "end_location": {"lat": 29.76296, "lng": -95.365387}, "html_instructions": "Bus towards Bellaire TC", "polyline": {"points": "qfotDbirdQBK^J`Cv@p@RXHd@Lf@NI^_@lBEPEPw@xDGXe@~B[|AMh@Sz@KZY`Ac@fBABAHERG\\IXMp@e@vBcAzEMj@[tAMj@g@xBkAhFI^Op@ETS|@yAbHELETKf@Sz@g@~BKb@I^S~@CHGXMj@YnAgA`FCLIb@]xAGXoAzFER}A`HI^GZCJERABAFKd@On@k@lCKh@g@xBS`AiAlFGXs@dDER{@tDMp@k@lCs@dDGTw@vD{@`EMj@i@fCKb@g@hCWjAMn@GTe@vBI^g@~BCPGVe@zBUfAWjAa@tBABi@lCK`@I^CLENCHWnAI`@_@dBUfAMr@ABGVk@dCCLEP_@fBKh@CLYnAUlAKf@EV[xAS|@[|ACJKb@]`BG\\Mh@Mj@CHM\\GPQZKLKLMLCBKJSP_@b@Wb@AB[l@cAnBIPIL{AtCELoAbCOXy@bBmAbCKP?@GLCDWf@[l@INc@z@Yh@IP{AtCaAjB[j@OXaB|CGLyArCwArCkAzBS^A@GDOTABYf@a@t@g@`Aa@v@IROZILMVQZGLGJ]n@M^N\\N^Nd@^hA|@pCNd@J^@BZ~@Nl@Hv@@V?ZAVEPGLIRA@S`@U^MTMVEV]v@EFEHGNKP[l@hAz@hAz@m@nAc@z@ABQ\\y@`Be@|@CFw@zAKREJKPO\\U`@KPSb@OVe@~@o@nAe@~@MTw@zAGJa@x@GHqAnCQ^OXs@tACH]l@MT}@`BQXINABEFABCFWf@k@lA_@r@ADOXA@EJOZKR]n@OZa@v@MVs@xAa@v@k@dAINIJJR`@h@FFtAbAbCfBGL"}, "start_location": {"lat": 29.738167, "lng": -95.289941}, "transit_details": {"arrival_stop": {"location": {"lat": 29.76296, "lng": -95.365387}, "name": "Smith St @ Prairie St"}, "arrival_time": {"text": "3:48pm", "time_zone": "America/Chicago", "value": 1642024080}, "departure_stop": {"location": {"lat": 29.738167, "lng": -95.289941}, "name": "75th St @ Avenue I"}, "departure_time": {"text": "3:22pm", "time_zone": "America/Chicago", "value": 1642022556}, "headsign": "Bellaire TC", "line": {"agencies": [{"name": "Metropolitan Transit Authority of Harris County", "phone": "1 (713) 635-4000", "url": "http://www.ridemetro.org/"}], "color": "#004080", "name": "Canal / Memorial", "short_name": "20", "text_color": "#ffffff", "url": "https://www.ridemetro.org/MetroPDFs/Schedules/BusSchedules/n020-Canal-Memorial.pdf", "vehicle": {"icon": "//maps.gstatic.com/mapfiles/transit/iw2/6/bus2.png", "name": "Bus", "type": "BUS"}}, "num_stops": 39, "trip_short_name": "CANALMEM"}, "travel_mode": "TRANSIT"}, {"distance": {"text": "436 ft", "value": 133}, "duration": {"text": "2 mins", "value": 126}, "end_location": {"lat": 29.7621626, "lng": -95.36456489999999}, "html_instructions": "Walk to Louisiana St @ Prairie St", "polyline": {"points": "kattDn`aeQHFJFFMvAoCHSDMTN"}, "start_location": {"lat": 29.7629423, "lng": -95.3653571}, "steps": [{"distance": {"text": "36 ft", "value": 11}, "duration": {"text": "1 min", "value": 8}, "end_location": {"lat": 29.7627891, "lng": -95.3653745}, "html_instructions": "Head <b>southwest</b> on <b>Smith St</b> toward <b>Prairie St</b>", "polyline": {"points": "kattDn`aeQHFJFFM"}, "start_location": {"lat": 29.7629423, "lng": -95.3653571}, "travel_mode": "WALKING"}, {"distance": {"text": "341 ft", "value": 104}, "duration": {"text": "2 mins", "value": 95}, "end_location": {"lat": 29.7622658, "lng": -95.3644813}, "html_instructions": "Turn <b>left</b> onto <b>Prairie St</b>", "maneuver": "turn-left", "polyline": {"points": "m`ttDp`aeQvAoCHSDM"}, "start_location": {"lat": 29.7627891, "lng": -95.3653745}, "travel_mode": "WALKING"}, {"distance": {"text": "59 ft", "value": 18}, "duration": {"text": "1 min", "value": 23}, "end_location": {"lat": 29.7621626, "lng": -95.36456489999999}, "html_instructions": "Turn <b>right</b> onto <b>Louisiana St</b>", "maneuver": "turn-right", "polyline": {"points": "e}stD~z`eQTN"}, "start_location": {"lat": 29.7622658, "lng": -95.3644813}, "travel_mode": "WALKING"}], "travel_mode": "WALKING"}, {"distance": {"text": "8.1 mi", "value": 13000}, "duration": {"text": "31 mins", "value": 1848}, "end_location": {"lat": 29.801027, "lng": -95.45922999999999}, "html_instructions": "Bus towards SH 249", "polyline": {"points": "k|stDh{`eQGL[UqCqBAAqCqBa@v@k@dAINIJGHA@A@GJGDC@C@C@E?M?C?Q?M?ICIEAAEGC\\SdBGd@E^O`A?BM|@M|@EZOjAALGX?@?@CJALGl@?@A@?BAHAJAHShAETCJEPCHCLGVWdAKXQh@O`@GTGLS^IPS\\AB}@~AGFADABMv@EV?@OfAOnAEXAPGd@Gn@?XGrACb@Cr@Ev@ALEp@AVEv@ALGrAEt@G~@?BGdAATGlACj@ItACb@AT?TAFG`AATCb@GzAGtAMfCANGfA?DKtBAHMfCEbAANALCr@AVAr@Al@?d@CrAAx@Cx@?NCzBAJAz@Cv@GnAQvCEz@EbAM~B?HAp@C|@GjCCj@MtFGHAB?BALCb@Af@?R?TA`@A`@ARGt@AVGp@AXGz@KtBCZ?B?@@D?B@D@FGlACd@A`@GtACZA\\KfBG|@Ez@C`@C\\A`@El@El@Cb@CZCf@Cd@AREp@APIzACXANATALANAHC\\AZATC\\A`@IbBEp@ALCp@GfAG~@G~@Cj@AXCVAL?BCd@AL?NCl@Cd@El@Ab@Ev@ANMxCCXAXAXQtCCl@?z@@dA?|A@d@?~B@d@?N?zA?P?N@d@?b@?X?\\?^?X?N?j@?b@@`@?t@@j@?j@?N@`@?z@@dC?V@h@?RARAr@AJ?NAP?RCZAV?FCxA?XExACpAClACnAAj@CvAC|@?NA`@Ab@GxAAVIhAI|BEf@KnDEv@Cv@EpAGlACz@?DA`@APCvAAPCDABCHC`AAPAF@JC@A@A@A@A@A@?@CBc@FKDG@C?IBC@C@C@C@A@EBMLwAlAc@\\sAhA_Av@MJa@^sBbB_Av@QLq@h@IHKHOLw@p@w@n@]Z_@ZSPGFIFaAz@EBe@b@QRUVY\\q@~@s@`AOPGF?@o@v@?@CB}@hAQPKNYd@c@|@ILg@bAU`@IPA@S`@g@bAw@zAq@rA}AxCkA|Bc@v@IPYh@Uf@IP?`@?DCHI\\I`@I`@CVATARA^?\\Ar@?^@`@@@?b@?@@^@hB?f@?XCjA?D?XCXCZEVId@Ot@Ot@GVUfAAD{@`E?@Mj@?@K^[|AMn@Sx@On@I`@I^[xAGZMn@Mh@Kf@Qx@Qr@_@rBg@`DKl@Gd@CXMdA?BALGj@CXCVCXE`@IfAMzBE|AAr@AXC?Ar@CbDAjCCpF@l@@v@AzG~@@X?V?Z^?r@Ap@?bAAtA?R?d@?XEAw@B?u@@S?_@AcA@cA@w@@k@ZA^@DA`AAN??H?P?f@?j@?l@?d@JCF@D?DABA@CDIDSB[@g@BUBM@AN]FGJY@K?MCUCKCCA?OGQAGAE?E@GDQJOPMD[BY@W?aAAY@c@?AVAzAAb@?f@?L?ZAn@?`B?R?f@sBNO@Q@Y?W?K@wA@y@@K?u@?wA@U?O?}@@I?Y?_@?_@@oA@oD@eABM?A?a@?c@?qA@W?w@?cA@s@?c@@_@?uA@a@?OAY?q@@c@?_@?[@cA@a@?U?G?C?E?]@S?S@]@c@?}@@M?w@@]?mA@_B@W?E?e@Aa@EQEWG[OUM[QIG_@Ui@i@e@_@OQQQOMCCc@a@MR{A|BU\\W`@sBtCg@z@a@L{@vA]b@Sd@w@lAYh@OQ"}, "start_location": {"lat": 29.762139, "lng": -95.364532}, "transit_details": {"arrival_stop": {"location": {"lat": 29.801027, "lng": -95.45922999999999}, "name": "Hempstead Rd @ W 18th St"}, "arrival_time": {"text": "4:25pm", "time_zone": "America/Chicago", "value": 1642026348}, "departure_stop": {"location": {"lat": 29.762139, "lng": -95.364532}, "name": "Louisiana St @ Prairie St"}, "departure_time": {"text": "3:55pm", "time_zone": "America/Chicago", "value": 1642024500}, "headsign": "SH 249", "line": {"agencies": [{"name": "Metropolitan Transit Authority of Harris County", "phone": "1 (713) 635-4000", "url": "http://www.ridemetro.org/"}], "color": "#004080", "name": "Antoine / Washington", "short_name": "85", "text_color": "#ffffff", "url": "https://www.ridemetro.org/MetroPDFs/Schedules/BusSchedules/n085-Antoine-Washington.pdf", "vehicle": {"icon": "//maps.gstatic.com/mapfiles/transit/iw2/6/bus2.png", "name": "Bus", "type": "BUS"}}, "num_stops": 43, "trip_short_name": "ANTOINWAS"}, "travel_mode": "TRANSIT"}, {"distance": {"text": "0.5 mi", "value": 738}, "duration": {"text": "10 mins", "value": 587}, "end_location": {"lat": 29.8019199, "lng": -95.45428179999999}, "html_instructions": "Walk to 4400 W 18th St, Houston, TX 77092, USA", "polyline": {"points": "mo{tDdkseQKPKKKAK?I@IB?Q?aA?M?QAO?OM?M@M?mED@[Ae@?g@ASDKP]d@}@Xq@B]QOIIOMEKKAQUGGEIAE?C?A@C@EBEV_@KMNWHMJSRa@Ts@R}@Jy@Hy@?G@Q@a@"}, "start_location": {"lat": 29.8010254, "lng": -95.4592253}, "steps": [{"distance": {"text": "49 ft", "value": 15}, "duration": {"text": "1 min", "value": 11}, "end_location": {"lat": 29.8011512, "lng": -95.4592626}, "html_instructions": "Head <b>northwest</b>", "polyline": {"points": "mo{tDdkseQKPKK"}, "start_location": {"lat": 29.8010254, "lng": -95.4592253}, "travel_mode": "WALKING"}, {"distance": {"text": "102 ft", "value": 31}, "duration": {"text": "1 min", "value": 23}, "end_location": {"lat": 29.8013705, "lng": -95.4592806}, "html_instructions": "Turn <b>right</b> toward <b>W 18th St</b>", "maneuver": "turn-right", "polyline": {"points": "ep{tDjkseQKAK?I@IB"}, "start_location": {"lat": 29.8011512, "lng": -95.4592626}, "travel_mode": "WALKING"}, {"distance": {"text": "240 ft", "value": 73}, "duration": {"text": "1 min", "value": 61}, "end_location": {"lat": 29.8014508, "lng": -95.4585436}, "html_instructions": "Turn <b>right</b> onto <b>W 18th St</b>", "maneuver": "turn-right", "polyline": {"points": "qq{tDnkseQ?Q?aA?M?QAO?OM?"}, "start_location": {"lat": 29.8013705, "lng": -95.4592806}, "travel_mode": "WALKING"}, {"distance": {"text": "440 ft", "value": 134}, "duration": {"text": "2 mins", "value": 127}, "end_location": {"lat": 29.80261729999999, "lng": -95.45858140000001}, "html_instructions": "Turn <b>left</b> onto <b>Mangum Rd</b>", "maneuver": "turn-left", "polyline": {"points": "ar{tDzfseQM@M?mED"}, "start_location": {"lat": 29.8014508, "lng": -95.4585436}, "travel_mode": "WALKING"}, {"distance": {"text": "0.1 mi", "value": 168}, "duration": {"text": "2 mins", "value": 133}, "end_location": {"lat": 29.8021725, "lng": -95.45703209999999}, "html_instructions": "Turn <b>right</b>", "maneuver": "turn-right", "polyline": {"points": "ky{tDbgseQ@[Ae@?g@ASDKP]d@}@Xq@B]"}, "start_location": {"lat": 29.80261729999999, "lng": -95.45858140000001}, "travel_mode": "WALKING"}, {"distance": {"text": "348 ft", "value": 106}, "duration": {"text": "1 min", "value": 80}, "end_location": {"lat": 29.8024852, "lng": -95.4562641}, "html_instructions": "Turn <b>left</b><div style=\"font-size:0.9em\">Partial restricted usage road</div>", "maneuver": "turn-left", "polyline": {"points": "qv{tDl}reQQOIIOMEKKAQUGGEIAE?C?A@C@EBEV_@"}, "start_location": {"lat": 29.8021725, "lng": -95.45703209999999}, "travel_mode": "WALKING"}, {"distance": {"text": "33 ft", "value": 10}, "duration": {"text": "1 min", "value": 8}, "end_location": {"lat": 29.8025494, "lng": -95.456192}, "html_instructions": "Turn <b>left</b><div style=\"font-size:0.9em\">Restricted usage road</div>", "maneuver": "turn-left", "polyline": {"points": "qx{tDrxreQKM"}, "start_location": {"lat": 29.8024852, "lng": -95.4562641}, "travel_mode": "WALKING"}, {"distance": {"text": "0.1 mi", "value": 201}, "duration": {"text": "2 mins", "value": 144}, "end_location": {"lat": 29.8019199, "lng": -95.45428179999999}, "html_instructions": "Turn <b>right</b><div style=\"font-size:0.9em\">Restricted usage road</div><div style=\"font-size:0.9em\">Destination will be on the left</div>", "maneuver": "turn-right", "polyline": {"points": "}x{tDdxreQNWHMJSRa@Ts@R}@Jy@Hy@?G@Q@a@"}, "start_location": {"lat": 29.8025494, "lng": -95.456192}, "travel_mode": "WALKING"}], "travel_mode": "WALKING"}], "traffic_speed_entry": [], "via_waypoint": []}], "overview_polyline": {"points": "}~ntD`crdQoA`GaDeAADBK`DbAxCz@u@pDaCpLa@dBe@|Am@hCeA`F{BhKmCtLgE~RwK|f@qHr]sHv]{D~QkDrPoBhJcCbLiAnFcAfFsBtJg@dB]h@YZcAdAyBdEuBbEgFdKyBhEwInPqGbMIFQXeCvEq@tA_AdBM^N\\^dAxB`H\\bAXdB@r@AVEPQ`@Ub@c@t@MVEVc@~@MXg@~@rCvBeBlDiErIoEtIiBjDgD~GqCdF}BvEsDpHmA|BSZJR`@h@|AjAbCfBGLBEHFJFFM`BcDDMTNBEGLmDgCsCsBmA|BSZSXSJi@?WCKGEGC\\[jCc@bDe@rDUdBAFYhBS|@o@dCq@nBs@rAeAfBCHc@xC_@`DGn@GlBO|COnCk@bL_@hH_@hIUlEWhFIlDQ`Mc@zIU~F]jNILAPEtBCbAIhAS~COvCDVUjFi@|J}@dO_@rHg@dJiA`VFtVB~GBzFAdCMvE[dPKnD[fGi@bPEhBEVELErA?REBGFCDo@LYFMFoC|BcElDsDzCcAv@}ArAiCxByAnAw@v@o@t@}BzCs@~@{AjBoBtDeHdNsCpF_@x@?f@a@jBI`B?rCBfA@pCCdB?^Gt@o@hD{AfHgBfIqBrJq@fDs@nEYhCQjBIz@WbEGpCAXC?EvEE|JBdBAzG~@@p@?Z^?r@AtBAhB?~@EAw@B@iAAcBB{B@k@ZAd@?pAA?nB?rARAPGJ]DcAFc@P_@Ra@@YGa@ECOGQAMAMFa@\\MD[Bq@@{A?c@?AVC~B?t@A`E?f@sBNa@BuCBaIDoLHcKDwH@gEDkGFkEBgAGi@MwAw@_@Ui@i@u@q@iAeAwCpEsBtCg@z@a@L{@vA]b@Sd@qAvBOQKPKKWASD?sBA_@[@{ED?aAA{@Vi@~@oBB]QOYWEKKAY]GOBOZe@KMNWTa@Ra@Ts@R}@TsBB{@"}, "summary": "", "warnings": ["Walking directions are in beta. Use caution \u2013 This route may be missing sidewalks or pedestrian paths."], "waypoint_order": []}, {"bounds": {"northeast": {"lat": 29.803869, "lng": -95.2889726}, "southwest": {"lat": 29.7365701, "lng": -95.45463819999999}}, "copyrights": "Map data \u00a92022", "legs": [{"arrival_time": {"text": "4:34pm", "time_zone": "America/Chicago", "value": 1642026897}, "departure_time": {"text": "3:19pm", "time_zone": "America/Chicago", "value": 1642022379}, "distance": {"text": "13.7 mi", "value": 22127}, "duration": {"text": "1 hour 15 mins", "value": 4518}, "end_address": "4400 W 18th St, Houston, TX 77092, USA", "end_location": {"lat": 29.8019199, "lng": -95.45428179999999}, "start_address": "7521 Avenue H, Houston, TX 77012, USA", "start_location": {"lat": 29.7369546, "lng": -95.2889726}, "steps": [{"distance": {"text": "0.1 mi", "value": 224}, "duration": {"text": "3 mins", "value": 177}, "end_location": {"lat": 29.7381588, "lng": -95.28991459999999}, "html_instructions": "Walk to 75th St @ Avenue I", "polyline": {"points": "}~ntD`crdQkApFCNaCw@_@M"}, "start_location": {"lat": 29.7369546, "lng": -95.2889726}, "steps": [{"distance": {"text": "420 ft", "value": 128}, "duration": {"text": "2 mins", "value": 95}, "end_location": {"lat": 29.7373522, "lng": -95.2902616}, "html_instructions": "Head <b>west</b> on <b>Avenue H</b> toward <b>75th St</b>", "polyline": {"points": "}~ntD`crdQkApFCN"}, "start_location": {"lat": 29.7369546, "lng": -95.2889726}, "travel_mode": "WALKING"}, {"distance": {"text": "315 ft", "value": 96}, "duration": {"text": "1 min", "value": 82}, "end_location": {"lat": 29.7381588, "lng": -95.28991459999999}, "html_instructions": "Turn <b>right</b> onto <b>75th St</b>", "maneuver": "turn-right", "polyline": {"points": "maotDbkrdQaCw@_@M"}, "start_location": {"lat": 29.7373522, "lng": -95.2902616}, "travel_mode": "WALKING"}], "travel_mode": "WALKING"}, {"distance": {"text": "7.8 mi", "value": 12497}, "duration": {"text": "29 mins", "value": 1752}, "end_location": {"lat": 29.761866, "lng": -95.406261}, "html_instructions": "Bus towards Bellaire TC", "polyline": {"points": "qfotDbirdQBK^J`Cv@p@RXHd@Lf@NI^_@lBEPEPw@xDGXe@~B[|AMh@Sz@KZY`Ac@fBABAHERG\\IXMp@e@vBcAzEMj@[tAMj@g@xBkAhFI^Op@ETS|@yAbHELETKf@Sz@g@~BKb@I^S~@CHGXMj@YnAgA`FCLIb@]xAGXoAzFER}A`HI^GZCJERABAFKd@On@k@lCKh@g@xBS`AiAlFGXs@dDER{@tDMp@k@lCs@dDGTw@vD{@`EMj@i@fCKb@g@hCWjAMn@GTe@vBI^g@~BCPGVe@zBUfAWjAa@tBABi@lCK`@I^CLENCHWnAI`@_@dBUfAMr@ABGVk@dCCLEP_@fBKh@CLYnAUlAKf@EV[xAS|@[|ACJKb@]`BG\\Mh@Mj@CHM\\GPQZKLKLMLCBKJSP_@b@Wb@AB[l@cAnBIPIL{AtCELoAbCOXy@bBmAbCKP?@GLCDWf@[l@INc@z@Yh@IP{AtCaAjB[j@OXaB|CGLyArCwArCkAzBS^A@GDOTABYf@a@t@g@`Aa@v@IROZILMVQZGLGJ]n@M^N\\N^Nd@^hA|@pCNd@J^@BZ~@Nl@Hv@@V?ZAVEPGLIRA@S`@U^MTMVEV]v@EFEHGNKP[l@hAz@hAz@m@nAc@z@ABQ\\y@`Be@|@CFw@zAKREJKPO\\U`@KPSb@OVe@~@o@nAe@~@MTw@zAGJa@x@GHqAnCQ^OXs@tACH]l@MT}@`BQXINABEFABCFWf@k@lA_@r@ADOXA@EJOZKR]n@OZa@v@MVs@xAa@v@k@dAINIJJR`@h@FFtAbAbCfBNL{@nBKRQf@Mb@CLI^G\\AREb@CT?LAJGh@Ch@CZAJALMzACVCZA`@EXALCVCXCVAZA^AZ?@@d@?v@@l@?H?D@p@?H?@?j@BxB?@?Z?B?P?@@Z?F?J?V?B?V@L?|@@R?h@@zB@zB@~C?j@?f@BhAFdDBn@HhEFzAB\\B\\Hr@Jt@Lr@Nr@BJBJHZ?@Pp@`@xANj@Nh@?@@DRr@DPFPHXHVLf@Pr@H^F\\D`@BPDd@Fz@@LBp@BfAHdC@d@?N@p@?B?tB?XAV?TC^APEjACRIt@Gr@Il@Mv@?DI`@?@Or@Op@Ol@W`AQl@GZMt@?DIf@Kz@Gz@Ad@?HATALAt@CZC`@AFEh@AB?B?DEX?B?@CJE^CHI^YxAWpACJg@lDe@zCU~AGp@C^Cd@AFAXAN?TAh@@`@?X@`@@N?LBZ@H@XBPBZJv@T`ABJBJ?BJ\\\\`AJXh@zAN`@@BL^n@fBVr@HVPd@\\~@JTRh@Vn@JTTv@R|@BJ@BH^@DLp@DXD\\BTD^@J@FHjAIj@Ar@?HAjC@z@I?"}, "start_location": {"lat": 29.738167, "lng": -95.289941}, "transit_details": {"arrival_stop": {"location": {"lat": 29.761866, "lng": -95.406261}, "name": "Memorial Dr @ Bayou Park Village"}, "arrival_time": {"text": "3:51pm", "time_zone": "America/Chicago", "value": 1642024308}, "departure_stop": {"location": {"lat": 29.738167, "lng": -95.289941}, "name": "75th St @ Avenue I"}, "departure_time": {"text": "3:22pm", "time_zone": "America/Chicago", "value": 1642022556}, "headsign": "Bellaire TC", "line": {"agencies": [{"name": "Metropolitan Transit Authority of Harris County", "phone": "1 (713) 635-4000", "url": "http://www.ridemetro.org/"}], "color": "#004080", "name": "Canal / Memorial", "short_name": "20", "text_color": "#ffffff", "url": "https://www.ridemetro.org/MetroPDFs/Schedules/BusSchedules/n020-Canal-Memorial.pdf", "vehicle": {"icon": "//maps.gstatic.com/mapfiles/transit/iw2/6/bus2.png", "name": "Bus", "type": "BUS"}}, "num_stops": 40, "trip_short_name": "CANALMEM"}, "travel_mode": "TRANSIT"}, {"distance": {"text": "0.2 mi", "value": 274}, "duration": {"text": "3 mins", "value": 204}, "end_location": {"lat": 29.7622786, "lng": -95.4086932}, "html_instructions": "Walk to Shepherd Dr @ Memorial Dr", "polyline": {"points": "szstDb`ieQ@T?z@?V?No@@?fHEf@SPEDE@"}, "start_location": {"lat": 29.7618573, "lng": -95.4062603}, "steps": [{"distance": {"text": "180 ft", "value": 55}, "duration": {"text": "1 min", "value": 42}, "end_location": {"lat": 29.7618458, "lng": -95.4068748}, "html_instructions": "Head <b>west</b> on <b>Memorial Dr</b>", "polyline": {"points": "szstDb`ieQ@T?z@?V?N"}, "start_location": {"lat": 29.7618573, "lng": -95.4062603}, "travel_mode": "WALKING"}, {"distance": {"text": "102 ft", "value": 31}, "duration": {"text": "1 min", "value": 24}, "end_location": {"lat": 29.76208579999999, "lng": -95.4068793}, "html_instructions": "Turn <b>right</b>", "maneuver": "turn-right", "polyline": {"points": "qzstD|cieQo@@"}, "start_location": {"lat": 29.7618458, "lng": -95.4068748}, "travel_mode": "WALKING"}, {"distance": {"text": "0.1 mi", "value": 188}, "duration": {"text": "2 mins", "value": 138}, "end_location": {"lat": 29.7622786, "lng": -95.4086932}, "html_instructions": "Turn <b>left</b><div style=\"font-size:0.9em\">Destination will be on the left</div>", "maneuver": "turn-left", "polyline": {"points": "a|stD~cieQ?fHEf@SPEDE@"}, "start_location": {"lat": 29.76208579999999, "lng": -95.4068793}, "travel_mode": "WALKING"}], "travel_mode": "WALKING"}, {"distance": {"text": "2.9 mi", "value": 4633}, "duration": {"text": "10 mins", "value": 574}, "end_location": {"lat": 29.803613, "lng": -95.41008699999999}, "html_instructions": "Bus towards N Shepherd P&R", "polyline": {"points": "}|stDfpieQ@Jc@HG@YD_@HeAPKBw@TgABW?C?W?k@@_A@K?[@SBe@Dc@@SBa@?eA@[?M?eA@c@?e@?]?_@@Y?k@?M?qCBg@?Q?M@U?e@?M?qCB]?w@@_@?E@W?e@?mB@gA?k@@]?qB@c@@a@CE@e@@m@?S@kA?cA@aCBM?oC@eA@oA@Y?[?O?a@Bm@?U?o@?e@@I?A?A?y@?M@YAS@O?_@@w@@y@?]?M?YAMAMCOEYIIAa@Kc@Ku@QGACAm@MAAOCIAK?OAM?M?A?I?O?S@M@IBc@Jq@P}@Vg@Jk@Ji@Hc@Be@DE?c@Bs@ByABA?oCBYA}B@I?A?q@@K?E?k@?C?O@u@?S?k@@w@@K?a@?O?[@U?U?U?k@@k@?Y@C?I?S?kC@y@@K?W@[?S?A?W?G?U@S?c@?e@@O?E?[?mCBeA@U?Y?S?U@A?S?aA@_@?e@@Q?S?U?s@?C?W?qB@sB@eBBg@?oBBaGBq@@w@?aB@i@@W@_B@yA@aB@Q?qD@U@gB?eB@eBA_A@?K"}, "start_location": {"lat": 29.762233, "lng": -95.40884199999999}, "transit_details": {"arrival_stop": {"location": {"lat": 29.803613, "lng": -95.41008699999999}, "name": "N Shepherd Dr @ W 20th St"}, "arrival_time": {"text": "4:14pm", "time_zone": "America/Chicago", "value": 1642025640}, "departure_stop": {"location": {"lat": 29.762233, "lng": -95.40884199999999}, "name": "Shepherd Dr @ Memorial Dr"}, "departure_time": {"text": "4:04pm", "time_zone": "America/Chicago", "value": 1642025066}, "headsign": "N Shepherd P&R", "line": {"agencies": [{"name": "Metropolitan Transit Authority of Harris County", "phone": "1 (713) 635-4000", "url": "http://www.ridemetro.org/"}], "color": "#004080", "name": "Shepherd", "short_name": "27", "text_color": "#ffffff", "url": "https://www.ridemetro.org/MetroPDFs/Schedules/BusSchedules/n027-Shepherd.pdf", "vehicle": {"icon": "//maps.gstatic.com/mapfiles/transit/iw2/6/bus2.png", "name": "Bus", "type": "BUS"}}, "num_stops": 20, "trip_short_name": "SHEPHERD"}, "travel_mode": "TRANSIT"}, {"distance": {"text": "112 ft", "value": 34}, "duration": {"text": "1 min", "value": 34}, "end_location": {"lat": 29.803842, "lng": -95.41002979999999}, "html_instructions": "Walk to W 20th St @ N Shepherd Dr", "polyline": {"points": "q_|tDdxieQ_@@M??Q"}, "start_location": {"lat": 29.8036121, "lng": -95.410111}, "steps": [{"distance": {"text": "69 ft", "value": 21}, "duration": {"text": "1 min", "value": 15}, "end_location": {"lat": 29.8038391, "lng": -95.4101207}, "html_instructions": "Head <b>north</b> on <b>N Shepherd Dr</b> toward <b>W 20th St</b>", "polyline": {"points": "q_|tDdxieQ_@@M?"}, "start_location": {"lat": 29.8036121, "lng": -95.410111}, "travel_mode": "WALKING"}, {"distance": {"text": "43 ft", "value": 13}, "duration": {"text": "1 min", "value": 19}, "end_location": {"lat": 29.803842, "lng": -95.41002979999999}, "html_instructions": "Turn <b>right</b> onto <b>W 20th St</b>", "maneuver": "turn-right", "polyline": {"points": "_a|tDfxieQ?Q"}, "start_location": {"lat": 29.8038391, "lng": -95.4101207}, "travel_mode": "WALKING"}], "travel_mode": "WALKING"}, {"distance": {"text": "2.7 mi", "value": 4367}, "duration": {"text": "10 mins", "value": 582}, "end_location": {"lat": 29.80163, "lng": -95.454342}, "html_instructions": "Bus towards Memorial City", "polyline": {"points": "ea|tDvwieQJ?@V?fA@`ABfE?tABtJ?pB@rA?r@?H?|@?jB?@?j@@h@AL?\\?J@f@?|B?h@?|@?n@?N?|G?J@tE?d@@dC?p@AL@J?V@P@H?B?D@F@HBH@JDPDLDLDHDJDJHLFHFHLL?@TVTVn@v@NRh@h@NPVX^f@BJBFBFf@v@P`@DZDVBT@F?D@F?H?P@P?X?N?F?j@@pAIpB@f@?V?fA?j@?V@h@AjA?h@@~@?b@@^Af@@d@?X?bA?jA?b@@nC?J?d@Aj@?v@?P@dB?jA?bC?`A?\\@dH?`D?dC@fE?jD?T@`F@vB?jD?vC?X?`E@V@zCAb@?fAAX@fB@fA?T@|B?l@A~A?x@?XAzB?`A?dB?l@?P?F?H@^?Z?@?H?@?Z?h@?f@?j@?^?t@@j@BnAAV@|@@fB?bBG?"}, "start_location": {"lat": 29.803869, "lng": -95.410039}, "transit_details": {"arrival_stop": {"location": {"lat": 29.80163, "lng": -95.454342}, "name": "W 18th St @ Northwest Fwy"}, "arrival_time": {"text": "4:33pm", "time_zone": "America/Chicago", "value": 1642026820}, "departure_stop": {"location": {"lat": 29.803869, "lng": -95.410039}, "name": "W 20th St @ N Shepherd Dr"}, "departure_time": {"text": "4:23pm", "time_zone": "America/Chicago", "value": 1642026238}, "headsign": "Memorial City", "line": {"agencies": [{"name": "Metropolitan Transit Authority of Harris County", "phone": "1 (713) 635-4000", "url": "http://www.ridemetro.org/"}], "color": "#004080", "name": "Long Point / Cavalcade", "short_name": "26", "text_color": "#ffffff", "url": "https://www.ridemetro.org/MetroPDFs/Schedules/BusSchedules/n026-Long-Point-Cavalcade.pdf", "vehicle": {"icon": "//maps.gstatic.com/mapfiles/transit/iw2/6/bus2.png", "name": "Bus", "type": "BUS"}}, "num_stops": 14, "trip_short_name": "LONGPOINT"}, "travel_mode": "TRANSIT"}, {"distance": {"text": "322 ft", "value": 98}, "duration": {"text": "1 min", "value": 77}, "end_location": {"lat": 29.8019199, "lng": -95.45428179999999}, "html_instructions": "Walk to 4400 W 18th St, Houston, TX 77092, USA", "polyline": {"points": "es{tDrlreQ?z@YEc@E?G@Q@a@"}, "start_location": {"lat": 29.8016264, "lng": -95.454342}, "steps": [{"distance": {"text": "95 ft", "value": 29}, "duration": {"text": "1 min", "value": 22}, "end_location": {"lat": 29.8016252, "lng": -95.45463819999999}, "html_instructions": "Head <b>west</b> on <b>W 18th St</b>/<wbr/><b>NW Mall</b>", "polyline": {"points": "es{tDrlreQ?z@"}, "start_location": {"lat": 29.8016264, "lng": -95.454342}, "travel_mode": "WALKING"}, {"distance": {"text": "131 ft", "value": 40}, "duration": {"text": "1 min", "value": 33}, "end_location": {"lat": 29.8019405, "lng": -95.4545788}, "html_instructions": "Turn <b>right</b><div style=\"font-size:0.9em\">Restricted usage road</div>", "maneuver": "turn-right", "polyline": {"points": "es{tDnnreQYEc@E"}, "start_location": {"lat": 29.8016252, "lng": -95.45463819999999}, "travel_mode": "WALKING"}, {"distance": {"text": "95 ft", "value": 29}, "duration": {"text": "1 min", "value": 22}, "end_location": {"lat": 29.8019199, "lng": -95.45428179999999}, "html_instructions": "Turn <b>right</b><div style=\"font-size:0.9em\">Restricted usage road</div><div style=\"font-size:0.9em\">Destination will be on the left</div>", "maneuver": "turn-right", "polyline": {"points": "cu{tDbnreQ?G@Q@a@"}, "start_location": {"lat": 29.8019405, "lng": -95.4545788}, "travel_mode": "WALKING"}], "travel_mode": "WALKING"}], "traffic_speed_entry": [], "via_waypoint": []}], "overview_polyline": {"points": "}~ntD`crdQoA`GaDeAADBK`DbAxCz@u@pDaCpLa@dBe@|Am@hCeA`F{BhKmCtLgE~RwK|f@qHr]sHv]{D~QkDrPoBhJcCbLiAnFcAfFsBtJg@dB]h@YZcAdAyBdEuBbEgFdKyBhEwInPqGbMIFQXeCvEq@tA_AdBM^N\\^dAxB`H\\bAXdB@r@AVEPQ`@Ub@c@t@MVEVc@~@MXg@~@rCvBeBlDiErIoEtIiBjDgD~GqCdF}BvEsDpHmA|BSZJR`@h@|AjArCtBgAbC_@jAMl@SjBMlBe@`GMvAExADxEDvFHtSBpBJtEPdHFz@ThB\\fBPt@nBnHh@jBZrAL~@R`CRdH@zDEfBG|AMhA_@~Ci@hCaAxDc@~CK`CK`CIx@Ed@WtAq@jDk@xD{@zFKpAIvA?zBFzAJpAJv@T`AFVt@|BlDzJtAnD`@lAVhAZzATlBBRHjAIj@A|@?fEG?@pA?f@o@@?fHEf@SPKFJh@k@JkCd@w@TgAB[?oCByBLu@BaB@}C@}ID_JFuLFeAAk@BqEB{NHiED}ED_CAk@KyEgAg@Gm@A{@Bm@NoBh@sAVmALcCLeGD{DB{C@_PJcNJiMFah@\\uKDeD??K?Bm@@?QE@J?@V@hCFdW@nE@bH@dX?jFD~@BZPt@Vn@f@n@dDxDv@`AFRj@~@V|@Jz@Bt@?|A@pAIpB@~@@tDAtB@bB@fC@bI?|MBv`@BxI?bIBnKAlFBhGCnH?fF@vBBfJBdD?bBG??z@}@KB{@"}, "summary": "", "warnings": ["Walking directions are in beta. Use caution \u2013 This route may be missing sidewalks or pedestrian paths."], "waypoint_order": []}], "status": "OK"}