{"geocoded_waypoints": [{"geocoder_status": "OK", "place_id": "ChIJW1EqqFrGQIYRSYeXhp-HFdk", "types": ["establishment", "point_of_interest", "primary_school", "school"]}, {"geocoder_status": "OK", "place_id": "ChIJ9_tphxzHQIYRIMyPy_d3VZU", "types": ["establishment", "point_of_interest"]}], "routes": [{"bounds": {"northeast": {"lat": 29.8268581, "lng": -95.4443397}, "southwest": {"lat": 29.801591, "lng": -95.4593402}}, "copyrights": "Map data \u00a92022", "legs": [{"arrival_time": {"text": "3:43pm", "time_zone": "America/Chicago", "value": 1642023810}, "departure_time": {"text": "3:02pm", "time_zone": "America/Chicago", "value": 1642021324}, "distance": {"text": "3.2 mi", "value": 5104}, "duration": {"text": "41 mins", "value": 2486}, "end_address": "4400 W 18th St, Houston, TX 77092, USA", "end_location": {"lat": 29.8019199, "lng": -95.45428179999999}, "start_address": "1910 Lamonte Ln, Houston, TX 77018, USA", "start_location": {"lat": 29.8268344, "lng": -95.4460489}, "steps": [{"distance": {"text": "1.1 mi", "value": 1825}, "duration": {"text": "23 mins", "value": 1376}, "end_location": {"lat": 29.8141587, "lng": -95.4464248}, "html_instructions": "Walk to Sherwood Ln @ N Becca Ln", "polyline": {"points": "up`uDxxpeQC}C?e@Ag@?a@L?vCCL?H?d@?t@Ab@?L?L?tCCL?tCAL?vCEL?vCCLAl@?PBvABL?zAAb@?b@?P?fA?Z?d@?Z@b@Al@?L?ZAJ?t@CRA\\Ad@Gd@Id@Kd@M?R?t@@fB?V?TA|A?P@P?RLILE`EqALCp@K\\GPAVA@?LADAF?f@?BAh@?T?h@?vA??H?bD"}, "start_location": {"lat": 29.8268344, "lng": -95.4460489}, "steps": [{"distance": {"text": "440 ft", "value": 134}, "duration": {"text": "2 mins", "value": 98}, "end_location": {"lat": 29.8267862, "lng": -95.4446983}, "html_instructions": "Head <b>east</b> on <b>Lamonte Ln</b> toward <b>Rosslyn Rd</b>", "polyline": {"points": "up`uDxxpeQC}C?e@Ag@?a@L?"}, "start_location": {"lat": 29.8268344, "lng": -95.4460489}, "travel_mode": "WALKING"}, {"distance": {"text": "0.4 mi", "value": 582}, "duration": {"text": "7 mins", "value": 429}, "end_location": {"lat": 29.8215977, "lng": -95.4445758}, "html_instructions": "Turn <b>right</b> onto <b>Rosslyn Rd</b>", "maneuver": "turn-right", "polyline": {"points": "mp`uDjppeQvCCL?H?d@?t@Ab@?L?L?tCCL?tCAL?vCEL?vCCLAl@?"}, "start_location": {"lat": 29.8267862, "lng": -95.4446983}, "travel_mode": "WALKING"}, {"distance": {"text": "387 ft", "value": 118}, "duration": {"text": "1 min", "value": 85}, "end_location": {"lat": 29.8205383, "lng": -95.44460810000001}, "html_instructions": "Slight <b>right</b> to stay on <b>Rosslyn Rd</b>", "maneuver": "turn-slight-right", "polyline": {"points": "_p_uDropeQPBvABL?zAA"}, "start_location": {"lat": 29.8215977, "lng": -95.4445758}, "travel_mode": "WALKING"}, {"distance": {"text": "0.2 mi", "value": 367}, "duration": {"text": "4 mins", "value": 267}, "end_location": {"lat": 29.8173031, "lng": -95.4443397}, "html_instructions": "Continue onto <b>E T C Jester Blvd</b>", "polyline": {"points": "ki_uDxopeQb@?b@?P?fA?Z?d@?Z@b@Al@?L?ZAJ?t@CRA\\Ad@Gd@Id@Kd@M"}, "start_location": {"lat": 29.8205383, "lng": -95.44460810000001}, "travel_mode": "WALKING"}, {"distance": {"text": "0.1 mi", "value": 179}, "duration": {"text": "2 mins", "value": 139}, "end_location": {"lat": 29.8172221, "lng": -95.44616119999999}, "html_instructions": "Turn <b>right</b> onto <b>W 34th St</b>", "maneuver": "turn-right", "polyline": {"points": "cu~tDbnpeQ?R?t@@fB?V?TA|A?P@P?RLI"}, "start_location": {"lat": 29.8173031, "lng": -95.4443397}, "travel_mode": "WALKING"}, {"distance": {"text": "0.2 mi", "value": 357}, "duration": {"text": "5 mins", "value": 294}, "end_location": {"lat": 29.8141649, "lng": -95.44555199999999}, "html_instructions": "Turn <b>left</b> onto <b>T C Jester Blvd</b>", "maneuver": "turn-left", "polyline": {"points": "st~tDnypeQLE`EqALCp@K\\GPAVA@?LADAF?f@?BAh@?T?h@?vA?"}, "start_location": {"lat": 29.8172221, "lng": -95.44616119999999}, "travel_mode": "WALKING"}, {"distance": {"text": "289 ft", "value": 88}, "duration": {"text": "1 min", "value": 64}, "end_location": {"lat": 29.8141587, "lng": -95.4464248}, "html_instructions": "Turn <b>right</b> onto <b>Sherwood Ln</b><div style=\"font-size:0.9em\">Destination will be on the right</div>", "maneuver": "turn-right", "polyline": {"points": "oa~tDtupeQ?H?bD"}, "start_location": {"lat": 29.8141649, "lng": -95.44555199999999}, "travel_mode": "WALKING"}], "travel_mode": "WALKING"}, {"distance": {"text": "1.6 mi", "value": 2632}, "duration": {"text": "10 mins", "value": 600}, "end_location": {"lat": 29.801811, "lng": -95.45881}, "html_instructions": "Bus towards Northwest TC", "polyline": {"points": "sa~tDb{peQJ??V?|@?V?~C?r@?J?L?j@?`A?Z@jF?P?Z?P?T?dA?j@?b@?Z?|@?P?J?p@?J?z@?P?v@?lB?hB@bA?nA@T?t@?J?Z?h@?l@?NAR?~@@V?|A?F?fB?Z@X?~BCvB?`@@H?D?H?FEBCH?ZP?V?lCCnACxAEJAd@E@?h@G`@EB?HAXGh@CVA`@?`@@\\?@?J?J?@?D?\\@@?B?@?F?pAC|@A\\AVAP?fAEJAt@A\\?vACp@ArACLAV?N?LAB?R?L?N@VAr@?VAZAj@AH?dAAfBATA^AP?t@ARAd@AvAA^AL?`BCb@AV?d@Ab@?`@A^??H"}, "start_location": {"lat": 29.814177, "lng": -95.44642499999999}, "transit_details": {"arrival_stop": {"location": {"lat": 29.801811, "lng": -95.45881}, "name": "Mangum Rd @ W 18th St"}, "arrival_time": {"text": "3:35pm", "time_zone": "America/Chicago", "value": 1642023300}, "departure_stop": {"location": {"lat": 29.814177, "lng": -95.44642499999999}, "name": "Sherwood Ln @ N Becca Ln"}, "departure_time": {"text": "3:25pm", "time_zone": "America/Chicago", "value": 1642022700}, "headsign": "Northwest TC", "line": {"agencies": [{"name": "Metropolitan Transit Authority of Harris County", "phone": "1 (713) 635-4000", "url": "http://www.ridemetro.org/"}], "color": "#004080", "name": "Dacoma", "short_name": "89", "text_color": "#ffffff", "url": "https://www.ridemetro.org/MetroPDFs/Schedules/BusSchedules/n089-Dacoma.pdf", "vehicle": {"icon": "//maps.gstatic.com/mapfiles/transit/iw2/6/bus2.png", "name": "Bus", "type": "BUS"}}, "num_stops": 11, "trip_short_name": "DACOMA"}, "travel_mode": "TRANSIT"}, {"distance": {"text": "0.4 mi", "value": 647}, "duration": {"text": "8 mins", "value": 505}, "end_location": {"lat": 29.8019199, "lng": -95.45428179999999}, "html_instructions": "Walk to 4400 W 18th St, Houston, TX 77092, USA", "polyline": {"points": "it{tDnhseQN?ZA?O?O?OmED@[Ae@?g@ASDKP]d@}@Xq@B]QOIIOMEKKAQUGGEIAE?C?A@C@EBEV_@KMNWHMJSRa@Ts@R}@Jy@Hy@?G@Q@a@"}, "start_location": {"lat": 29.8018112, "lng": -95.4588016}, "steps": [{"distance": {"text": "92 ft", "value": 28}, "duration": {"text": "1 min", "value": 23}, "end_location": {"lat": 29.8015918, "lng": -95.4587105}, "html_instructions": "Head <b>south</b> on <b>Mangum Rd</b> toward <b>W 18th St</b>", "polyline": {"points": "it{tDnhseQN?ZA?O"}, "start_location": {"lat": 29.8018112, "lng": -95.4588016}, "travel_mode": "WALKING"}, {"distance": {"text": "440 ft", "value": 134}, "duration": {"text": "2 mins", "value": 117}, "end_location": {"lat": 29.80261729999999, "lng": -95.45858140000001}, "html_instructions": "Cross the road", "polyline": {"points": "}r{tD|gseQ?O?OmED"}, "start_location": {"lat": 29.8015918, "lng": -95.4587105}, "travel_mode": "WALKING"}, {"distance": {"text": "0.1 mi", "value": 168}, "duration": {"text": "2 mins", "value": 133}, "end_location": {"lat": 29.8021725, "lng": -95.45703209999999}, "html_instructions": "Turn <b>right</b>", "maneuver": "turn-right", "polyline": {"points": "ky{tDbgseQ@[Ae@?g@ASDKP]d@}@Xq@B]"}, "start_location": {"lat": 29.80261729999999, "lng": -95.45858140000001}, "travel_mode": "WALKING"}, {"distance": {"text": "348 ft", "value": 106}, "duration": {"text": "1 min", "value": 80}, "end_location": {"lat": 29.8024852, "lng": -95.4562641}, "html_instructions": "Turn <b>left</b><div style=\"font-size:0.9em\">Partial restricted usage road</div>", "maneuver": "turn-left", "polyline": {"points": "qv{tDl}reQQOIIOMEKKAQUGGEIAE?C?A@C@EBEV_@"}, "start_location": {"lat": 29.8021725, "lng": -95.45703209999999}, "travel_mode": "WALKING"}, {"distance": {"text": "33 ft", "value": 10}, "duration": {"text": "1 min", "value": 8}, "end_location": {"lat": 29.8025494, "lng": -95.456192}, "html_instructions": "Turn <b>left</b><div style=\"font-size:0.9em\">Restricted usage road</div>", "maneuver": "turn-left", "polyline": {"points": "qx{tDrxreQKM"}, "start_location": {"lat": 29.8024852, "lng": -95.4562641}, "travel_mode": "WALKING"}, {"distance": {"text": "0.1 mi", "value": 201}, "duration": {"text": "2 mins", "value": 144}, "end_location": {"lat": 29.8019199, "lng": -95.45428179999999}, "html_instructions": "Turn <b>right</b><div style=\"font-size:0.9em\">Restricted usage road</div><div style=\"font-size:0.9em\">Destination will be on the left</div>", "maneuver": "turn-right", "polyline": {"points": "}x{tDdxreQNWHMJSRa@Ts@R}@Jy@Hy@?G@Q@a@"}, "start_location": {"lat": 29.8025494, "lng": -95.456192}, "travel_mode": "WALKING"}], "travel_mode": "WALKING"}], "traffic_speed_entry": [], "via_waypoint": []}], "overview_polyline": {"points": "up`uDxxpeQEmG|DCtMGjIIz@APBvABhBAfA?zC?zB?pBGbAIjAUd@M?R@|CA|C@d@ZOnEuAnASx@EzFC?lDC?J??tA?vD?xB@zI?rH?nIBzK?vJAlH@z@EJCd@fGGdBGf@ExAObAKx@A`A@bA@xCEnCIbJOt@A\\@jAAhBEbFGhJMdCC`AA?Fj@A?_@?OmED?aAA{@Vi@~@oBB]QOYWEKKAY]GOBOZe@KMNWTa@Ra@Ts@R}@TsBB{@"}, "summary": "", "warnings": ["Walking directions are in beta. Use caution \u2013 This route may be missing sidewalks or pedestrian paths."], "waypoint_order": []}, {"bounds": {"northeast": {"lat": 29.8326822, "lng": -95.38748149999999}, "southwest": {"lat": 29.8015904, "lng": -95.45463819999999}}, "copyrights": "Map data \u00a92022", "legs": [{"arrival_time": {"text": "4:04pm", "time_zone": "America/Chicago", "value": 1642025097}, "departure_time": {"text": "3:05pm", "time_zone": "America/Chicago", "value": 1642021540}, "distance": {"text": "9.5 mi", "value": 15322}, "duration": {"text": "59 mins", "value": 3557}, "end_address": "4400 W 18th St, Houston, TX 77092, USA", "end_location": {"lat": 29.8019199, "lng": -95.45428179999999}, "start_address": "1910 Lamonte Ln, Houston, TX 77018, USA", "start_location": {"lat": 29.8268344, "lng": -95.4460489}, "steps": [{"distance": {"text": "0.5 mi", "value": 810}, "duration": {"text": "10 mins", "value": 602}, "end_location": {"lat": 29.83263879999999, "lng": -95.4453482}, "html_instructions": "Walk to W 43rd St @ Rosslyn Rd", "polyline": {"points": "up`uDxxpeQC}CG@K?U?W@_@?I??SA?EAA??KAS?M?QAK?Mc@?cDBgDDcD@gC@[Dc@@K?M@{@Dk@?oBBCJEFW`@KHEBIB?R"}, "start_location": {"lat": 29.8268344, "lng": -95.4460489}, "steps": [{"distance": {"text": "249 ft", "value": 76}, "duration": {"text": "1 min", "value": 55}, "end_location": {"lat": 29.8268482, "lng": -95.44526230000001}, "html_instructions": "Head <b>east</b> on <b>Lamonte Ln</b>", "polyline": {"points": "up`uDxxpeQC}C"}, "start_location": {"lat": 29.8268344, "lng": -95.4460489}, "travel_mode": "WALKING"}, {"distance": {"text": "213 ft", "value": 65}, "duration": {"text": "1 min", "value": 47}, "end_location": {"lat": 29.8273923, "lng": -95.4452814}, "html_instructions": "Turn <b>left</b> toward <b>Rosslyn Rd</b>", "maneuver": "turn-left", "polyline": {"points": "yp`uDzspeQG@K?U?W@_@?I?"}, "start_location": {"lat": 29.8268482, "lng": -95.44526230000001}, "travel_mode": "WALKING"}, {"distance": {"text": "203 ft", "value": 62}, "duration": {"text": "1 min", "value": 46}, "end_location": {"lat": 29.8274589, "lng": -95.44471620000002}, "html_instructions": "Turn <b>right</b> toward <b>Rosslyn Rd</b>", "maneuver": "turn-right", "polyline": {"points": "et`uD~speQ?SA?EAA??KAS?M?QAK?M"}, "start_location": {"lat": 29.8273923, "lng": -95.4452814}, "travel_mode": "WALKING"}, {"distance": {"text": "0.3 mi", "value": 540}, "duration": {"text": "7 mins", "value": 404}, "end_location": {"lat": 29.8323287, "lng": -95.4448871}, "html_instructions": "Turn <b>left</b> onto <b>Rosslyn Rd</b>", "maneuver": "turn-left", "polyline": {"points": "st`uDnppeQc@?cDBgDDcD@gC@[Dc@@K?M@{@Dk@?oBB"}, "start_location": {"lat": 29.8274589, "lng": -95.44471620000002}, "travel_mode": "WALKING"}, {"distance": {"text": "194 ft", "value": 59}, "duration": {"text": "1 min", "value": 43}, "end_location": {"lat": 29.8326417, "lng": -95.4452489}, "html_instructions": "Turn <b>left</b> toward <b>W 43rd St</b>", "maneuver": "turn-left", "polyline": {"points": "asauDpqpeQCJEFW`@KHEBIB"}, "start_location": {"lat": 29.8323287, "lng": -95.4448871}, "travel_mode": "WALKING"}, {"distance": {"text": "26 ft", "value": 8}, "duration": {"text": "1 min", "value": 7}, "end_location": {"lat": 29.83263879999999, "lng": -95.4453482}, "html_instructions": "Turn <b>left</b> onto <b>W 43rd St</b>", "maneuver": "turn-left", "polyline": {"points": "_uauDxspeQ?R"}, "start_location": {"lat": 29.8326417, "lng": -95.4452489}, "travel_mode": "WALKING"}], "travel_mode": "WALKING"}, {"distance": {"text": "3.0 mi", "value": 4786}, "duration": {"text": "12 mins", "value": 717}, "end_location": {"lat": 29.828287, "lng": -95.39790599999999}, "html_instructions": "Bus towards Northline TC", "polyline": {"points": "}tauDltpeQG?AQAqA?U@i@?g@Aw@@o@@m@B[BYBUDQBSDUDMJa@BIJ_@Xo@\\m@f@{@pAeCHSbBwC\\m@`AiB`@s@~@cBvAkCHM`BwCTe@NWVm@Re@FQPm@HYJe@DUD[Dg@@OB{@@oAG[?s@?SAQ?{@?E?QAqA?c@?K?a@AmC?cB?O?[As@?W?{B?K?Q?oAAU?]?[?[?K?QCc@Ei@CWAOKaAIq@SoBEYASE_@?ACYAMC[?AEy@Cw@GgBCy@AeAAeE@[@y@@c@Dk@LqAL{@RmATiAFWZgABGBML]Ro@@EBIDOFUFS?CPs@@IHYx@mFTeBb@oEF}@F{@F{A@e@@E@Q@aBCyACsAe@iIGoADS?GE}@Aw@?]AuB?]C}DAe@?k@Ku@M_AACMe@Sw@Qo@Oo@Mk@Ou@Ea@Gq@CqCAw@?aA?m@?a@AeB?W?S?w@C}B?w@?q@?G?sBC}DAsAAe@A{B?[CYAe@CgAUuDGgAD?"}, "start_location": {"lat": 29.832633, "lng": -95.445348}, "transit_details": {"arrival_stop": {"location": {"lat": 29.828287, "lng": -95.39790599999999}, "name": "Crosstimbers St @ Main St"}, "arrival_time": {"text": "3:27pm", "time_zone": "America/Chicago", "value": 1642022859}, "departure_stop": {"location": {"lat": 29.832633, "lng": -95.445348}, "name": "W 43rd St @ Rosslyn Rd"}, "departure_time": {"text": "3:15pm", "time_zone": "America/Chicago", "value": 1642022142}, "headsign": "Northline TC", "line": {"agencies": [{"name": "Metropolitan Transit Authority of Harris County", "phone": "1 (713) 635-4000", "url": "http://www.ridemetro.org/"}], "color": "#004080", "name": "Clay - W 43rd", "short_name": "23", "text_color": "#ffffff", "url": "https://www.ridemetro.org/MetroPDFs/Schedules/BusSchedules/n023-Clay-West-43rd.pdf", "vehicle": {"icon": "//maps.gstatic.com/mapfiles/transit/iw2/6/bus2.png", "name": "Bus", "type": "BUS"}}, "num_stops": 16, "trip_short_name": "CLAY43RD"}, "travel_mode": "TRANSIT"}, {"distance": {"text": "1.9 mi", "value": 3002}, "duration": {"text": "7 mins", "value": 440}, "end_location": {"lat": 29.803195, "lng": -95.38754999999999}, "html_instructions": "Bus towards Downtown", "polyline": {"points": "yy`uD|kgeQE?Ci@jAe@VMhCcA`@QjBs@bAa@x@]BATINIpAm@|@a@lCmAzAu@f@Wx@Y`@Oh@M`Bc@ZIbDy@lCq@VGh@Ov@SbAY~Ac@BA`AWt@QnBg@|@WlAYTGlCs@VIHCBCPE\\KZIj@O^IhBe@\\IBABATEx@U^Ir@S@?@?z@WVIdBc@NErBg@^IhCq@XGnA]hA[JCnCs@TGf@MzBm@pCu@RGbD{@`AUTG\\KjCs@b@Kp@Qt@Qv@Uv@SnA[PGRGRERAb@IJQFI\\W`Au@FL"}, "start_location": {"lat": 29.828287, "lng": -95.39790599999999}, "transit_details": {"arrival_stop": {"location": {"lat": 29.803195, "lng": -95.38754999999999}, "name": "N Main St @ Kern St"}, "arrival_time": {"text": "3:43pm", "time_zone": "America/Chicago", "value": 1642023823}, "departure_stop": {"location": {"lat": 29.828287, "lng": -95.39790599999999}, "name": "Crosstimbers St @ Main St"}, "departure_time": {"text": "3:36pm", "time_zone": "America/Chicago", "value": 1642023383}, "headsign": "Downtown", "line": {"agencies": [{"name": "Metropolitan Transit Authority of Harris County", "phone": "1 (713) 635-4000", "url": "http://www.ridemetro.org/"}], "color": "#004080", "name": "Acres Homes", "short_name": "44", "text_color": "#ffffff", "url": "https://www.ridemetro.org/MetroPDFs/Schedules/BusSchedules/n044-Acres-Homes.pdf", "vehicle": {"icon": "//maps.gstatic.com/mapfiles/transit/iw2/6/bus2.png", "name": "Bus", "type": "BUS"}}, "num_stops": 15, "trip_short_name": "ACRESHOM"}, "travel_mode": "TRANSIT"}, {"distance": {"text": "417 ft", "value": 127}, "duration": {"text": "2 mins", "value": 124}, "end_location": {"lat": 29.8040987, "lng": -95.3879358}, "html_instructions": "Walk to W Cavalcade St @ N Main St", "polyline": {"points": "c}{tD~jeeQ{@n@KHUPGHCDQ?UBOBC?O@DO?A"}, "start_location": {"lat": 29.803216, "lng": -95.3875158}, "steps": [{"distance": {"text": "377 ft", "value": 115}, "duration": {"text": "2 mins", "value": 105}, "end_location": {"lat": 29.8041286, "lng": -95.38803279999999}, "html_instructions": "Head <b>northwest</b> on <b>N Main St</b> toward <b>Studewood St</b>", "polyline": {"points": "c}{tD~jeeQ{@n@KHUPGHCDQ?UBOBC?O@"}, "start_location": {"lat": 29.803216, "lng": -95.3875158}, "travel_mode": "WALKING"}, {"distance": {"text": "39 ft", "value": 12}, "duration": {"text": "1 min", "value": 19}, "end_location": {"lat": 29.8040987, "lng": -95.3879358}, "html_instructions": "Turn <b>right</b> onto <b>W Cavalcade St</b>", "maneuver": "turn-right", "polyline": {"points": "yb|tDdneeQDO?A"}, "start_location": {"lat": 29.8041286, "lng": -95.38803279999999}, "travel_mode": "WALKING"}], "travel_mode": "WALKING"}, {"distance": {"text": "4.0 mi", "value": 6499}, "duration": {"text": "14 mins", "value": 864}, "end_location": {"lat": 29.80163, "lng": -95.454342}, "html_instructions": "Bus towards Memorial City", "polyline": {"points": "wb|tDpmeeQJBA@ETC\\Af@?P?P?LA`@@\\BpA?^@j@?H@tA?n@?b@@b@?X?P?V@`A?v@@dA?V?vA@T?lB@jB@tA?XB|E?~A@zB@nB?V?V@t@?L?R?L@R?N?f@?h@@|@?\\?d@?b@@n@?pA@|B?d@?`@@t@?T?pA@v@@rA?v@@bD@~@?nA@H?tB@^@dC?P?j@@x@?x@?t@@P?dA@|A?\\?^@dC@zB?xA?N@V?fA@`ABfE?tABtJ?pB@rA?r@?H?|@?jB?@?j@@h@AL?\\?J@f@?|B?h@?|@?n@?N?|G?J@tE?d@@dC?p@AL@J?V@P@H?B?D@F@HBH@JDPDLDLDHDJDJHLFHFHLL?@TVTVn@v@NRh@h@NPVX^f@BJBFBFf@v@P`@DZDVBT@F?D@F?H?P@P?X?N?F?j@@pAIpB@f@?V?fA?j@?V@h@AjA?h@@~@?b@@^Af@@d@?X?bA?jA?b@@nC?J?d@Aj@?v@?P@dB?jA?bC?`A?\\@dH?`D?dC@fE?jD?T@`F@vB?jD?vC?X?`E@V@zCAb@?fAAX@fB@fA?T@|B?l@A~A?x@?XAzB?`A?dB?l@?P?F?H@^?Z?@?H?@?Z?h@?f@?j@?^?t@@j@BnAAV@|@@fB?bBG?"}, "start_location": {"lat": 29.804119, "lng": -95.38793299999999}, "transit_details": {"arrival_stop": {"location": {"lat": 29.80163, "lng": -95.454342}, "name": "W 18th St @ Northwest Fwy"}, "arrival_time": {"text": "4:03pm", "time_zone": "America/Chicago", "value": 1642025020}, "departure_stop": {"location": {"lat": 29.804119, "lng": -95.38793299999999}, "name": "W Cavalcade St @ N Main St"}, "departure_time": {"text": "3:49pm", "time_zone": "America/Chicago", "value": 1642024156}, "headsign": "Memorial City", "line": {"agencies": [{"name": "Metropolitan Transit Authority of Harris County", "phone": "1 (713) 635-4000", "url": "http://www.ridemetro.org/"}], "color": "#004080", "name": "Long Point / Cavalcade", "short_name": "26", "text_color": "#ffffff", "url": "https://www.ridemetro.org/MetroPDFs/Schedules/BusSchedules/n026-Long-Point-Cavalcade.pdf", "vehicle": {"icon": "//maps.gstatic.com/mapfiles/transit/iw2/6/bus2.png", "name": "Bus", "type": "BUS"}}, "num_stops": 24, "trip_short_name": "LONGPOINT"}, "travel_mode": "TRANSIT"}, {"distance": {"text": "322 ft", "value": 98}, "duration": {"text": "1 min", "value": 77}, "end_location": {"lat": 29.8019199, "lng": -95.45428179999999}, "html_instructions": "Walk to 4400 W 18th St, Houston, TX 77092, USA", "polyline": {"points": "es{tDrlreQ?z@YEc@E?G@Q@a@"}, "start_location": {"lat": 29.8016264, "lng": -95.454342}, "steps": [{"distance": {"text": "95 ft", "value": 29}, "duration": {"text": "1 min", "value": 22}, "end_location": {"lat": 29.8016252, "lng": -95.45463819999999}, "html_instructions": "Head <b>west</b> on <b>W 18th St</b>/<wbr/><b>NW Mall</b>", "polyline": {"points": "es{tDrlreQ?z@"}, "start_location": {"lat": 29.8016264, "lng": -95.454342}, "travel_mode": "WALKING"}, {"distance": {"text": "131 ft", "value": 40}, "duration": {"text": "1 min", "value": 33}, "end_location": {"lat": 29.8019405, "lng": -95.4545788}, "html_instructions": "Turn <b>right</b><div style=\"font-size:0.9em\">Restricted usage road</div>", "maneuver": "turn-right", "polyline": {"points": "es{tDnnreQYEc@E"}, "start_location": {"lat": 29.8016252, "lng": -95.45463819999999}, "travel_mode": "WALKING"}, {"distance": {"text": "95 ft", "value": 29}, "duration": {"text": "1 min", "value": 22}, "end_location": {"lat": 29.8019199, "lng": -95.45428179999999}, "html_instructions": "Turn <b>right</b><div style=\"font-size:0.9em\">Restricted usage road</div><div style=\"font-size:0.9em\">Destination will be on the left</div>", "maneuver": "turn-right", "polyline": {"points": "cu{tDbnreQ?G@Q@a@"}, "start_location": {"lat": 29.8019405, "lng": -95.4545788}, "travel_mode": "WALKING"}], "travel_mode": "WALKING"}], "traffic_speed_entry": [], "via_waypoint": []}], "overview_polyline": {"points": "up`uDxxpeQC}CG@a@?w@@I??SA?GAAm@A]?Mc@?kIHkHByAHgBDoBBCJ]h@QLIB?RE?AcD@}DP}AZyANi@v@}AxBaElBkD`EoHxEwIbA}BZgAP{@JcADkA@oAG[?gAAeBCaMCiJ?uAOuB{@mIKeBK_DE_CAeEBuAFoAZmCh@wCb@_Bh@cBn@kCbAgGTeBb@oENyBHaCBWA{DCsAe@iIGoADSEeAAuAGwJ?k@Ku@OcAcA}D]aBMsAEyHEsMEmKGwEEmB]}FD?E?Ci@jAe@`DqAlCeAvCkAlHgDbCmAzAi@jIuBfG}AhFwApHkBbD{@`@MnA_@jHiB`HiBlR}Epa@qKd@Of@Gb@IJQd@a@`Au@FLCE{@n@a@ZKNg@BSBO@DOCCHDIr@AxABpDBzDDjIN`c@H|TNva@Rfo@BrK?tJ@zVD~@BZPt@Vn@f@n@zAhBhAnAv@`AFRj@~@V|@Jz@BrC@pAIpB@~@@tDAtB@bB@fC?xMBnZ@nOBxI?bIBnKAlFBhGCnH@tH?fEBhEBdD?bBG??z@}@KB{@"}, "summary": "", "warnings": ["Walking directions are in beta. Use caution \u2013 This route may be missing sidewalks or pedestrian paths."], "waypoint_order": []}, {"bounds": {"northeast": {"lat": 29.8326822, "lng": -95.40939949999999}, "southwest": {"lat": 29.8015904, "lng": -95.45463819999999}}, "copyrights": "Map data \u00a92022 Google", "legs": [{"arrival_time": {"text": "4:04pm", "time_zone": "America/Chicago", "value": 1642025097}, "departure_time": {"text": "3:05pm", "time_zone": "America/Chicago", "value": 1642021540}, "distance": {"text": "7.2 mi", "value": 11601}, "duration": {"text": "59 mins", "value": 3557}, "end_address": "4400 W 18th St, Houston, TX 77092, USA", "end_location": {"lat": 29.8019199, "lng": -95.45428179999999}, "start_address": "1910 Lamonte Ln, Houston, TX 77018, USA", "start_location": {"lat": 29.8268344, "lng": -95.4460489}, "steps": [{"distance": {"text": "0.5 mi", "value": 810}, "duration": {"text": "10 mins", "value": 602}, "end_location": {"lat": 29.83263879999999, "lng": -95.4453482}, "html_instructions": "Walk to W 43rd St @ Rosslyn Rd", "polyline": {"points": "up`uDxxpeQC}CG@K?U?W@_@?I??SA?EAA??KAS?M?QAK?Mc@?cDBgDDcD@gC@[Dc@@K?M@{@Dk@?oBBCJEFW`@KHEBIB?R"}, "start_location": {"lat": 29.8268344, "lng": -95.4460489}, "steps": [{"distance": {"text": "249 ft", "value": 76}, "duration": {"text": "1 min", "value": 55}, "end_location": {"lat": 29.8268482, "lng": -95.44526230000001}, "html_instructions": "Head <b>east</b> on <b>Lamonte Ln</b>", "polyline": {"points": "up`uDxxpeQC}C"}, "start_location": {"lat": 29.8268344, "lng": -95.4460489}, "travel_mode": "WALKING"}, {"distance": {"text": "213 ft", "value": 65}, "duration": {"text": "1 min", "value": 47}, "end_location": {"lat": 29.8273923, "lng": -95.4452814}, "html_instructions": "Turn <b>left</b> toward <b>Rosslyn Rd</b>", "maneuver": "turn-left", "polyline": {"points": "yp`uDzspeQG@K?U?W@_@?I?"}, "start_location": {"lat": 29.8268482, "lng": -95.44526230000001}, "travel_mode": "WALKING"}, {"distance": {"text": "203 ft", "value": 62}, "duration": {"text": "1 min", "value": 46}, "end_location": {"lat": 29.8274589, "lng": -95.44471620000002}, "html_instructions": "Turn <b>right</b> toward <b>Rosslyn Rd</b>", "maneuver": "turn-right", "polyline": {"points": "et`uD~speQ?SA?EAA??KAS?M?QAK?M"}, "start_location": {"lat": 29.8273923, "lng": -95.4452814}, "travel_mode": "WALKING"}, {"distance": {"text": "0.3 mi", "value": 540}, "duration": {"text": "7 mins", "value": 404}, "end_location": {"lat": 29.8323287, "lng": -95.4448871}, "html_instructions": "Turn <b>left</b> onto <b>Rosslyn Rd</b>", "maneuver": "turn-left", "polyline": {"points": "st`uDnppeQc@?cDBgDDcD@gC@[Dc@@K?M@{@Dk@?oBB"}, "start_location": {"lat": 29.8274589, "lng": -95.44471620000002}, "travel_mode": "WALKING"}, {"distance": {"text": "194 ft", "value": 59}, "duration": {"text": "1 min", "value": 43}, "end_location": {"lat": 29.8326417, "lng": -95.4452489}, "html_instructions": "Turn <b>left</b> toward <b>W 43rd St</b>", "maneuver": "turn-left", "polyline": {"points": "asauDpqpeQCJEFW`@KHEBIB"}, "start_location": {"lat": 29.8323287, "lng": -95.4448871}, "travel_mode": "WALKING"}, {"distance": {"text": "26 ft", "value": 8}, "duration": {"text": "1 min", "value": 7}, "end_location": {"lat": 29.83263879999999, "lng": -95.4453482}, "html_instructions": "Turn <b>left</b> onto <b>W 43rd St</b>", "maneuver": "turn-left", "polyline": {"points": "_uauDxspeQ?R"}, "start_location": {"lat": 29.8326417, "lng": -95.4452489}, "travel_mode": "WALKING"}], "travel_mode": "WALKING"}, {"distance": {"text": "2.3 mi", "value": 3665}, "duration": {"text": "9 mins", "value": 558}, "end_location": {"lat": 29.827261, "lng": -95.409399}, "html_instructions": "Bus towards Northline TC", "polyline": {"points": "}tauDltpeQG?AQAqA?U@i@?g@Aw@@o@@m@B[BYBUDQBSDUDMJa@BIJ_@Xo@\\m@f@{@pAeCHSbBwC\\m@`AiB`@s@~@cBvAkCHM`BwCTe@NWVm@Re@FQPm@HYJe@DUD[Dg@@OB{@@oAG[?s@?SAQ?{@?E?QAqA?c@?K?a@AmC?cB?O?[As@?W?{B?K?Q?oAAU?]?[?[?K?QCc@Ei@CWAOKaAIq@SoBEYASE_@?ACYAMC[?AEy@Cw@GgBCy@AeAAeE@[@y@@c@Dk@LqAL{@RmATiAFWZgABGBML]Ro@@EBIDOFUFS?CPs@@IHYx@mFTeBb@oEF}@F{@F{A@e@@E@Q@aBCyACsAe@iIGoADS?GE}@Aw@?]AuB?]C}DAe@H?"}, "start_location": {"lat": 29.832633, "lng": -95.445348}, "transit_details": {"arrival_stop": {"location": {"lat": 29.827261, "lng": -95.409399}, "name": "W Crosstimbers St @ N Shepherd Dr"}, "arrival_time": {"text": "3:25pm", "time_zone": "America/Chicago", "value": 1642022700}, "departure_stop": {"location": {"lat": 29.832633, "lng": -95.445348}, "name": "W 43rd St @ Rosslyn Rd"}, "departure_time": {"text": "3:15pm", "time_zone": "America/Chicago", "value": 1642022142}, "headsign": "Northline TC", "line": {"agencies": [{"name": "Metropolitan Transit Authority of Harris County", "phone": "1 (713) 635-4000", "url": "http://www.ridemetro.org/"}], "color": "#004080", "name": "Clay - W 43rd", "short_name": "23", "text_color": "#ffffff", "url": "https://www.ridemetro.org/MetroPDFs/Schedules/BusSchedules/n023-Clay-West-43rd.pdf", "vehicle": {"icon": "//maps.gstatic.com/mapfiles/transit/iw2/6/bus2.png", "name": "Bus", "type": "BUS"}}, "num_stops": 11, "trip_short_name": "CLAY43RD"}, "travel_mode": "TRANSIT"}, {"distance": {"text": "0.1 mi", "value": 165}, "duration": {"text": "2 mins", "value": 141}, "end_location": {"lat": 29.8269123, "lng": -95.4107403}, "html_instructions": "Walk to N Shepherd Dr @ W 43rd St", "polyline": {"points": "ms`uDvsieQ?b@DtD?R?H?R`A?"}, "start_location": {"lat": 29.8272725, "lng": -95.40939949999999}, "steps": [{"distance": {"text": "410 ft", "value": 125}, "duration": {"text": "2 mins", "value": 102}, "end_location": {"lat": 29.8272391, "lng": -95.4107449}, "html_instructions": "Head <b>west</b> on <b>W Crosstimbers St</b> toward <b>N Shepherd Dr</b>", "polyline": {"points": "ms`uDvsieQ?b@DtD?R?H?R"}, "start_location": {"lat": 29.8272725, "lng": -95.40939949999999}, "travel_mode": "WALKING"}, {"distance": {"text": "131 ft", "value": 40}, "duration": {"text": "1 min", "value": 39}, "end_location": {"lat": 29.8269123, "lng": -95.4107403}, "html_instructions": "Turn <b>left</b> onto <b>N Shepherd Dr</b><div style=\"font-size:0.9em\">Destination will be on the right</div>", "maneuver": "turn-left", "polyline": {"points": "gs`uDb|ieQ`A?"}, "start_location": {"lat": 29.8272391, "lng": -95.4107449}, "travel_mode": "WALKING"}], "travel_mode": "WALKING"}, {"distance": {"text": "1.6 mi", "value": 2608}, "duration": {"text": "6 mins", "value": 360}, "end_location": {"lat": 29.803965, "lng": -95.412369}, "html_instructions": "Bus towards TMC TC", "polyline": {"points": "eq`uDf|ieQ?Mv@AfA?hBAzCAfAA~BCf@?|@?b@AvCCjA?zBCjB@pAC|@AvAAzAAfAAb@?lAApAAr@Av@AP@H?nBC`A?fBCj@?P?J@|@HD?h@H\\HLDPBDFb@PTJDB@@F@n@\\FDTJ^TJFj@Zz@d@HD^TB@\\PFDDBp@\\THFBVHNDB@RFNDh@HVBRBH@B?F?l@BH?h@?zAArA?XAdBAdBAbBAdA?`@?bBAfBAdAA\\?hAA\\?bBAt@?n@AX?jA?z@A@N"}, "start_location": {"lat": 29.826912, "lng": -95.41076299999999}, "transit_details": {"arrival_stop": {"location": {"lat": 29.803965, "lng": -95.412369}, "name": "N Durham Dr @ W 20th St"}, "arrival_time": {"text": "3:38pm", "time_zone": "America/Chicago", "value": 1642023480}, "departure_stop": {"location": {"lat": 29.826912, "lng": -95.41076299999999}, "name": "N Shepherd Dr @ W 43rd St"}, "departure_time": {"text": "3:32pm", "time_zone": "America/Chicago", "value": 1642023120}, "headsign": "TMC TC", "line": {"agencies": [{"name": "Metropolitan Transit Authority of Harris County", "phone": "1 (713) 635-4000", "url": "http://www.ridemetro.org/"}], "color": "#004080", "name": "Shepherd", "short_name": "27", "text_color": "#ffffff", "url": "https://www.ridemetro.org/MetroPDFs/Schedules/BusSchedules/n027-Shepherd.pdf", "vehicle": {"icon": "//maps.gstatic.com/mapfiles/transit/iw2/6/bus2.png", "name": "Bus", "type": "BUS"}}, "num_stops": 9, "trip_short_name": "SHEPHERD"}, "travel_mode": "TRANSIT"}, {"distance": {"text": "207 ft", "value": 63}, "duration": {"text": "1 min", "value": 56}, "end_location": {"lat": 29.80381, "lng": -95.41185329999999}, "html_instructions": "Walk to W 20th St @ N Durham Dr", "polyline": {"points": "wa|tD`fjeQ^A?OAmA"}, "start_location": {"lat": 29.8039634, "lng": -95.4123288}, "steps": [{"distance": {"text": "72 ft", "value": 22}, "duration": {"text": "1 min", "value": 16}, "end_location": {"lat": 29.8038031, "lng": -95.412241}, "html_instructions": "Head <b>south</b> on <b>N Durham Dr</b> toward <b>W 20th St</b>", "polyline": {"points": "wa|tD`fjeQ^A?O"}, "start_location": {"lat": 29.8039634, "lng": -95.4123288}, "travel_mode": "WALKING"}, {"distance": {"text": "135 ft", "value": 41}, "duration": {"text": "1 min", "value": 40}, "end_location": {"lat": 29.80381, "lng": -95.41185329999999}, "html_instructions": "Turn <b>left</b> onto <b>W 20th St</b>", "maneuver": "turn-left", "polyline": {"points": "w`|tDnejeQAmA"}, "start_location": {"lat": 29.8038031, "lng": -95.412241}, "travel_mode": "WALKING"}], "travel_mode": "WALKING"}, {"distance": {"text": "2.6 mi", "value": 4192}, "duration": {"text": "9 mins", "value": 559}, "end_location": {"lat": 29.80163, "lng": -95.454342}, "html_instructions": "Bus towards Memorial City", "polyline": {"points": "_a|tD`cjeQL??tABtJ?pB@rA?r@?H?|@?jB?@?j@@h@AL?\\?J@f@?|B?h@?|@?n@?N?|G?J@tE?d@@dC?p@AL@J?V@P@H?B?D@F@HBH@JDPDLDLDHDJDJHLFHFHLL?@TVTVn@v@NRh@h@NPVX^f@BJBFBFf@v@P`@DZDVBT@F?D@F?H?P@P?X?N?F?j@@pAIpB@f@?V?fA?j@?V@h@AjA?h@@~@?b@@^Af@@d@?X?bA?jA?b@@nC?J?d@Aj@?v@?P@dB?jA?bC?`A?\\@dH?`D?dC@fE?jD?T@`F@vB?jD?vC?X?`E@V@zCAb@?fAAX@fB@fA?T@|B?l@A~A?x@?XAzB?`A?dB?l@?P?F?H@^?Z?@?H?@?Z?h@?f@?j@?^?t@@j@BnAAV@|@@fB?bBG?"}, "start_location": {"lat": 29.803836, "lng": -95.41185399999999}, "transit_details": {"arrival_stop": {"location": {"lat": 29.80163, "lng": -95.454342}, "name": "W 18th St @ Northwest Fwy"}, "arrival_time": {"text": "4:03pm", "time_zone": "America/Chicago", "value": 1642025020}, "departure_stop": {"location": {"lat": 29.803836, "lng": -95.41185399999999}, "name": "W 20th St @ N Durham Dr"}, "departure_time": {"text": "3:54pm", "time_zone": "America/Chicago", "value": 1642024461}, "headsign": "Memorial City", "line": {"agencies": [{"name": "Metropolitan Transit Authority of Harris County", "phone": "1 (713) 635-4000", "url": "http://www.ridemetro.org/"}], "color": "#004080", "name": "Long Point / Cavalcade", "short_name": "26", "text_color": "#ffffff", "url": "https://www.ridemetro.org/MetroPDFs/Schedules/BusSchedules/n026-Long-Point-Cavalcade.pdf", "vehicle": {"icon": "//maps.gstatic.com/mapfiles/transit/iw2/6/bus2.png", "name": "Bus", "type": "BUS"}}, "num_stops": 13, "trip_short_name": "LONGPOINT"}, "travel_mode": "TRANSIT"}, {"distance": {"text": "322 ft", "value": 98}, "duration": {"text": "1 min", "value": 77}, "end_location": {"lat": 29.8019199, "lng": -95.45428179999999}, "html_instructions": "Walk to 4400 W 18th St, Houston, TX 77092, USA", "polyline": {"points": "es{tDrlreQ?z@YEc@E?G@Q@a@"}, "start_location": {"lat": 29.8016264, "lng": -95.454342}, "steps": [{"distance": {"text": "95 ft", "value": 29}, "duration": {"text": "1 min", "value": 22}, "end_location": {"lat": 29.8016252, "lng": -95.45463819999999}, "html_instructions": "Head <b>west</b> on <b>W 18th St</b>/<wbr/><b>NW Mall</b>", "polyline": {"points": "es{tDrlreQ?z@"}, "start_location": {"lat": 29.8016264, "lng": -95.454342}, "travel_mode": "WALKING"}, {"distance": {"text": "131 ft", "value": 40}, "duration": {"text": "1 min", "value": 33}, "end_location": {"lat": 29.8019405, "lng": -95.4545788}, "html_instructions": "Turn <b>right</b><div style=\"font-size:0.9em\">Restricted usage road</div>", "maneuver": "turn-right", "polyline": {"points": "es{tDnnreQYEc@E"}, "start_location": {"lat": 29.8016252, "lng": -95.45463819999999}, "travel_mode": "WALKING"}, {"distance": {"text": "95 ft", "value": 29}, "duration": {"text": "1 min", "value": 22}, "end_location": {"lat": 29.8019199, "lng": -95.45428179999999}, "html_instructions": "Turn <b>right</b><div style=\"font-size:0.9em\">Restricted usage road</div><div style=\"font-size:0.9em\">Destination will be on the left</div>", "maneuver": "turn-right", "polyline": {"points": "cu{tDbnreQ?G@Q@a@"}, "start_location": {"lat": 29.8019405, "lng": -95.4545788}, "travel_mode": "WALKING"}], "travel_mode": "WALKING"}], "traffic_speed_entry": [], "via_waypoint": []}], "overview_polyline": {"points": "up`uDxxpeQC}CG@a@?w@@I??SA?GAAm@A]?Mc@?kIHkHByAHgBDoBBCJ]h@QLIB?RE?AcD@}DP}AZyANi@v@}AxBaElBkD`EoHxEwIbA}BZgAP{@JcADkA@oAG[?gAAeBCaMCiJ?uAOuB{@mIKeBK_DE_CAeEBuAFoAZmCh@wCb@_Bh@cBn@kCbAgGTeBb@oENyBHaCBWA{DCsAe@iIGoADSEeAAuAGwJF?DxE?\\?R`A??B?M~BAlMI`HEdKEpPMjLGxBTj@NVJ`Ab@tAp@|DzBn@\\fAf@r@Tb@L`ALh@Dv@BdCAxHEnHC|NIdB?z@A@N?G^AA}AE?L?BjM@bG?xH@lG?hJBrL@bABZLp@Vp@^l@bDtDf@j@^f@BJFNf@v@P`@Jr@D\\@h@@bA@|BIpB@f@?~A?bA?tB@hB@pC?lE@hNBdd@Df\\A`HDbIA`FApI@lB?xCDpE@`HG??z@YEc@E?GBs@"}, "summary": "", "warnings": ["Walking directions are in beta. Use caution \u2013 This route may be missing sidewalks or pedestrian paths."], "waypoint_order": []}, {"bounds": {"northeast": {"lat": 29.8268581, "lng": -95.44003389999999}, "southwest": {"lat": 29.8016283, "lng": -95.45428179999999}}, "copyrights": "Map data \u00a92022", "legs": [{"distance": {"text": "2.5 mi", "value": 4026}, "duration": {"text": "51 mins", "value": 3051}, "end_address": "4400 W 18th St, Houston, TX 77092, USA", "end_location": {"lat": 29.8019199, "lng": -95.45428179999999}, "start_address": "1910 Lamonte Ln, Houston, TX 77018, USA", "start_location": {"lat": 29.8268344, "lng": -95.4460489}, "steps": [{"distance": {"text": "2.5 mi", "value": 4026}, "duration": {"text": "51 mins", "value": 3050}, "end_location": {"lat": 29.8019199, "lng": -95.45428179999999}, "html_instructions": "Walk to 4400 W 18th St, Houston, TX 77092, USA", "polyline": {"points": "up`uDxxpeQC}C?e@Ag@?a@L?vCCL?H?d@?t@Ab@?L?L?tCCL?tCAL?vCEL?vCCLAl@?PBvABL?zAAb@?b@?P?fA?Z?d@?Z@b@Al@?L?ZAJ?t@CRA\\Ad@Gd@Id@Kb@MHCHCLEPEhB}@JIxAw@lB_Aj@W^OVGNGTG~@Qf@I`AKj@Gn@E^C\\Gh@Gn@MTCj@Mt@S^Kv@WFCdBm@LG|@]v@[b@SPG\\OZQZS`@[NQHKHKPWj@}@d@u@HONj@Rn@`@hATj@DPHRDPTdABFFLJZLZFRb@lAFLr@hBTf@b@bALVl@fAV\\V^TVRXn@t@f@h@n@l@pAhAFDh@d@`@\\^\\n@h@BBVTh@d@n@h@HFPPv@t@t@l@DDr@b@n@XVHZLn@Jr@J\\DD@P@?N?p@?X?zB?`A?dB?l@?X?H?^?Z?@?J?Z?h@?f@@j@?X?P?j@?h@BnAAV@|@@hBYDe@F@D@R@f@?D"}, "start_location": {"lat": 29.8268344, "lng": -95.4460489}, "steps": [{"distance": {"text": "440 ft", "value": 134}, "duration": {"text": "2 mins", "value": 98}, "end_location": {"lat": 29.8267862, "lng": -95.4446983}, "html_instructions": "Head <b>east</b> on <b>Lamonte Ln</b> toward <b>Rosslyn Rd</b>", "polyline": {"points": "up`uDxxpeQC}C?e@Ag@?a@L?"}, "start_location": {"lat": 29.8268344, "lng": -95.4460489}, "travel_mode": "WALKING"}, {"distance": {"text": "0.4 mi", "value": 582}, "duration": {"text": "7 mins", "value": 429}, "end_location": {"lat": 29.8215977, "lng": -95.4445758}, "html_instructions": "Turn <b>right</b> onto <b>Rosslyn Rd</b>", "maneuver": "turn-right", "polyline": {"points": "mp`uDjppeQvCCL?H?d@?t@Ab@?L?L?tCCL?tCAL?vCEL?vCCLAl@?"}, "start_location": {"lat": 29.8267862, "lng": -95.4446983}, "travel_mode": "WALKING"}, {"distance": {"text": "387 ft", "value": 118}, "duration": {"text": "1 min", "value": 85}, "end_location": {"lat": 29.8205383, "lng": -95.44460810000001}, "html_instructions": "Slight <b>right</b> to stay on <b>Rosslyn Rd</b>", "maneuver": "turn-slight-right", "polyline": {"points": "_p_uDropeQPBvABL?zAA"}, "start_location": {"lat": 29.8215977, "lng": -95.4445758}, "travel_mode": "WALKING"}, {"distance": {"text": "0.9 mi", "value": 1405}, "duration": {"text": "18 mins", "value": 1057}, "end_location": {"lat": 29.8088548, "lng": -95.44003389999999}, "html_instructions": "Continue onto <b>E T C Jester Blvd</b>", "polyline": {"points": "ki_uDxopeQb@?b@?P?fA?Z?d@?Z@b@Al@?L?ZAJ?t@CRA\\Ad@Gd@Id@Kb@MHCHCLEPEhB}@JIxAw@lB_Aj@W^OVGNGTG~@Qf@I`AKj@Gn@E^C\\Gh@Gn@MTCj@Mt@S^Kv@WFCdBm@LG|@]v@[b@SPG\\OZQZS`@[NQHKHKPWj@}@d@u@HO"}, "start_location": {"lat": 29.8205383, "lng": -95.44460810000001}, "travel_mode": "WALKING"}, {"distance": {"text": "0.7 mi", "value": 1187}, "duration": {"text": "15 mins", "value": 911}, "end_location": {"lat": 29.8016696, "lng": -95.4484514}, "html_instructions": "Turn <b>right</b> onto <b>N Loop W</b>/<wbr/><b>N Loop W Fwy</b>", "maneuver": "turn-right", "polyline": {"points": "i`}tDdsoeQNj@Rn@`@hATj@DPHRDPTdABFFLJZLZFRb@lAFLr@hBTf@b@bALVl@fAV\\V^TVRXn@t@f@h@n@l@pAhAFDh@d@`@\\^\\n@h@BBVTh@d@n@h@HFPPv@t@t@l@DDr@b@n@XVHZLn@Jr@J\\DD@P@?N"}, "start_location": {"lat": 29.8088548, "lng": -95.44003389999999}, "travel_mode": "WALKING"}, {"distance": {"text": "0.3 mi", "value": 524}, "duration": {"text": "7 mins", "value": 409}, "end_location": {"lat": 29.8016283, "lng": -95.4538499}, "html_instructions": "Turn <b>right</b> onto <b>W 18th St</b>", "maneuver": "turn-right", "polyline": {"points": "ms{tDxgqeQ?p@?X?zB?`A?dB?l@?X?H?^?Z?@?J?Z?h@?f@@j@?X?P?j@?h@BnAAV@|@@hB"}, "start_location": {"lat": 29.8016696, "lng": -95.4484514}, "travel_mode": "WALKING"}, {"distance": {"text": "131 ft", "value": 40}, "duration": {"text": "1 min", "value": 34}, "end_location": {"lat": 29.80194599999999, "lng": -95.4539156}, "html_instructions": "Turn <b>right</b><div style=\"font-size:0.9em\">Restricted usage road</div>", "maneuver": "turn-right", "polyline": {"points": "es{tDpireQYDe@F"}, "start_location": {"lat": 29.8016283, "lng": -95.4538499}, "travel_mode": "WALKING"}, {"distance": {"text": "118 ft", "value": 36}, "duration": {"text": "1 min", "value": 27}, "end_location": {"lat": 29.8019199, "lng": -95.45428179999999}, "html_instructions": "Turn <b>left</b><div style=\"font-size:0.9em\">Restricted usage road</div><div style=\"font-size:0.9em\">Destination will be on the right</div>", "maneuver": "turn-left", "polyline": {"points": "eu{tD~ireQ@D@R@f@?D"}, "start_location": {"lat": 29.80194599999999, "lng": -95.4539156}, "travel_mode": "WALKING"}], "travel_mode": "WALKING"}], "traffic_speed_entry": [], "via_waypoint": []}], "overview_polyline": {"points": "up`uDxxpeQEmG|DCtMGjIIz@APBvABhBAfA?zC?zB?pBGbAIjAUdA[zBcAdBaAxCwAv@Wd@OfB[|D]lCa@`Ba@vAc@xDwAjCgAv@e@p@m@pAmBn@eAb@zAfAzCZvAJTdAxCtBbFz@~An@|@h@p@vA~ArDbDpFvEdCzBr@b@n@Xr@VfC^P@?N?jA?pI?~A@rE@|DBfD_ALDfA"}, "summary": "E T C Jester Blvd and N Loop W/N Loop W Fwy", "warnings": ["Walking directions are in beta. Use caution \u2013 This route may be missing sidewalks or pedestrian paths."], "waypoint_order": []}], "status": "OK"}