{"geocoded_waypoints": [{"geocoder_status": "OK", "place_id": "ChIJrUVbbvvBQIYRDuIoVXVomE4", "types": ["establishment", "point_of_interest", "primary_school", "school"]}, {"geocoder_status": "OK", "place_id": "ChIJ9_tphxzHQIYRIMyPy_d3VZU", "types": ["establishment", "point_of_interest"]}], "routes": [{"bounds": {"northeast": {"lat": 29.8041315, "lng": -95.3869994}, "southwest": {"lat": 29.682229, "lng": -95.4690918}}, "copyrights": "Map data \u00a92022", "legs": [{"arrival_time": {"text": "4:34pm", "time_zone": "America/Chicago", "value": 1642026897}, "departure_time": {"text": "3:05pm", "time_zone": "America/Chicago", "value": 1642021516}, "distance": {"text": "16.8 mi", "value": 27041}, "duration": {"text": "1 hour 30 mins", "value": 5381}, "end_address": "4400 W 18th St, Houston, TX 77092, USA", "end_location": {"lat": 29.8019199, "lng": -95.45428179999999}, "start_address": "8814 S Rice Ave, Houston, TX 77096, USA", "start_location": {"lat": 29.6823455, "lng": -95.4690918}, "steps": [{"distance": {"text": "0.5 mi", "value": 874}, "duration": {"text": "11 mins", "value": 649}, "end_location": {"lat": 29.6890314, "lng": -95.4680369}, "html_instructions": "Walk to Beechnut St @ S Rice Ave", "polyline": {"points": "uidtDxhueQ?CAC?I?a@?C@E@A@C@ABADCFC?CAeA_AAMA]AsAIuAKe@GGC]GOCUCO?A?g@Ga@EQAWAMAyC?M?oC?I@Q@qC@M?uC@M?e@Ag@?K?Q?OAQCKC?V"}, "start_location": {"lat": 29.6823455, "lng": -95.4690918}, "steps": [{"distance": {"text": "167 ft", "value": 51}, "duration": {"text": "1 min", "value": 37}, "end_location": {"lat": 29.682229, "lng": -95.4686936}, "html_instructions": "Head <b>east</b> toward <b>Birdwood Rd</b>", "polyline": {"points": "uidtDxhueQ?CAC?I?a@?C@E@A@C@ABADCFC"}, "start_location": {"lat": 29.6823455, "lng": -95.4690918}, "travel_mode": "WALKING"}, {"distance": {"text": "125 ft", "value": 38}, "duration": {"text": "1 min", "value": 29}, "end_location": {"lat": 29.6822358, "lng": -95.4683232}, "html_instructions": "Turn <b>left</b> onto <b>Birdwood Rd</b>", "maneuver": "turn-left", "polyline": {"points": "}hdtDhfueQ?CAeA"}, "start_location": {"lat": 29.682229, "lng": -95.4686936}, "travel_mode": "WALKING"}, {"distance": {"text": "0.5 mi", "value": 768}, "duration": {"text": "10 mins", "value": 571}, "end_location": {"lat": 29.6890327, "lng": -95.46791549999999}, "html_instructions": "Turn <b>left</b> onto <b>S Rice Ave</b>", "maneuver": "turn-left", "polyline": {"points": "_idtD~cueQ_AAMA]AsAIuAKe@GGC]GOCUCO?A?g@Ga@EQAWAMAyC?M?oC?I@Q@qC@M?uC@M?e@Ag@?K?Q?OAQCKC"}, "start_location": {"lat": 29.6822358, "lng": -95.4683232}, "travel_mode": "WALKING"}, {"distance": {"text": "56 ft", "value": 17}, "duration": {"text": "1 min", "value": 12}, "end_location": {"lat": 29.6890314, "lng": -95.4680369}, "html_instructions": "Turn <b>left</b> onto <b>Beechnut St</b>", "maneuver": "turn-left", "polyline": {"points": "msetDnaueQ?V"}, "start_location": {"lat": 29.6890327, "lng": -95.46791549999999}, "travel_mode": "WALKING"}], "travel_mode": "WALKING"}, {"distance": {"text": "4.4 mi", "value": 7160}, "duration": {"text": "17 mins", "value": 1014}, "end_location": {"lat": 29.704328, "lng": -95.40361999999999}, "html_instructions": "Bus towards Eastwood TC", "polyline": {"points": "osetDfbueQE??c@?cA?aA?i@?W?_@AO?a@?u@?i@A_C?c@?_@?}@A{BAi@?]A_A?_BCaD?c@?u@AeC?uA?{CA{@?cA@q@?_A@s@?g@HkAD{@?WBy@Ao@AyAAgB?UCsE?W?i@Ac@AcDC_D@Q?cAAo@ASAYEs@COEc@Gk@Ku@EWQw@EQEW[qAE]CQEWEe@Ee@Ak@Ae@AU?i@ASAaC?u@?EAwFAE?AA??U?]CY?IAOE[E_@Ke@G[Ka@KYM[KWKSMWMQOSQUQUa@c@AAMOGKQYKQCIKUIWM]Ig@EUAICUCWAYAS?U?a@AgACuAAs@?WB]?o@?m@A_B?cC?a@Ac@?GEk@Ei@OkAMy@I[Og@Uo@KU?CKWWk@MYGQGUGSGWI[Ge@G_@E[Eo@Ak@?Y?E?e@@SBc@?OX}D@K@_@@I?[?g@?ECi@Gk@E_@GYEUSk@CIOc@AAEIO[KQCESYcAuAQWq@{@]a@KKOM_@]a@]u@m@cCoB[WWQk@c@w@m@a@_@OKa@e@W]]g@S]KWAAO_@M_@GUCKCMEQMo@?CGq@ASCWAa@?cA?IBs@H}@@O@AHYx@aEZyAVoAFk@Dg@?M@W?G?MCk@Es@Iy@AEKg@GSGQK[Wm@EKw@kB[q@GIOc@IFEISg@Oc@K_@QYI]Mq@OgAIiAAgA?gAFyCDgAHeB`@}DJ{@n@kFiBuAFKAAKISMe@_@IGMIo@g@i@_@SOyAiAOKMK}AiAGEEEIC_@UQMq@g@g@_@MMaC_BcD_CqCoBcBiAUUADa@YJWtAaDVq@Nq@L{@Bq@}@GKAMEKKEQ?QBOTq@BMAUBMBK@KB]EIKEa@H{@LA?@J"}, "start_location": {"lat": 29.689036, "lng": -95.468037}, "transit_details": {"arrival_stop": {"location": {"lat": 29.704328, "lng": -95.40361999999999}, "name": "Texas Medical Center Transit Center"}, "arrival_time": {"text": "3:33pm", "time_zone": "America/Chicago", "value": 1642023180}, "departure_stop": {"location": {"lat": 29.689036, "lng": -95.468037}, "name": "Beechnut St @ S Rice Ave"}, "departure_time": {"text": "3:16pm", "time_zone": "America/Chicago", "value": 1642022166}, "headsign": "Eastwood TC", "line": {"agencies": [{"name": "Metropolitan Transit Authority of Harris County", "phone": "1 (713) 635-4000", "url": "http://www.ridemetro.org/"}], "color": "#004080", "name": "Beechnut", "short_name": "4", "text_color": "#ffffff", "url": "https://www.ridemetro.org/MetroPDFs/Schedules/BusSchedules/n004-Beechnut.pdf", "vehicle": {"icon": "//maps.gstatic.com/mapfiles/transit/iw2/6/bus2.png", "name": "Bus", "type": "BUS"}}, "num_stops": 24, "trip_short_name": "BEECHNUT"}, "travel_mode": "TRANSIT"}, {"distance": {"text": "7.7 mi", "value": 12332}, "duration": {"text": "33 mins", "value": 1971}, "end_location": {"lat": 29.803849, "lng": -95.387502}, "html_instructions": "Bus towards Greenspoint TC", "polyline": {"points": "ashtDroheQKcA@?`@Ib@GXEBAB@B@@@FF@B@D@D?R?DC^ANKd@Y`AGT?D?H?@?F@H@FBFBFDDDBFBH@B?`AF?PAVQfAW`ASd@Sf@GNGNGNKVGLCFIPa@UQMMOMKKIIIqAgAyBaBa@[EAAAs@g@[Y]Uo@e@kA{@gBiACAEAMAkBqAk@_@c@[GEa@[o@g@_@[iA{@iAy@[YSSmBsAg@_@c@[ECi@a@_@WwAcAaBmAYSECMI_Am@o@c@{AiAkBsAcBoAWQYSkA{@MKm@c@_@YQOUQaAs@CAgBqAi@_@UQ_@W[Ws@i@w@k@eAw@oEcDiBsAECGEECg@]IG]YOMWUcFqDk@a@}AiAWQy@m@]Yo@e@MICCCCEEGG[[?IAIAEAECIEGCGCGQOECCAKEICICKAE?EAK@CBEDEFCFCH?@?@?@?@OPGDE@I?YF]?iA?aB?g@?e@?W?}@@Y?s@?C?c@?c@@M?c@?S@K?kA?sA?qC@M?m@@oB@Y?}@@A?Q?u@?m@?GECCS?]?e@?Q@G?M?C?G?[?M?I@GAO?]@KJG?E?q@?e@@[?Q?O?I?S?cB?G?g@?i@?S?_@?e@?o@@E?]@aA?w@@o@?Q@eC@Q?qB?w@?wB@k@@Q?}@?kB@oC@Y@i@?_B?a@?_A?_@?k@?e@?[?i@?eCBGESCWAaABc@?O?o@?U?M?[?c@Ba@BK@M@C@G@SDIBe@Nu@Rc@L[JKDMFKDaAPi@DG@Q@U@s@BiA@q@@W@iB?aA@M?e@?]@_A@K?wA@o@@cA@_A?qBBU@uCBu@@g@?c@?c@?_@?c@@cC@e@@yA?a@?_@@_@?yA@]@cA?C@e@@c@@o@BW@K?S@Y?i@DA?Y@Q@I@G@QBG@e@DU@g@@m@@a@?C?mABaB?Y@[?]?W?gAAS?c@?W?_@AWCC?M?C?WAc@@c@?c@GQC[?I?Q?Q?a@BQ@?@Q?A?A?Q@EAA?E?U?A?KAW?e@AqBG_@Ca@AO?o@Cm@?[?u@AoEBQ?]?O?cACYCYA]C_@GUEg@Gg@MA?]KOEu@UQCiBk@s@WSG_@OKEA?aBm@a@OEC[KEAAAYGOEQEA?SEKCGAOCKA_@EkBEk@Ai@?a@?sB@W?QASCQAQCAAi@IQEMCICOG_@OAAMGMG[QMGOKEEIIUOc@_@CCUQACOOu@q@ECq@q@AASSw@u@?AYYUS_@_@WUu@s@IIA??AIGEEKKCAGEGCIGQIQK]OAAYKEAOGWIYGc@IQCQCQAQAE?]CG?M?iAD}@H_@Hq@PgAZSFa@NEBG@GDIBMDC@E@K@Y@Q@Q?K?A?A?A@CBCDU?aB?}CB[?uDBkB@[?K?Q?Q?aA@y@?{@?qA@{A?K?e@@kA@i@@[?gA?g@@E?Y?E?a@?yA@S?m@?Y?uB@S@q@?_@BE?Q?M@w@?MAi@?k@?c@?O?_A@I?M@o@@mB?Y@S?wB@o@@w@?O?Q?}A?k@@i@@}@?c@@y@?wA@mC@Q?oA@Y?U@sB?W@qB?c@@I?yA@m@?cA?W@gB?_@?w@?sA@wA@Q?}@@sAIc@HFa@D]B]@QH?"}, "start_location": {"lat": 29.704328, "lng": -95.40361999999999}, "transit_details": {"arrival_stop": {"location": {"lat": 29.803849, "lng": -95.387502}, "name": "W Cavalcade St @ N Main St"}, "arrival_time": {"text": "4:12pm", "time_zone": "America/Chicago", "value": 1642025571}, "departure_stop": {"location": {"lat": 29.704328, "lng": -95.40361999999999}, "name": "Texas Medical Center Transit Center"}, "departure_time": {"text": "3:40pm", "time_zone": "America/Chicago", "value": 1642023600}, "headsign": "Greenspoint TC", "line": {"agencies": [{"name": "Metropolitan Transit Authority of Harris County", "phone": "1 (713) 635-4000", "url": "http://www.ridemetro.org/"}], "color": "#004080", "name": "Airline / Montrose", "short_name": "56", "text_color": "#ffffff", "url": "https://www.ridemetro.org/MetroPDFs/Schedules/BusSchedules/n056-Airline-Montrose.pdf", "vehicle": {"icon": "//maps.gstatic.com/mapfiles/transit/iw2/6/bus2.png", "name": "Bus", "type": "BUS"}}, "num_stops": 45, "trip_short_name": "AIRLMONT"}, "travel_mode": "TRANSIT"}, {"distance": {"text": "256 ft", "value": 78}, "duration": {"text": "1 min", "value": 77}, "end_location": {"lat": 29.8040987, "lng": -95.3879358}, "html_instructions": "Walk to W Cavalcade St @ N Main St", "polyline": {"points": "ca|tDzjeeQARC\\E\\EROBC?O@DO?A"}, "start_location": {"lat": 29.8038626, "lng": -95.38750189999999}, "steps": [{"distance": {"text": "180 ft", "value": 55}, "duration": {"text": "1 min", "value": 40}, "end_location": {"lat": 29.8040284, "lng": -95.388019}, "html_instructions": "Head <b>west</b> on <b>W Cavalcade St</b> toward <b>N Main St</b>", "polyline": {"points": "ca|tDzjeeQARC\\E\\EROB"}, "start_location": {"lat": 29.8038626, "lng": -95.38750189999999}, "travel_mode": "WALKING"}, {"distance": {"text": "36 ft", "value": 11}, "duration": {"text": "1 min", "value": 18}, "end_location": {"lat": 29.8041286, "lng": -95.38803279999999}, "html_instructions": "Turn <b>right</b> onto <b>N Main St</b>", "maneuver": "turn-right", "polyline": {"points": "eb|tDbneeQC?O@"}, "start_location": {"lat": 29.8040284, "lng": -95.388019}, "travel_mode": "WALKING"}, {"distance": {"text": "39 ft", "value": 12}, "duration": {"text": "1 min", "value": 19}, "end_location": {"lat": 29.8040987, "lng": -95.3879358}, "html_instructions": "Turn <b>right</b> onto <b>W Cavalcade St</b>", "maneuver": "turn-right", "polyline": {"points": "yb|tDdneeQDO?A"}, "start_location": {"lat": 29.8041286, "lng": -95.38803279999999}, "travel_mode": "WALKING"}], "travel_mode": "WALKING"}, {"distance": {"text": "4.0 mi", "value": 6499}, "duration": {"text": "14 mins", "value": 864}, "end_location": {"lat": 29.80163, "lng": -95.454342}, "html_instructions": "Bus towards Memorial City", "polyline": {"points": "wb|tDpmeeQJBA@ETC\\Af@?P?P?LA`@@\\BpA?^@j@?H@tA?n@?b@@b@?X?P?V@`A?v@@dA?V?vA@T?lB@jB@tA?XB|E?~A@zB@nB?V?V@t@?L?R?L@R?N?f@?h@@|@?\\?d@?b@@n@?pA@|B?d@?`@@t@?T?pA@v@@rA?v@@bD@~@?nA@H?tB@^@dC?P?j@@x@?x@?t@@P?dA@|A?\\?^@dC@zB?xA?N@V?fA@`ABfE?tABtJ?pB@rA?r@?H?|@?jB?@?j@@h@AL?\\?J@f@?|B?h@?|@?n@?N?|G?J@tE?d@@dC?p@AL@J?V@P@H?B?D@F@HBH@JDPDLDLDHDJDJHLFHFHLL?@TVTVn@v@NRh@h@NPVX^f@BJBFBFf@v@P`@DZDVBT@F?D@F?H?P@P?X?N?F?j@@pAIpB@f@?V?fA?j@?V@h@AjA?h@@~@?b@@^Af@@d@?X?bA?jA?b@@nC?J?d@Aj@?v@?P@dB?jA?bC?`A?\\@dH?`D?dC@fE?jD?T@`F@vB?jD?vC?X?`E@V@zCAb@?fAAX@fB@fA?T@|B?l@A~A?x@?XAzB?`A?dB?l@?P?F?H@^?Z?@?H?@?Z?h@?f@?j@?^?t@@j@BnAAV@|@@fB?bBG?"}, "start_location": {"lat": 29.804119, "lng": -95.38793299999999}, "transit_details": {"arrival_stop": {"location": {"lat": 29.80163, "lng": -95.454342}, "name": "W 18th St @ Northwest Fwy"}, "arrival_time": {"text": "4:33pm", "time_zone": "America/Chicago", "value": 1642026820}, "departure_stop": {"location": {"lat": 29.804119, "lng": -95.38793299999999}, "name": "W Cavalcade St @ N Main St"}, "departure_time": {"text": "4:19pm", "time_zone": "America/Chicago", "value": 1642025956}, "headsign": "Memorial City", "line": {"agencies": [{"name": "Metropolitan Transit Authority of Harris County", "phone": "1 (713) 635-4000", "url": "http://www.ridemetro.org/"}], "color": "#004080", "name": "Long Point / Cavalcade", "short_name": "26", "text_color": "#ffffff", "url": "https://www.ridemetro.org/MetroPDFs/Schedules/BusSchedules/n026-Long-Point-Cavalcade.pdf", "vehicle": {"icon": "//maps.gstatic.com/mapfiles/transit/iw2/6/bus2.png", "name": "Bus", "type": "BUS"}}, "num_stops": 24, "trip_short_name": "LONGPOINT"}, "travel_mode": "TRANSIT"}, {"distance": {"text": "322 ft", "value": 98}, "duration": {"text": "1 min", "value": 77}, "end_location": {"lat": 29.8019199, "lng": -95.45428179999999}, "html_instructions": "Walk to 4400 W 18th St, Houston, TX 77092, USA", "polyline": {"points": "es{tDrlreQ?z@YEc@E?G@Q@a@"}, "start_location": {"lat": 29.8016264, "lng": -95.454342}, "steps": [{"distance": {"text": "95 ft", "value": 29}, "duration": {"text": "1 min", "value": 22}, "end_location": {"lat": 29.8016252, "lng": -95.45463819999999}, "html_instructions": "Head <b>west</b> on <b>W 18th St</b>/<wbr/><b>NW Mall</b>", "polyline": {"points": "es{tDrlreQ?z@"}, "start_location": {"lat": 29.8016264, "lng": -95.454342}, "travel_mode": "WALKING"}, {"distance": {"text": "131 ft", "value": 40}, "duration": {"text": "1 min", "value": 33}, "end_location": {"lat": 29.8019405, "lng": -95.4545788}, "html_instructions": "Turn <b>right</b><div style=\"font-size:0.9em\">Restricted usage road</div>", "maneuver": "turn-right", "polyline": {"points": "es{tDnnreQYEc@E"}, "start_location": {"lat": 29.8016252, "lng": -95.45463819999999}, "travel_mode": "WALKING"}, {"distance": {"text": "95 ft", "value": 29}, "duration": {"text": "1 min", "value": 22}, "end_location": {"lat": 29.8019199, "lng": -95.45428179999999}, "html_instructions": "Turn <b>right</b><div style=\"font-size:0.9em\">Restricted usage road</div><div style=\"font-size:0.9em\">Destination will be on the left</div>", "maneuver": "turn-right", "polyline": {"points": "cu{tDbnreQ?G@Q@a@"}, "start_location": {"lat": 29.8019405, "lng": -95.4545788}, "travel_mode": "WALKING"}], "travel_mode": "WALKING"}], "traffic_speed_entry": [], "via_waypoint": []}], "overview_polyline": {"points": "uidtDxhueQAQ?e@BGLKFC?CAeA_AAk@CiDU{AWiDWaI@gIDgBAa@A]GAVE??c@?eC?aAAgCAmFIgRAmL?qF@{ANgCBqACiCEiJGqK@uACcAQaCSaBWoAm@yCUuBEqCIqMCwAGk@QeAS}@Yu@s@uAuAcBOQYe@e@iAWeAG_@K{AEuEAkABmAAsHAk@KuA]eCYcAm@aBu@mBOk@QaAM{@G{A@yA^}FBi@?cACo@MkAMo@Wu@g@kAgBgCcAsAi@m@gCwBcF}DyAmAq@q@u@eA_@u@g@wA[{AMaBAeBB}@JmAJ[tA{G^{BFuACy@OmB]sAaBaEc@{@Oc@IFYq@[cAQYI]]yBIiAAgAFaFNmDl@yFn@kFiBuADMoA_A{BaBuEkDw@e@yBcBeH_FuFyDUUADa@YJWlBsE\\mBBq@}@GYGKKEQBa@X_AAUBMBKDi@EIKE}AV?JIcAbBYFBHHBH@XEt@m@bC@\\N\\LFL@`AFAh@i@hCg@lAc@fAKTIPa@UQM[[USqAgAyBaBg@]u@i@y@o@{BaBkBkASCcEsC{D{CeBsAaCgB{BaBsF}DcC_BcI_GaD_CiCoBsIkGeMcJm@g@{FgE{EkD_BmAm@m@E_@Qa@WSOGe@IEAODKLGP?FWVO@YF]?kD?cD@_FBcODgC@m@?GEWC}A@u@?o@?]@KJG?w@?aA@_A?}D?iC@wJFySFwJ@eA?eCBGEk@EeBBcB?_ABm@Dm@JiCt@aA^kBVYBeEHqEB{KHsIJoC?cNHkCDwBFyAF}@FuAL{BBeFDqCA{AAm@C{@?c@?c@Gm@C[?eAFg@@oBEcEMoDEoGBuCMu@MoAUeBg@QCiBk@gA_@oCcAiAa@}@Ui@K[EkCKkF?i@Ae@EoAUgA_@y@c@m@c@sAeAmAiAoEmEuBoBaB{@gA_@aBYgAGU?gCNmD~@w@Za@LiADO?EDCDU?_GBqEBeD@iLD{TJeADeAAuA?}B@eED_LDmOHuLFuNDoA@sAIc@HL_ADo@F?Ep@Kp@SBO@DOCCHDIr@AxABpDDnHDjMNf^JxZNt_@FlPHt]@bH@dX?jFD~@BZPt@Vn@f@n@dDxDv@`AFRj@~@V|@Jz@Bt@?|A@pAIpB@~@@tDAtB@bB@fC@bI?|MBv`@BxI?bIBnKAlFBhGCnH?fF@vBBfJBdD?bBG??z@}@KB{@"}, "summary": "", "warnings": ["Walking directions are in beta. Use caution \u2013 This route may be missing sidewalks or pedestrian paths."], "waypoint_order": []}, {"bounds": {"northeast": {"lat": 29.803869, "lng": -95.4031601}, "southwest": {"lat": 29.682229, "lng": -95.4690918}}, "copyrights": "Map data \u00a92022", "legs": [{"arrival_time": {"text": "4:34pm", "time_zone": "America/Chicago", "value": 1642026897}, "departure_time": {"text": "3:05pm", "time_zone": "America/Chicago", "value": 1642021516}, "distance": {"text": "15.7 mi", "value": 25226}, "duration": {"text": "1 hour 30 mins", "value": 5381}, "end_address": "4400 W 18th St, Houston, TX 77092, USA", "end_location": {"lat": 29.8019199, "lng": -95.45428179999999}, "start_address": "8814 S Rice Ave, Houston, TX 77096, USA", "start_location": {"lat": 29.6823455, "lng": -95.4690918}, "steps": [{"distance": {"text": "0.5 mi", "value": 874}, "duration": {"text": "11 mins", "value": 649}, "end_location": {"lat": 29.6890314, "lng": -95.4680369}, "html_instructions": "Walk to Beechnut St @ S Rice Ave", "polyline": {"points": "uidtDxhueQ?CAC?I?a@?C@E@A@C@ABADCFC?CAeA_AAMA]AsAIuAKe@GGC]GOCUCO?A?g@Ga@EQAWAMAyC?M?oC?I@Q@qC@M?uC@M?e@Ag@?K?Q?OAQCKC?V"}, "start_location": {"lat": 29.6823455, "lng": -95.4690918}, "steps": [{"distance": {"text": "167 ft", "value": 51}, "duration": {"text": "1 min", "value": 37}, "end_location": {"lat": 29.682229, "lng": -95.4686936}, "html_instructions": "Head <b>east</b> toward <b>Birdwood Rd</b>", "polyline": {"points": "uidtDxhueQ?CAC?I?a@?C@E@A@C@ABADCFC"}, "start_location": {"lat": 29.6823455, "lng": -95.4690918}, "travel_mode": "WALKING"}, {"distance": {"text": "125 ft", "value": 38}, "duration": {"text": "1 min", "value": 29}, "end_location": {"lat": 29.6822358, "lng": -95.4683232}, "html_instructions": "Turn <b>left</b> onto <b>Birdwood Rd</b>", "maneuver": "turn-left", "polyline": {"points": "}hdtDhfueQ?CAeA"}, "start_location": {"lat": 29.682229, "lng": -95.4686936}, "travel_mode": "WALKING"}, {"distance": {"text": "0.5 mi", "value": 768}, "duration": {"text": "10 mins", "value": 571}, "end_location": {"lat": 29.6890327, "lng": -95.46791549999999}, "html_instructions": "Turn <b>left</b> onto <b>S Rice Ave</b>", "maneuver": "turn-left", "polyline": {"points": "_idtD~cueQ_AAMA]AsAIuAKe@GGC]GOCUCO?A?g@Ga@EQAWAMAyC?M?oC?I@Q@qC@M?uC@M?e@Ag@?K?Q?OAQCKC"}, "start_location": {"lat": 29.6822358, "lng": -95.4683232}, "travel_mode": "WALKING"}, {"distance": {"text": "56 ft", "value": 17}, "duration": {"text": "1 min", "value": 12}, "end_location": {"lat": 29.6890314, "lng": -95.4680369}, "html_instructions": "Turn <b>left</b> onto <b>Beechnut St</b>", "maneuver": "turn-left", "polyline": {"points": "msetDnaueQ?V"}, "start_location": {"lat": 29.6890327, "lng": -95.46791549999999}, "travel_mode": "WALKING"}], "travel_mode": "WALKING"}, {"distance": {"text": "4.4 mi", "value": 7160}, "duration": {"text": "17 mins", "value": 1014}, "end_location": {"lat": 29.704328, "lng": -95.40361999999999}, "html_instructions": "Bus towards Eastwood TC", "polyline": {"points": "osetDfbueQE??c@?cA?aA?i@?W?_@AO?a@?u@?i@A_C?c@?_@?}@A{BAi@?]A_A?_BCaD?c@?u@AeC?uA?{CA{@?cA@q@?_A@s@?g@HkAD{@?WBy@Ao@AyAAgB?UCsE?W?i@Ac@AcDC_D@Q?cAAo@ASAYEs@COEc@Gk@Ku@EWQw@EQEW[qAE]CQEWEe@Ee@Ak@Ae@AU?i@ASAaC?u@?EAwFAE?AA??U?]CY?IAOE[E_@Ke@G[Ka@KYM[KWKSMWMQOSQUQUa@c@AAMOGKQYKQCIKUIWM]Ig@EUAICUCWAYAS?U?a@AgACuAAs@?WB]?o@?m@A_B?cC?a@Ac@?GEk@Ei@OkAMy@I[Og@Uo@KU?CKWWk@MYGQGUGSGWI[Ge@G_@E[Eo@Ak@?Y?E?e@@SBc@?OX}D@K@_@@I?[?g@?ECi@Gk@E_@GYEUSk@CIOc@AAEIO[KQCESYcAuAQWq@{@]a@KKOM_@]a@]u@m@cCoB[WWQk@c@w@m@a@_@OKa@e@W]]g@S]KWAAO_@M_@GUCKCMEQMo@?CGq@ASCWAa@?cA?IBs@H}@@O@AHYx@aEZyAVoAFk@Dg@?M@W?G?MCk@Es@Iy@AEKg@GSGQK[Wm@EKw@kB[q@GIOc@IFEISg@Oc@K_@QYI]Mq@OgAIiAAgA?gAFyCDgAHeB`@}DJ{@n@kFiBuAFKAAKISMe@_@IGMIo@g@i@_@SOyAiAOKMK}AiAGEEEIC_@UQMq@g@g@_@MMaC_BcD_CqCoBcBiAUUADa@YJWtAaDVq@Nq@L{@Bq@}@GKAMEKKEQ?QBOTq@BMAUBMBK@KB]EIKEa@H{@LA?@J"}, "start_location": {"lat": 29.689036, "lng": -95.468037}, "transit_details": {"arrival_stop": {"location": {"lat": 29.704328, "lng": -95.40361999999999}, "name": "Texas Medical Center Transit Center"}, "arrival_time": {"text": "3:33pm", "time_zone": "America/Chicago", "value": 1642023180}, "departure_stop": {"location": {"lat": 29.689036, "lng": -95.468037}, "name": "Beechnut St @ S Rice Ave"}, "departure_time": {"text": "3:16pm", "time_zone": "America/Chicago", "value": 1642022166}, "headsign": "Eastwood TC", "line": {"agencies": [{"name": "Metropolitan Transit Authority of Harris County", "phone": "1 (713) 635-4000", "url": "http://www.ridemetro.org/"}], "color": "#004080", "name": "Beechnut", "short_name": "4", "text_color": "#ffffff", "url": "https://www.ridemetro.org/MetroPDFs/Schedules/BusSchedules/n004-Beechnut.pdf", "vehicle": {"icon": "//maps.gstatic.com/mapfiles/transit/iw2/6/bus2.png", "name": "Bus", "type": "BUS"}}, "num_stops": 24, "trip_short_name": "BEECHNUT"}, "travel_mode": "TRANSIT"}, {"distance": {"text": "7.9 mi", "value": 12693}, "duration": {"text": "34 mins", "value": 2040}, "end_location": {"lat": 29.803613, "lng": -95.41008699999999}, "html_instructions": "Bus towards N Shepherd P&R", "polyline": {"points": "ashtDroheQFj@kAh@QBKAKKCQ@O?i@?A?e@j@Kn@KDAp@Mr@KPHDPDVERC\\AJCJCL@TCLUp@CN?PDPJJLDhAHCp@Mz@Op@Wp@gAhC?@CFIPEJIPEHELWh@QXINOPSNkAl@OH]PE@MFC@MBS@e@@M?o@A]??|B?vA?^@nG?j@?R?P@b@?~@@rAA`A@n@?h@oA?[?_@?WAsBBQ?Q?eD@uB@S?Y?yAA{@@yC@kC@K?gD?cDB_D@}A?oA@_B@c@?cE@w@@}AAAc@?g@AQCYCg@Iq@E[Gc@Km@Os@Me@IUSu@GUw@oCMc@Uw@cBp@IDkAb@kAf@{@^SHy@ZEBSF_@JKBi@LA@SDWDa@FI@a@F]DWBYBQ@o@DA?M@w@@W@M?K?oA?gA?K?sA@uA@K@iB?s@?iD@yB?S?c@@gB?oCBU@eB@e@?]?eA?S?O?U?aA?i@@A?[?A?Y@k@?]?m@?W?iD@c@@aA@eADcAAQ?aA?S@c@?U@y@Ao@AgB?cA@sA?cA@Q?iD@wA?u@@e@?c@?M?_A@]?y@?y@@Y?K?y@@O?s@?y@?eB@cA?y@@O?K?W?I?c@?E?}ABE?q@?gA?]Aa@G[GSCg@AS@M?Y?a@?m@?_A?c@@S?sC@gA@iA?kD?iB?_@?[?Y?q@@gB?{@?Y@qA?eA?I?uD@i@@_A?Q?O?{@?m@?M?g@@y@@g@@Q?[?{@?OGEAGCEEGCECECGEY[OYEKCECGEQ_AuCAEEIQe@IQCEACGIEGEGGIIIEEOKGEQKMEk@Oo@@M?{@?WIgB?KEC?SAYAU?IA]?SAeA?S?g@AcA@EBIFKFA@CBIHCDGHGXQ@aAJa@Da@DC?}AL]D]DK@KEA?A?I?G?M?MAAAA?C?AAE?CAA?OCC?AAM?WA[FE@E@c@HG@YD_@HeAPKBw@TgABW?C?W?k@@_A@K?[@SBe@Dc@@SBa@?eA@[?M?eA@c@?e@?]?_@@Y?k@?M?qCBg@?Q?M@U?e@?M?qCB]?w@@_@?E@W?e@?mB@gA?k@@]?qB@c@@a@CE@e@@m@?S@kA?cA@aCBM?oC@eA@oA@Y?[?O?a@Bm@?U?o@?e@@I?A?A?y@?M@YAS@O?_@@w@@y@?]?M?YAMAMCOEYIIAa@Kc@Ku@QGACAm@MAAOCIAK?OAM?M?A?I?O?S@M@IBc@Jq@P}@Vg@Jk@Ji@Hc@Be@DE?c@Bs@ByABA?oCBYA}B@I?A?q@@K?E?k@?C?O@u@?S?k@@w@@K?a@?O?[@U?U?U?k@@k@?Y@C?I?S?kC@y@@K?W@[?S?A?W?G?U@S?c@?e@@O?E?[?mCBeA@U?Y?S?U@A?S?aA@_@?e@@Q?S?U?s@?C?W?qB@sB@eBBg@?oBBaGBq@@w@?aB@i@@W@_B@yA@aB@Q?qD@U@gB?eB@eBA_A@?K"}, "start_location": {"lat": 29.704328, "lng": -95.40361999999999}, "transit_details": {"arrival_stop": {"location": {"lat": 29.803613, "lng": -95.41008699999999}, "name": "N Shepherd Dr @ W 20th St"}, "arrival_time": {"text": "4:14pm", "time_zone": "America/Chicago", "value": 1642025640}, "departure_stop": {"location": {"lat": 29.704328, "lng": -95.40361999999999}, "name": "Texas Medical Center Transit Center"}, "departure_time": {"text": "3:40pm", "time_zone": "America/Chicago", "value": 1642023600}, "headsign": "N Shepherd P&R", "line": {"agencies": [{"name": "Metropolitan Transit Authority of Harris County", "phone": "1 (713) 635-4000", "url": "http://www.ridemetro.org/"}], "color": "#004080", "name": "Shepherd", "short_name": "27", "text_color": "#ffffff", "url": "https://www.ridemetro.org/MetroPDFs/Schedules/BusSchedules/n027-Shepherd.pdf", "vehicle": {"icon": "//maps.gstatic.com/mapfiles/transit/iw2/6/bus2.png", "name": "Bus", "type": "BUS"}}, "num_stops": 53, "trip_short_name": "SHEPHERD"}, "travel_mode": "TRANSIT"}, {"distance": {"text": "112 ft", "value": 34}, "duration": {"text": "1 min", "value": 34}, "end_location": {"lat": 29.803842, "lng": -95.41002979999999}, "html_instructions": "Walk to W 20th St @ N Shepherd Dr", "polyline": {"points": "q_|tDdxieQ_@@M??Q"}, "start_location": {"lat": 29.8036121, "lng": -95.410111}, "steps": [{"distance": {"text": "69 ft", "value": 21}, "duration": {"text": "1 min", "value": 15}, "end_location": {"lat": 29.8038391, "lng": -95.4101207}, "html_instructions": "Head <b>north</b> on <b>N Shepherd Dr</b> toward <b>W 20th St</b>", "polyline": {"points": "q_|tDdxieQ_@@M?"}, "start_location": {"lat": 29.8036121, "lng": -95.410111}, "travel_mode": "WALKING"}, {"distance": {"text": "43 ft", "value": 13}, "duration": {"text": "1 min", "value": 19}, "end_location": {"lat": 29.803842, "lng": -95.41002979999999}, "html_instructions": "Turn <b>right</b> onto <b>W 20th St</b>", "maneuver": "turn-right", "polyline": {"points": "_a|tDfxieQ?Q"}, "start_location": {"lat": 29.8038391, "lng": -95.4101207}, "travel_mode": "WALKING"}], "travel_mode": "WALKING"}, {"distance": {"text": "2.7 mi", "value": 4367}, "duration": {"text": "10 mins", "value": 582}, "end_location": {"lat": 29.80163, "lng": -95.454342}, "html_instructions": "Bus towards Memorial City", "polyline": {"points": "ea|tDvwieQJ?@V?fA@`ABfE?tABtJ?pB@rA?r@?H?|@?jB?@?j@@h@AL?\\?J@f@?|B?h@?|@?n@?N?|G?J@tE?d@@dC?p@AL@J?V@P@H?B?D@F@HBH@JDPDLDLDHDJDJHLFHFHLL?@TVTVn@v@NRh@h@NPVX^f@BJBFBFf@v@P`@DZDVBT@F?D@F?H?P@P?X?N?F?j@@pAIpB@f@?V?fA?j@?V@h@AjA?h@@~@?b@@^Af@@d@?X?bA?jA?b@@nC?J?d@Aj@?v@?P@dB?jA?bC?`A?\\@dH?`D?dC@fE?jD?T@`F@vB?jD?vC?X?`E@V@zCAb@?fAAX@fB@fA?T@|B?l@A~A?x@?XAzB?`A?dB?l@?P?F?H@^?Z?@?H?@?Z?h@?f@?j@?^?t@@j@BnAAV@|@@fB?bBG?"}, "start_location": {"lat": 29.803869, "lng": -95.410039}, "transit_details": {"arrival_stop": {"location": {"lat": 29.80163, "lng": -95.454342}, "name": "W 18th St @ Northwest Fwy"}, "arrival_time": {"text": "4:33pm", "time_zone": "America/Chicago", "value": 1642026820}, "departure_stop": {"location": {"lat": 29.803869, "lng": -95.410039}, "name": "W 20th St @ N Shepherd Dr"}, "departure_time": {"text": "4:23pm", "time_zone": "America/Chicago", "value": 1642026238}, "headsign": "Memorial City", "line": {"agencies": [{"name": "Metropolitan Transit Authority of Harris County", "phone": "1 (713) 635-4000", "url": "http://www.ridemetro.org/"}], "color": "#004080", "name": "Long Point / Cavalcade", "short_name": "26", "text_color": "#ffffff", "url": "https://www.ridemetro.org/MetroPDFs/Schedules/BusSchedules/n026-Long-Point-Cavalcade.pdf", "vehicle": {"icon": "//maps.gstatic.com/mapfiles/transit/iw2/6/bus2.png", "name": "Bus", "type": "BUS"}}, "num_stops": 14, "trip_short_name": "LONGPOINT"}, "travel_mode": "TRANSIT"}, {"distance": {"text": "322 ft", "value": 98}, "duration": {"text": "1 min", "value": 77}, "end_location": {"lat": 29.8019199, "lng": -95.45428179999999}, "html_instructions": "Walk to 4400 W 18th St, Houston, TX 77092, USA", "polyline": {"points": "es{tDrlreQ?z@YEc@E?G@Q@a@"}, "start_location": {"lat": 29.8016264, "lng": -95.454342}, "steps": [{"distance": {"text": "95 ft", "value": 29}, "duration": {"text": "1 min", "value": 22}, "end_location": {"lat": 29.8016252, "lng": -95.45463819999999}, "html_instructions": "Head <b>west</b> on <b>W 18th St</b>/<wbr/><b>NW Mall</b>", "polyline": {"points": "es{tDrlreQ?z@"}, "start_location": {"lat": 29.8016264, "lng": -95.454342}, "travel_mode": "WALKING"}, {"distance": {"text": "131 ft", "value": 40}, "duration": {"text": "1 min", "value": 33}, "end_location": {"lat": 29.8019405, "lng": -95.4545788}, "html_instructions": "Turn <b>right</b><div style=\"font-size:0.9em\">Restricted usage road</div>", "maneuver": "turn-right", "polyline": {"points": "es{tDnnreQYEc@E"}, "start_location": {"lat": 29.8016252, "lng": -95.45463819999999}, "travel_mode": "WALKING"}, {"distance": {"text": "95 ft", "value": 29}, "duration": {"text": "1 min", "value": 22}, "end_location": {"lat": 29.8019199, "lng": -95.45428179999999}, "html_instructions": "Turn <b>right</b><div style=\"font-size:0.9em\">Restricted usage road</div><div style=\"font-size:0.9em\">Destination will be on the left</div>", "maneuver": "turn-right", "polyline": {"points": "cu{tDbnreQ?G@Q@a@"}, "start_location": {"lat": 29.8019405, "lng": -95.4545788}, "travel_mode": "WALKING"}], "travel_mode": "WALKING"}], "traffic_speed_entry": [], "via_waypoint": []}], "overview_polyline": {"points": "uidtDxhueQAQ?e@BGLKFC?CAeA_AAk@CiDU{AWiDWaI@gIDgBAa@A]GAVE??c@?eC?aAAgCAmFIgRAmL?qF@{ANgCBqACiCEiJGqK@uACcAQaCSaBWoAm@yCUuBEqCIqMCwAGk@QeAS}@Yu@s@uAuAcBOQYe@e@iAWeAG_@K{AEuEAkABmAAsHAk@KuA]eCYcAm@aBu@mBOk@QaAM{@G{A@yA^}FBi@?cACo@MkAMo@Wu@g@kAgBgCcAsAi@m@gCwBcF}DyAmAq@q@u@eA_@u@g@wA[{AMaBAeBB}@JmAJ[tA{G^{BFuACy@OmB]sAaBaEc@{@Oc@IFYq@[cAQYI]]yBIiAAgAFaFNmDl@yFn@kFiBuADMoA_A{BaBuEkDw@e@yBcBeH_FuFyDUUADa@YJWlBsE\\mBBq@}@GYGKKEQBa@X_AAUBMBKDi@EIKE}AV?JFj@kAh@]@KKCQ@y@?g@rCg@r@KPHJh@Ip@EVCL@TCLY`ADb@JJLDhAHCp@]lB_BzDSf@m@rA[h@c@`@_CjAQHa@DaC?@dOBzJ?h@oA?{@?oD@iIBuC?eHBsD?cIDqHB{FB}AAAc@Ay@GaAc@_D]yA]kAcBaGeGbCoChAiBd@oATaBR}AJkBDoD?_HDkJ@qHFkJ@mDBsGBgCFuAAoCBuGAkPD_IDgTF_AIo@KcB?mNDo`@FgC?{CDwA?UI[QMIY[OYIQIYyAkEWe@]c@o@c@y@U}@@{@?WIgB?KEWAo@AaCC{@AcA@EBUNEDMNOb@wCX}CXK@KEC?Q?[AAAQCe@EWA[FKBeBZqATw@TgAB[?cA@kA@o@D_CJ}HDcIDyIFgGBoC@eAAmBD_HD_ID{BBsD@{FDu@CaAUgEaAs@Ci@?a@Bm@NoBh@sAVyBRwAF{ABqHBeA@mFDgEBmMHgQLqJBkUNwPLsJ@?K?Bm@@?QE@J?@V@hCB|GDnR?tD@|IBhX?bBBd@Hf@Vv@\\n@j@p@tAbBx@z@v@`AFRj@~@V|@Hl@B^@lA?r@@pAIpB@~@?rB@`AAtB@jDBtL?jOBtWBzO?~OBrDAjB@~E@jDAxCA|H?pA@vD@lDDlG?bBG??z@}@K@Y@a@"}, "summary": "", "warnings": ["Walking directions are in beta. Use caution \u2013 This route may be missing sidewalks or pedestrian paths."], "waypoint_order": []}, {"bounds": {"northeast": {"lat": 29.8026484, "lng": -95.45427269999999}, "southwest": {"lat": 29.682229, "lng": -95.48477319999999}}, "copyrights": "Map data \u00a92022", "legs": [{"arrival_time": {"text": "4:35pm", "time_zone": "America/Chicago", "value": 1642026935}, "departure_time": {"text": "3:11pm", "time_zone": "America/Chicago", "value": 1642021895}, "distance": {"text": "12.4 mi", "value": 20008}, "duration": {"text": "1 hour 24 mins", "value": 5040}, "end_address": "4400 W 18th St, Houston, TX 77092, USA", "end_location": {"lat": 29.8019199, "lng": -95.45428179999999}, "start_address": "8814 S Rice Ave, Houston, TX 77096, USA", "start_location": {"lat": 29.6823455, "lng": -95.4690918}, "steps": [{"distance": {"text": "0.6 mi", "value": 915}, "duration": {"text": "12 mins", "value": 728}, "end_location": {"lat": 29.68925, "lng": -95.4674076}, "html_instructions": "Walk to Beechnut St @ S Rice Ave", "polyline": {"points": "uidtDxhueQ?CAC?I?a@?C@E@A@C@ABADCFC?CAeA_AAMA]AsAIuAKe@GGC]GOCUCO?A?g@Ga@EQAWAMAyC?M?oC?I@Q@qC@M?uC@M?e@Ag@?K?Q?OAQCKCMCOAMC?Q?Q?S?Q?Q"}, "start_location": {"lat": 29.6823455, "lng": -95.4690918}, "steps": [{"distance": {"text": "167 ft", "value": 51}, "duration": {"text": "1 min", "value": 37}, "end_location": {"lat": 29.682229, "lng": -95.4686936}, "html_instructions": "Head <b>east</b> toward <b>Birdwood Rd</b>", "polyline": {"points": "uidtDxhueQ?CAC?I?a@?C@E@A@C@ABADCFC"}, "start_location": {"lat": 29.6823455, "lng": -95.4690918}, "travel_mode": "WALKING"}, {"distance": {"text": "125 ft", "value": 38}, "duration": {"text": "1 min", "value": 29}, "end_location": {"lat": 29.6822358, "lng": -95.4683232}, "html_instructions": "Turn <b>left</b> onto <b>Birdwood Rd</b>", "maneuver": "turn-left", "polyline": {"points": "}hdtDhfueQ?CAeA"}, "start_location": {"lat": 29.682229, "lng": -95.4686936}, "travel_mode": "WALKING"}, {"distance": {"text": "0.5 mi", "value": 784}, "duration": {"text": "10 mins", "value": 593}, "end_location": {"lat": 29.6892485, "lng": -95.4677835}, "html_instructions": "Turn <b>left</b> onto <b>S Rice Ave</b>", "maneuver": "turn-left", "polyline": {"points": "_idtD~cueQ_AAMA]AsAIuAKe@GGC]GOCUCO?A?g@Ga@EQAWAMAyC?M?oC?I@Q@qC@M?uC@M?e@Ag@?K?Q?OAQCKCMCOAMC?Q"}, "start_location": {"lat": 29.6822358, "lng": -95.4683232}, "travel_mode": "WALKING"}, {"distance": {"text": "138 ft", "value": 42}, "duration": {"text": "1 min", "value": 69}, "end_location": {"lat": 29.68925, "lng": -95.4674076}, "html_instructions": "Turn <b>right</b> onto <b>Beechnut St</b>", "maneuver": "turn-right", "polyline": {"points": "ytetDr`ueQ?Q?S?Q?Q"}, "start_location": {"lat": 29.6892485, "lng": -95.4677835}, "travel_mode": "WALKING"}], "travel_mode": "WALKING"}, {"distance": {"text": "9.6 mi", "value": 15414}, "duration": {"text": "44 mins", "value": 2657}, "end_location": {"lat": 29.783077, "lng": -95.455467}, "html_instructions": "Bus towards Northwest TC", "polyline": {"points": "}tetDh~teQDX_ARS@I@G?O?Y@G?S?{@@}A@o@@Q?wBAKJi@@mDAY?wABE?M?gA@c@?iA?a@@Y?U?c@?mB@u@@Q?a@AcBB{@?kA@q@?Q?sC@iB@o@?Y?wD@gC@[?O?kD@yA@qA@cA?u@@U?q@?s@?MIk@Ae@?Q?w@?eB@S?eA@?V?`ATV@?@?\\G?BA@?@@@?B@T@`@@L?^?ZGb@[b@@VD`A?|@?P@bA@\\@fDCv@@jA?h@@j@?dB?x@@tA@f@?~A?d@?b@?h@?\\?N?t@?b@@d@?ViA?U?mA@I?sA?M@g@?Y?mA@_@?_@?O?G?YAk@@[?Y?s@@Q?u@?[?g@?w@@kC?[@yD@mB@{@?W@qD?Q?cB?cA@kB@q@@wA@O?u@?e@@Q?uD@mA?aA?c@?m@?A?Q?{B?qA@sA@a@?kC@aA?iCDaB@}A?uB?Q?eA@m@?c@?YAO?GAG?C?KAC?A?A?QAs@Cq@Aq@CE?A?YAe@AEAS?A?SA{@@cB?_A@[@cA?mB@oA?iC@w@@M?kA@_@?q@@c@?W@yA?Y@[?Y?k@?uEBoC@O@gA?G@M?yA@o@?m@@I?U@U?{@?sA@e@?Y?oA@S?aA@oA@_@??R@t@?fA?R?Z@N?N@F?L@V?H?HArA@L?J?^?hCiA?I?[?M?}B@c@@Y?I?w@@u@?uA?qA?cA@I?uB@iA?c@?uC@e@?]?K@g@?K?{B@_A?w@?aB@_A?K?g@?K@y@?Y?_A@C?S?A?o@?O@{@?mA@{A@I?uA@c@?e@?c@@[?c@?YAeB@a@?e@@{A?Y?iA@_B@s@@o@?w@@a@?O?U?sB?w@@m@?q@?aC@E?OAm@@Q?eA@eA@c@?iAAm@@mA@S?c@@]?_A?U?kA@G?m@?Y?c@@iA?]?Y@_@?i@?kA@Q?E?M?i@?M?Q?C?Q?]@_B@iA?K?Y@I?ODq@_AKQGKAAO[O]Qs@CEEYCSC_@C_@Aa@?SO?Q?YBWDA?SB[Dk@H_@FSBc@B_@HW@mB?oA@sAB]?y@B]?oABg@@Y?m@@}@AMAG?EA]Ca@EA?EAMAQAa@?gA?eA@o@?U?U?g@@M@I?WBg@F]JSFOFUJYNWROJGBm@b@uBzAmAx@UNABMHq@b@WNSNWRSLMJe@^y@v@ED_@`@WZQRY\\m@z@QXS\\Wd@[h@m@dAKNSX_@f@[^CAA?A?C?A@A?GFIHYVMLOLMJEBUTYX[TOPQPQNMFMFOFODSD[F{@FoAFqAFgBFgADw@BSAoE?kB@}@?OAC?q@CWAI?eAAB_B@]?C?]@A@i@@k@@q@@q@DeALcBDo@FkBBeAFyD?G@_@?i@?S@mC?C?qA?Q?o@?w@?[AqA?W?]AeC?{@?S?w@Aa@AoAEaBAUQ{FIqCEgA_@wKCcACe@Ak@AQGaBAS?MAcB?YAk@?E?[AQ?Y?cB?m@?cAAkA?gA@iB?mA?mA?i@?C?G?]@wB?G?C@{A@i@?[Bg@@Y@Y@UB_@Do@De@A?De@RwB\\aCd@gCRu@Z{@j@cAr@cAtB{BPWH[Fe@kHBQ?i@Sw@CSKISGOB_B?yA?i@BeCX?V?\\A^?\\?@?b@?BXQ^?f@?j@?d@W?"}, "start_location": {"lat": 29.68927, "lng": -95.46740799999999}, "transit_details": {"arrival_stop": {"location": {"lat": 29.783077, "lng": -95.455467}, "name": "Northwest Transit Center - South Platform"}, "arrival_time": {"text": "4:08pm", "time_zone": "America/Chicago", "value": 1642025280}, "departure_stop": {"location": {"lat": 29.68927, "lng": -95.46740799999999}, "name": "Beechnut St @ S Rice Ave"}, "departure_time": {"text": "3:23pm", "time_zone": "America/Chicago", "value": 1642022623}, "headsign": "Northwest TC", "line": {"agencies": [{"name": "Metropolitan Transit Authority of Harris County", "phone": "1 (713) 635-4000", "url": "http://www.ridemetro.org/"}], "color": "#004080", "name": "Chimney Rock / S Post Oak", "short_name": "49", "text_color": "#ffffff", "url": "https://www.ridemetro.org/MetroPDFs/Schedules/BusSchedules/n049-Chimney-Rock-S-Post-Oak.pdf", "vehicle": {"icon": "//maps.gstatic.com/mapfiles/transit/iw2/6/bus2.png", "name": "Bus", "type": "BUS"}}, "num_stops": 40, "trip_short_name": "CHIMROCPOS"}, "travel_mode": "TRANSIT"}, {"distance": {"text": "0.2 mi", "value": 263}, "duration": {"text": "3 mins", "value": 192}, "end_location": {"lat": 29.7837801, "lng": -95.4554653}, "html_instructions": "Walk to Northwest Transit Center - North Platform", "polyline": {"points": "_}wtDtqreQDUBODIK@]MMMECOKICKAK@E?U?E?_@@m@?AxAAX?f@"}, "start_location": {"lat": 29.7827161, "lng": -95.4551537}, "steps": [{"distance": {"text": "121 ft", "value": 37}, "duration": {"text": "1 min", "value": 26}, "end_location": {"lat": 29.78264219999999, "lng": -95.4549134}, "html_instructions": "Head <b>east</b>", "polyline": {"points": "_}wtDtqreQDUBODI"}, "start_location": {"lat": 29.7827161, "lng": -95.4551537}, "travel_mode": "WALKING"}, {"distance": {"text": "482 ft", "value": 147}, "duration": {"text": "2 mins", "value": 109}, "end_location": {"lat": 29.7837613, "lng": -95.45468609999999}, "html_instructions": "Sharp <b>left</b> toward <b>Old Katy Rd</b>", "maneuver": "turn-sharp-left", "polyline": {"points": "o|wtDdpreQK@]MMMECOKICKAK@E?U?E?_@@m@?"}, "start_location": {"lat": 29.78264219999999, "lng": -95.4549134}, "travel_mode": "WALKING"}, {"distance": {"text": "259 ft", "value": 79}, "duration": {"text": "1 min", "value": 57}, "end_location": {"lat": 29.7837801, "lng": -95.4554653}, "html_instructions": "Turn <b>left</b> onto <b>Old Katy Rd</b>", "maneuver": "turn-left", "polyline": {"points": "ocxtDxnreQAxAAX?f@"}, "start_location": {"lat": 29.7837613, "lng": -95.45468609999999}, "travel_mode": "WALKING"}], "travel_mode": "WALKING"}, {"distance": {"text": "1.7 mi", "value": 2678}, "duration": {"text": "7 mins", "value": 408}, "end_location": {"lat": 29.801027, "lng": -95.45922999999999}, "html_instructions": "Bus towards SH 249", "polyline": {"points": "w~wtDvwreQRwAF@D?DABA@CDIDSB[@g@BUBM@AN]FGJY@K?MCUCKCCA?OGQAGAE?E@GDQJOPMD[BY@W?aAAY@c@?AVAzAAb@?f@?L?ZAn@?`B?R?f@sBNO@Q@Y?W?K@wA@y@@K?u@?wA@U?O?}@@I?Y?_@?_@@oA@oD@eABM?A?a@?c@?qA@W?w@?cA@s@?c@@_@?uA@a@?OAY?q@@c@?_@?[@cA@a@?U?G?C?E?]@S?S@]@c@?}@@M?w@@]?mA@_B@W?E?e@Aa@EQEWG[OUM[QIG_@Ui@i@e@_@OQQQOMCCc@a@MR{A|BU\\W`@sBtCg@z@a@L{@vA]b@Sd@w@lAYh@OQ"}, "start_location": {"lat": 29.7830001, "lng": -95.4561157}, "transit_details": {"arrival_stop": {"location": {"lat": 29.801027, "lng": -95.45922999999999}, "name": "Hempstead Rd @ W 18th St"}, "arrival_time": {"text": "4:25pm", "time_zone": "America/Chicago", "value": 1642026348}, "departure_stop": {"location": {"lat": 29.7830001, "lng": -95.4561157}, "name": "Northwest Transit Center - North Platform"}, "departure_time": {"text": "4:19pm", "time_zone": "America/Chicago", "value": 1642025940}, "headsign": "SH 249", "line": {"agencies": [{"name": "Metropolitan Transit Authority of Harris County", "phone": "1 (713) 635-4000", "url": "http://www.ridemetro.org/"}], "color": "#004080", "name": "Antoine / Washington", "short_name": "85", "text_color": "#ffffff", "url": "https://www.ridemetro.org/MetroPDFs/Schedules/BusSchedules/n085-Antoine-Washington.pdf", "vehicle": {"icon": "//maps.gstatic.com/mapfiles/transit/iw2/6/bus2.png", "name": "Bus", "type": "BUS"}}, "num_stops": 8, "trip_short_name": "ANTOINWAS"}, "travel_mode": "TRANSIT"}, {"distance": {"text": "0.5 mi", "value": 738}, "duration": {"text": "10 mins", "value": 587}, "end_location": {"lat": 29.8019199, "lng": -95.45428179999999}, "html_instructions": "Walk to 4400 W 18th St, Houston, TX 77092, USA", "polyline": {"points": "mo{tDdkseQKPKKKAK?I@IB?Q?aA?M?QAO?OM?M@M?mED@[Ae@?g@ASDKP]d@}@Xq@B]QOIIOMEKKAQUGGEIAE?C?A@C@EBEV_@KMNWHMJSRa@Ts@R}@Jy@Hy@?G@Q@a@"}, "start_location": {"lat": 29.8010254, "lng": -95.4592253}, "steps": [{"distance": {"text": "49 ft", "value": 15}, "duration": {"text": "1 min", "value": 11}, "end_location": {"lat": 29.8011512, "lng": -95.4592626}, "html_instructions": "Head <b>northwest</b>", "polyline": {"points": "mo{tDdkseQKPKK"}, "start_location": {"lat": 29.8010254, "lng": -95.4592253}, "travel_mode": "WALKING"}, {"distance": {"text": "102 ft", "value": 31}, "duration": {"text": "1 min", "value": 23}, "end_location": {"lat": 29.8013705, "lng": -95.4592806}, "html_instructions": "Turn <b>right</b> toward <b>W 18th St</b>", "maneuver": "turn-right", "polyline": {"points": "ep{tDjkseQKAK?I@IB"}, "start_location": {"lat": 29.8011512, "lng": -95.4592626}, "travel_mode": "WALKING"}, {"distance": {"text": "240 ft", "value": 73}, "duration": {"text": "1 min", "value": 61}, "end_location": {"lat": 29.8014508, "lng": -95.4585436}, "html_instructions": "Turn <b>right</b> onto <b>W 18th St</b>", "maneuver": "turn-right", "polyline": {"points": "qq{tDnkseQ?Q?aA?M?QAO?OM?"}, "start_location": {"lat": 29.8013705, "lng": -95.4592806}, "travel_mode": "WALKING"}, {"distance": {"text": "440 ft", "value": 134}, "duration": {"text": "2 mins", "value": 127}, "end_location": {"lat": 29.80261729999999, "lng": -95.45858140000001}, "html_instructions": "Turn <b>left</b> onto <b>Mangum Rd</b>", "maneuver": "turn-left", "polyline": {"points": "ar{tDzfseQM@M?mED"}, "start_location": {"lat": 29.8014508, "lng": -95.4585436}, "travel_mode": "WALKING"}, {"distance": {"text": "0.1 mi", "value": 168}, "duration": {"text": "2 mins", "value": 133}, "end_location": {"lat": 29.8021725, "lng": -95.45703209999999}, "html_instructions": "Turn <b>right</b>", "maneuver": "turn-right", "polyline": {"points": "ky{tDbgseQ@[Ae@?g@ASDKP]d@}@Xq@B]"}, "start_location": {"lat": 29.80261729999999, "lng": -95.45858140000001}, "travel_mode": "WALKING"}, {"distance": {"text": "348 ft", "value": 106}, "duration": {"text": "1 min", "value": 80}, "end_location": {"lat": 29.8024852, "lng": -95.4562641}, "html_instructions": "Turn <b>left</b><div style=\"font-size:0.9em\">Partial restricted usage road</div>", "maneuver": "turn-left", "polyline": {"points": "qv{tDl}reQQOIIOMEKKAQUGGEIAE?C?A@C@EBEV_@"}, "start_location": {"lat": 29.8021725, "lng": -95.45703209999999}, "travel_mode": "WALKING"}, {"distance": {"text": "33 ft", "value": 10}, "duration": {"text": "1 min", "value": 8}, "end_location": {"lat": 29.8025494, "lng": -95.456192}, "html_instructions": "Turn <b>left</b><div style=\"font-size:0.9em\">Restricted usage road</div>", "maneuver": "turn-left", "polyline": {"points": "qx{tDrxreQKM"}, "start_location": {"lat": 29.8024852, "lng": -95.4562641}, "travel_mode": "WALKING"}, {"distance": {"text": "0.1 mi", "value": 201}, "duration": {"text": "2 mins", "value": 144}, "end_location": {"lat": 29.8019199, "lng": -95.45428179999999}, "html_instructions": "Turn <b>right</b><div style=\"font-size:0.9em\">Restricted usage road</div><div style=\"font-size:0.9em\">Destination will be on the left</div>", "maneuver": "turn-right", "polyline": {"points": "}x{tDdxreQNWHMJSRa@Ts@R}@Jy@Hy@?G@Q@a@"}, "start_location": {"lat": 29.8025494, "lng": -95.456192}, "travel_mode": "WALKING"}], "travel_mode": "WALKING"}], "traffic_speed_entry": [], "via_waypoint": []}], "overview_polyline": {"points": "uidtDxhueQAQ?e@BGLKFC?CAeA_AAk@CiDU{AWiDWaI@gIDgBAa@A]G]EMC?Q?e@?c@C?DXsAT{@BuDBaA@wBAKJwE?qBB{A@gKDwNDkUFeHDgA?s@?MIqAAiA?yB@eA@?V?`ATVB?\\GAD@FDdBG~@[b@@VD~B@tABdECv@BfGBvG?pC@nC?V_B?yDBoD@qAAuCBePDySFkOFuC?sHBmD@kEDgI@sB@}@Ac@A}DMcBEqODiLHkQHuHFkKDoB@@hA@fCBrD?j@?hCiA?e@?kC@_CBaH@sMDuMBkSJqIB}MFyLBuC@aF@mIDwHB_E@yEBe@@YDgA_B_@y@Uy@Im@G_AAu@a@?gAL{BZcALeC@{FHoDDkB?UAgAKgAEsE@uAB_AJq@Re@Rq@b@{DnCsBvAuBvAa@X_BvAoAvAgAxAe@v@mBdDs@`A[^CAC?C?URwChCa@b@_@VaAZwANaDNoDLw@BSA{H@mAAwAEeAAB_B@a@DuBBcBRiDL{CJ_G@eB@cFCcLAiD[cMcA{ZG_G?{P@eHFiEHiBN{BRwB\\aCd@gCRu@Z{@j@cAr@cAtB{BPWH[Fe@kHBQ?i@Sw@CSKQc@ByDBoDp@?|AAb@?BXQ^?f@?pAW?fA_AHe@DIK@]MMMUOUEQ@iB@CrB?f@zC`CRwAF@JADEJ]DcAFc@d@aA@YGa@ECOGQAMAMFa@\\MD[Bq@@{A?c@?AVC~BA`C?tB?f@sBNa@Bq@?iDDsD@gNJ{HBmEB}B?gFBkABmCBcGD]?gAGi@Mq@]e@Y_@Ui@i@u@q@a@_@g@e@iBpCm@~@sBtCg@z@a@L{@vA]b@Sd@qAvBOQKPKKWASD?sAA_AwFFA}BVi@~@oBB]QOYWEKKAY]GU^o@KMNWTa@Ra@Ts@R}@TsB@Y@a@"}, "summary": "", "warnings": ["Walking directions are in beta. Use caution \u2013 This route may be missing sidewalks or pedestrian paths."], "waypoint_order": []}, {"bounds": {"northeast": {"lat": 29.803869, "lng": -95.4031601}, "southwest": {"lat": 29.6791476, "lng": -95.4690918}}, "copyrights": "Map data \u00a92022", "legs": [{"arrival_time": {"text": "4:49pm", "time_zone": "America/Chicago", "value": 1642027797}, "departure_time": {"text": "3:19pm", "time_zone": "America/Chicago", "value": 1642022352}, "distance": {"text": "16.5 mi", "value": 26541}, "duration": {"text": "1 hour 31 mins", "value": 5445}, "end_address": "4400 W 18th St, Houston, TX 77092, USA", "end_location": {"lat": 29.8019199, "lng": -95.45428179999999}, "start_address": "8814 S Rice Ave, Houston, TX 77096, USA", "start_location": {"lat": 29.6823455, "lng": -95.4690918}, "steps": [{"distance": {"text": "0.2 mi", "value": 401}, "duration": {"text": "5 mins", "value": 317}, "end_location": {"lat": 29.6794089, "lng": -95.4680284}, "html_instructions": "Walk to Braeswood Blvd @ S Rice Ave", "polyline": {"points": "uidtDxhueQ?CAC?I?a@?C@E@A@C@ABADCFCLA?gAvA?p@?F?L?`BGJAB?NAbAILALEf@GtAMLAB?LCD?"}, "start_location": {"lat": 29.6823455, "lng": -95.4690918}, "steps": [{"distance": {"text": "167 ft", "value": 51}, "duration": {"text": "1 min", "value": 37}, "end_location": {"lat": 29.6821584, "lng": -95.4686777}, "html_instructions": "Head <b>east</b> toward <b>Birdwood Rd</b>", "polyline": {"points": "uidtDxhueQ?CAC?I?a@?C@E@A@C@ABADCFCLA"}, "start_location": {"lat": 29.6823455, "lng": -95.4690918}, "travel_mode": "WALKING"}, {"distance": {"text": "125 ft", "value": 38}, "duration": {"text": "1 min", "value": 30}, "end_location": {"lat": 29.6821638, "lng": -95.4683245}, "html_instructions": "Turn <b>left</b> onto <b>Birdwood Rd</b>", "maneuver": "turn-left", "polyline": {"points": "ohdtDffueQ?gA"}, "start_location": {"lat": 29.6821584, "lng": -95.4686777}, "travel_mode": "WALKING"}, {"distance": {"text": "0.2 mi", "value": 312}, "duration": {"text": "4 mins", "value": 250}, "end_location": {"lat": 29.6794089, "lng": -95.4680284}, "html_instructions": "Turn <b>right</b> onto <b>S Rice Ave</b><div style=\"font-size:0.9em\">Destination will be on the right</div>", "maneuver": "turn-right", "polyline": {"points": "ohdtD~cueQvA?p@?F?L?`BGJAB?NAbAILALEf@GtAMLAB?LCD?"}, "start_location": {"lat": 29.6821638, "lng": -95.4683245}, "travel_mode": "WALKING"}], "travel_mode": "WALKING"}, {"distance": {"text": "5.6 mi", "value": 8948}, "duration": {"text": "20 mins", "value": 1171}, "end_location": {"lat": 29.704328, "lng": -95.40361999999999}, "html_instructions": "Bus towards TMC TC", "polyline": {"points": "iwctDvbueQIBC[MwAC[KeAGu@Is@OuBS}CGyACc@EuACo@Ee@AUKy@Ie@ACGYc@wAM]IQIQGMAEOUS]QUOQc@e@WWIMKMQWUc@Qa@GQCEGWCICKCICSE]AUAO?GAK?[MEAc@Z?hA@bDDzBBj@@nABDmA@g@?AHkAA?H{@N{@H[[M?AU?A@YAA?_@CMYGW\\}@Xu@PMTBHJAVIPYb@Ut@W^w@F?|CCfA?h@ClAj@@nABDmA@g@?AHkAA?_@@S?oACiA?s@Au@G_@G[EYEc@IOCe@I}@GUkAa@yAHCCKc@aBAEMe@GQ[uACMQi@GUI[EOU_AWaAYeAc@kBe@aBWaAKi@Qo@Su@Uy@Kc@Ke@WaAI[k@wBOk@i@mBKYOc@IUMYACQa@GMGOKSQ]GMa@q@CEU_@CEIQIOO]ACM_@Ma@Mi@GWGa@AA?GQy@EOUkA?EEQGSEMGOMa@IOCEEKMUIMIOQUKMa@e@i@k@GGKKQMIGSMa@SAAAA_@OOIQIWQSQUUWWIMMSOWOYGOEIIYEMKYAGESESE[G[CYCWAK?AAUAQEuA?M?K@WB]@SD[@S?I@M?E?I@G?G?O?I@_@?M?K?E?G?GBU@SBa@Fm@BQ?Y@c@Ag@Ae@Eg@Ik@YmA[gAo@oBqA{DGSUs@Oi@COG_@AQAGCe@AGCg@?a@?C?]?A@m@Dk@De@Fe@^iCJy@De@Do@@Y?W?i@?C?]?AA[Aa@C_@AYMcAKq@K_@I]KWQe@O]MSU]Y_@]]GEMMOKo@_@QISKa@Ma@IAAMAWEQC[CC?EAU?a@ASAUESC_@I_@K[KYK[OGEGCIGGEa@[u@i@QOMKg@_@OOeA}@QOi@m@MSKMMYISEIEMAGCGEQCGE[EUEe@AKAYAW?U?I@WFgAB_@F]Fa@Py@Ha@Vs@JYbAuBN]HUFSJ[Jk@Ho@D_@@Y@[?i@Ck@E[?EEYOk@?AM]CGMYIOSWEGg@g@_@]{@u@MMKIYWY[W]GOI[MHAMASKWISCIMe@Mq@G]C]AEAWAOCuCA[@u@?aA?SBOLqADg@Hy@@CTiBBO\\mCBWaAw@[We@_@SO{@o@i@a@AAKISMe@_@IGMIo@g@i@_@SOyAiAOKMK}AiAGEEEIC_@UQMq@g@g@_@MMaC_BcD_CqCoBcBiAUU][DKHQJUJWFOFOFORg@Re@VaAPgA@W?Q@Q{@CICCCECEGCE?I?I?I@GPm@@G@GAGAECEAACAIAG?_ANM}@"}, "start_location": {"lat": 29.679408, "lng": -95.46812399999999}, "transit_details": {"arrival_stop": {"location": {"lat": 29.704328, "lng": -95.40361999999999}, "name": "Texas Medical Center Transit Center"}, "arrival_time": {"text": "3:44pm", "time_zone": "America/Chicago", "value": 1642023840}, "departure_stop": {"location": {"lat": 29.679408, "lng": -95.46812399999999}, "name": "Braeswood Blvd @ S Rice Ave"}, "departure_time": {"text": "3:24pm", "time_zone": "America/Chicago", "value": 1642022669}, "headsign": "TMC TC", "line": {"agencies": [{"name": "Metropolitan Transit Authority of Harris County", "phone": "1 (713) 635-4000", "url": "http://www.ridemetro.org/"}], "color": "#004080", "name": "Braeswood", "short_name": "68", "text_color": "#ffffff", "url": "https://www.ridemetro.org/MetroPDFs/Schedules/BusSchedules/n068-Braeswood.pdf", "vehicle": {"icon": "//maps.gstatic.com/mapfiles/transit/iw2/6/bus2.png", "name": "Bus", "type": "BUS"}}, "num_stops": 23, "trip_short_name": "BRAESWOOD"}, "travel_mode": "TRANSIT"}, {"distance": {"text": "7.9 mi", "value": 12693}, "duration": {"text": "34 mins", "value": 2040}, "end_location": {"lat": 29.803613, "lng": -95.41008699999999}, "html_instructions": "Bus towards N Shepherd P&R", "polyline": {"points": "ashtDroheQFj@kAh@QBKAKKCQ@O?i@?A?e@j@Kn@KDAp@Mr@KPHDPDVERC\\AJCJCL@TCLUp@CN?PDPJJLDhAHCp@Mz@Op@Wp@gAhC?@CFIPEJIPEHELWh@QXINOPSNkAl@OH]PE@MFC@MBS@e@@M?o@A]??|B?vA?^@nG?j@?R?P@b@?~@@rAA`A@n@?h@oA?[?_@?WAsBBQ?Q?eD@uB@S?Y?yAA{@@yC@kC@K?gD?cDB_D@}A?oA@_B@c@?cE@w@@}AAAc@?g@AQCYCg@Iq@E[Gc@Km@Os@Me@IUSu@GUw@oCMc@Uw@cBp@IDkAb@kAf@{@^SHy@ZEBSF_@JKBi@LA@SDWDa@FI@a@F]DWBYBQ@o@DA?M@w@@W@M?K?oA?gA?K?sA@uA@K@iB?s@?iD@yB?S?c@@gB?oCBU@eB@e@?]?eA?S?O?U?aA?i@@A?[?A?Y@k@?]?m@?W?iD@c@@aA@eADcAAQ?aA?S@c@?U@y@Ao@AgB?cA@sA?cA@Q?iD@wA?u@@e@?c@?M?_A@]?y@?y@@Y?K?y@@O?s@?y@?eB@cA?y@@O?K?W?I?c@?E?}ABE?q@?gA?]Aa@G[GSCg@AS@M?Y?a@?m@?_A?c@@S?sC@gA@iA?kD?iB?_@?[?Y?q@@gB?{@?Y@qA?eA?I?uD@i@@_A?Q?O?{@?m@?M?g@@y@@g@@Q?[?{@?OGEAGCEEGCECECGEY[OYEKCECGEQ_AuCAEEIQe@IQCEACGIEGEGGIIIEEOKGEQKMEk@Oo@@M?{@?WIgB?KEC?SAYAU?IA]?SAeA?S?g@AcA@EBIFKFA@CBIHCDGHGXQ@aAJa@Da@DC?}AL]D]DK@KEA?A?I?G?M?MAAAA?C?AAE?CAA?OCC?AAM?WA[FE@E@c@HG@YD_@HeAPKBw@TgABW?C?W?k@@_A@K?[@SBe@Dc@@SBa@?eA@[?M?eA@c@?e@?]?_@@Y?k@?M?qCBg@?Q?M@U?e@?M?qCB]?w@@_@?E@W?e@?mB@gA?k@@]?qB@c@@a@CE@e@@m@?S@kA?cA@aCBM?oC@eA@oA@Y?[?O?a@Bm@?U?o@?e@@I?A?A?y@?M@YAS@O?_@@w@@y@?]?M?YAMAMCOEYIIAa@Kc@Ku@QGACAm@MAAOCIAK?OAM?M?A?I?O?S@M@IBc@Jq@P}@Vg@Jk@Ji@Hc@Be@DE?c@Bs@ByABA?oCBYA}B@I?A?q@@K?E?k@?C?O@u@?S?k@@w@@K?a@?O?[@U?U?U?k@@k@?Y@C?I?S?kC@y@@K?W@[?S?A?W?G?U@S?c@?e@@O?E?[?mCBeA@U?Y?S?U@A?S?aA@_@?e@@Q?S?U?s@?C?W?qB@sB@eBBg@?oBBaGBq@@w@?aB@i@@W@_B@yA@aB@Q?qD@U@gB?eB@eBA_A@?K"}, "start_location": {"lat": 29.704328, "lng": -95.40361999999999}, "transit_details": {"arrival_stop": {"location": {"lat": 29.803613, "lng": -95.41008699999999}, "name": "N Shepherd Dr @ W 20th St"}, "arrival_time": {"text": "4:29pm", "time_zone": "America/Chicago", "value": 1642026540}, "departure_stop": {"location": {"lat": 29.704328, "lng": -95.40361999999999}, "name": "Texas Medical Center Transit Center"}, "departure_time": {"text": "3:55pm", "time_zone": "America/Chicago", "value": 1642024500}, "headsign": "N Shepherd P&R", "line": {"agencies": [{"name": "Metropolitan Transit Authority of Harris County", "phone": "1 (713) 635-4000", "url": "http://www.ridemetro.org/"}], "color": "#004080", "name": "Shepherd", "short_name": "27", "text_color": "#ffffff", "url": "https://www.ridemetro.org/MetroPDFs/Schedules/BusSchedules/n027-Shepherd.pdf", "vehicle": {"icon": "//maps.gstatic.com/mapfiles/transit/iw2/6/bus2.png", "name": "Bus", "type": "BUS"}}, "num_stops": 53, "trip_short_name": "SHEPHERD"}, "travel_mode": "TRANSIT"}, {"distance": {"text": "112 ft", "value": 34}, "duration": {"text": "1 min", "value": 34}, "end_location": {"lat": 29.803842, "lng": -95.41002979999999}, "html_instructions": "Walk to W 20th St @ N Shepherd Dr", "polyline": {"points": "q_|tDdxieQ_@@M??Q"}, "start_location": {"lat": 29.8036121, "lng": -95.410111}, "steps": [{"distance": {"text": "69 ft", "value": 21}, "duration": {"text": "1 min", "value": 15}, "end_location": {"lat": 29.8038391, "lng": -95.4101207}, "html_instructions": "Head <b>north</b> on <b>N Shepherd Dr</b> toward <b>W 20th St</b>", "polyline": {"points": "q_|tDdxieQ_@@M?"}, "start_location": {"lat": 29.8036121, "lng": -95.410111}, "travel_mode": "WALKING"}, {"distance": {"text": "43 ft", "value": 13}, "duration": {"text": "1 min", "value": 19}, "end_location": {"lat": 29.803842, "lng": -95.41002979999999}, "html_instructions": "Turn <b>right</b> onto <b>W 20th St</b>", "maneuver": "turn-right", "polyline": {"points": "_a|tDfxieQ?Q"}, "start_location": {"lat": 29.8038391, "lng": -95.4101207}, "travel_mode": "WALKING"}], "travel_mode": "WALKING"}, {"distance": {"text": "2.7 mi", "value": 4367}, "duration": {"text": "10 mins", "value": 582}, "end_location": {"lat": 29.80163, "lng": -95.454342}, "html_instructions": "Bus towards Memorial City", "polyline": {"points": "ea|tDvwieQJ?@V?fA@`ABfE?tABtJ?pB@rA?r@?H?|@?jB?@?j@@h@AL?\\?J@f@?|B?h@?|@?n@?N?|G?J@tE?d@@dC?p@AL@J?V@P@H?B?D@F@HBH@JDPDLDLDHDJDJHLFHFHLL?@TVTVn@v@NRh@h@NPVX^f@BJBFBFf@v@P`@DZDVBT@F?D@F?H?P@P?X?N?F?j@@pAIpB@f@?V?fA?j@?V@h@AjA?h@@~@?b@@^Af@@d@?X?bA?jA?b@@nC?J?d@Aj@?v@?P@dB?jA?bC?`A?\\@dH?`D?dC@fE?jD?T@`F@vB?jD?vC?X?`E@V@zCAb@?fAAX@fB@fA?T@|B?l@A~A?x@?XAzB?`A?dB?l@?P?F?H@^?Z?@?H?@?Z?h@?f@?j@?^?t@@j@BnAAV@|@@fB?bBG?"}, "start_location": {"lat": 29.803869, "lng": -95.410039}, "transit_details": {"arrival_stop": {"location": {"lat": 29.80163, "lng": -95.454342}, "name": "W 18th St @ Northwest Fwy"}, "arrival_time": {"text": "4:48pm", "time_zone": "America/Chicago", "value": 1642027720}, "departure_stop": {"location": {"lat": 29.803869, "lng": -95.410039}, "name": "W 20th St @ N Shepherd Dr"}, "departure_time": {"text": "4:38pm", "time_zone": "America/Chicago", "value": 1642027138}, "headsign": "Memorial City", "line": {"agencies": [{"name": "Metropolitan Transit Authority of Harris County", "phone": "1 (713) 635-4000", "url": "http://www.ridemetro.org/"}], "color": "#004080", "name": "Long Point / Cavalcade", "short_name": "26", "text_color": "#ffffff", "url": "https://www.ridemetro.org/MetroPDFs/Schedules/BusSchedules/n026-Long-Point-Cavalcade.pdf", "vehicle": {"icon": "//maps.gstatic.com/mapfiles/transit/iw2/6/bus2.png", "name": "Bus", "type": "BUS"}}, "num_stops": 14, "trip_short_name": "LONGPOINT"}, "travel_mode": "TRANSIT"}, {"distance": {"text": "322 ft", "value": 98}, "duration": {"text": "1 min", "value": 77}, "end_location": {"lat": 29.8019199, "lng": -95.45428179999999}, "html_instructions": "Walk to 4400 W 18th St, Houston, TX 77092, USA", "polyline": {"points": "es{tDrlreQ?z@YEc@E?G@Q@a@"}, "start_location": {"lat": 29.8016264, "lng": -95.454342}, "steps": [{"distance": {"text": "95 ft", "value": 29}, "duration": {"text": "1 min", "value": 22}, "end_location": {"lat": 29.8016252, "lng": -95.45463819999999}, "html_instructions": "Head <b>west</b> on <b>W 18th St</b>/<wbr/><b>NW Mall</b>", "polyline": {"points": "es{tDrlreQ?z@"}, "start_location": {"lat": 29.8016264, "lng": -95.454342}, "travel_mode": "WALKING"}, {"distance": {"text": "131 ft", "value": 40}, "duration": {"text": "1 min", "value": 33}, "end_location": {"lat": 29.8019405, "lng": -95.4545788}, "html_instructions": "Turn <b>right</b><div style=\"font-size:0.9em\">Restricted usage road</div>", "maneuver": "turn-right", "polyline": {"points": "es{tDnnreQYEc@E"}, "start_location": {"lat": 29.8016252, "lng": -95.45463819999999}, "travel_mode": "WALKING"}, {"distance": {"text": "95 ft", "value": 29}, "duration": {"text": "1 min", "value": 22}, "end_location": {"lat": 29.8019199, "lng": -95.45428179999999}, "html_instructions": "Turn <b>right</b><div style=\"font-size:0.9em\">Restricted usage road</div><div style=\"font-size:0.9em\">Destination will be on the left</div>", "maneuver": "turn-right", "polyline": {"points": "cu{tDbnreQ?G@Q@a@"}, "start_location": {"lat": 29.8019405, "lng": -95.4545788}, "travel_mode": "WALKING"}], "travel_mode": "WALKING"}], "traffic_speed_entry": [], "via_waypoint": []}], "overview_polyline": {"points": "uidtDxhueQAQBm@LKTE?gAvA?x@?nBGbBM~Dc@?PIBQsBa@kEo@qKQaE_@}BeAyCm@gA}AeB}@wAe@qAOs@IkAAg@MEAc@dB@~GHzBDFuBPiCXwA[Os@?_@CMYGW\\}@Xu@PMTBHJKh@Yb@Ut@W^w@FCdFCvBzBDPcEa@@cBC}BAuAOiBYcBQw@eDHCCKe@gBu@{CuC_L}CwL}AaGoAaEwA}C_A}Ae@cA[aAUaA[eBa@sBc@sAa@w@q@aA_BeBo@c@eAg@a@Sk@c@m@m@Wa@m@kA]iAY_BI_AIkCP}CBgBP{CBwBGmAc@yBeDgKe@}AKo@G_AEuAFyBx@oGJuA@q@?mAIwBYuBU}@]}@]q@o@}@e@c@]YaAi@yAe@sAO_@A_BM_AUu@Wu@a@qB{AkCyB{@}@Ya@c@eAOi@ScBCqAH_BJ}@X{A`@uAnAoCXs@Ro@T{AFy@@eAOgBa@sAq@iAqCiCe@a@q@y@Qk@MHAMMk@M][wAK{@IcE?gD`@cEx@kGBWaAw@[W_DaCgAy@}FkEuByAkCkBeM}IyB_B][DKTg@Rg@v@mBh@iC@i@@QeAGSU@e@Ru@?OKOQA_ANM}@Fj@kAh@]@KKCQ@y@?g@zAWv@Or@KPHJh@Ip@Id@Ab@Y`ADb@XPhAHCp@]lBcBdE_@x@y@`Bc@`@{Av@u@\\a@Ds@@mAA?tE@nJBhE?pB?h@oA?{@?kC@_IB}SBqZL}AAAc@Ay@WoCSqA]yA}AqFc@{AmBv@gFtBsBr@kAXeBVaBNwBHaC@qQFkQHkG@gE@uIJkD?cDAcIBaNDqSFmCByB?_AIo@K{@?wB?sTDwKBmMBoHD_Ae@i@u@IQkAuDe@gAU]g@e@YQy@U}@@{@?WIgB?KEWAwACuCCcA@EBUNSTOb@sALeDX{@JK@KEC?Q?[ACAQCSCOAWA[FKBk@JkCd@w@TgAB[?oCByBLu@BaB@}C@cC@qHDyLHcGBqB@wPJkHDuC@{BD_CAk@KiBc@oBc@g@Gm@A{@B}Cx@sAVmALcCLeGD}FBkFDgOJ_c@Vkj@ZeD??K?Bm@@?QE@J?@V@hCFdWBrK?tJ@zVHzAPt@Vn@bCxChAnAv@`AFRj@~@V|@Jz@BrC@pAIpB@~@@tD@`J?xMBnZDld@BnKAlFBhGCnH@tH?fEBhEBdD?bBG??z@}@KB{@"}, "summary": "", "warnings": ["Walking directions are in beta. Use caution \u2013 This route may be missing sidewalks or pedestrian paths."], "waypoint_order": []}], "status": "OK"}