{"geocoded_waypoints": [{"geocoder_status": "OK", "place_id": "ChIJw2iVZjS8QIYRNMte8tpH-Mk", "types": ["establishment", "point_of_interest", "primary_school", "school"]}, {"geocoder_status": "OK", "place_id": "ChIJ9_tphxzHQIYRIMyPy_d3VZU", "types": ["establishment", "point_of_interest"]}], "routes": [{"bounds": {"northeast": {"lat": 29.80413, "lng": -95.2934143}, "southwest": {"lat": 29.732888, "lng": -95.45463819999999}}, "copyrights": "Map data \u00a92022", "legs": [{"arrival_time": {"text": "4:19pm", "time_zone": "America/Chicago", "value": 1642025997}, "departure_time": {"text": "3:06pm", "time_zone": "America/Chicago", "value": 1642021560}, "distance": {"text": "13.9 mi", "value": 22390}, "duration": {"text": "1 hour 14 mins", "value": 4437}, "end_address": "4400 W 18th St, Houston, TX 77092, USA", "end_location": {"lat": 29.8019199, "lng": -95.45428179999999}, "start_address": "7415 Harrisburg Blvd, Houston, TX 77011, USA", "start_location": {"lat": 29.7331706, "lng": -95.2934143}, "steps": [{"distance": {"text": "223 ft", "value": 68}, "duration": {"text": "1 min", "value": 52}, "end_location": {"lat": 29.733132, "lng": -95.2939153}, "html_instructions": "Walk to Harrisburg Blvd @ 74th St", "polyline": {"points": "igntDx~rdQAB`@LWrA"}, "start_location": {"lat": 29.7331706, "lng": -95.2934143}, "steps": [{"distance": {"text": "7 ft", "value": 2}, "duration": {"text": "1 min", "value": 1}, "end_location": {"lat": 29.7331767, "lng": -95.2934327}, "html_instructions": "Head <b>southwest</b> toward <b>Harrisburg Blvd</b><div style=\"font-size:0.9em\">Restricted usage road</div>", "polyline": {"points": "igntDx~rdQAB"}, "start_location": {"lat": 29.7331706, "lng": -95.2934143}, "travel_mode": "WALKING"}, {"distance": {"text": "79 ft", "value": 24}, "duration": {"text": "1 min", "value": 19}, "end_location": {"lat": 29.7330054, "lng": -95.2935037}, "html_instructions": "Turn <b>left</b> toward <b>Harrisburg Blvd</b><div style=\"font-size:0.9em\">Restricted usage road</div>", "maneuver": "turn-left", "polyline": {"points": "kgntD|~rdQ`@L"}, "start_location": {"lat": 29.7331767, "lng": -95.2934327}, "travel_mode": "WALKING"}, {"distance": {"text": "138 ft", "value": 42}, "duration": {"text": "1 min", "value": 32}, "end_location": {"lat": 29.733132, "lng": -95.2939153}, "html_instructions": "Turn <b>right</b> onto <b>Harrisburg Blvd</b><div style=\"font-size:0.9em\">Destination will be on the right</div>", "maneuver": "turn-right", "polyline": {"points": "ifntDj_sdQWrA"}, "start_location": {"lat": 29.7330054, "lng": -95.2935037}, "travel_mode": "WALKING"}], "travel_mode": "WALKING"}, {"distance": {"text": "0.8 mi", "value": 1277}, "duration": {"text": "2 mins", "value": 127}, "end_location": {"lat": 29.73518199999999, "lng": -95.30304199999999}, "html_instructions": "Bus towards Eastwood TC", "polyline": {"points": "igntDzasdQLDI^WnAMl@Ib@g@bCYpACNQt@YpAAHGVGVGXENb@Nr@RLDnC|@_@fBMl@YrAAFWlAOl@Mn@K`@I\\Ml@EP_@jBKb@Op@ERENYvAETI^_@lBENMl@Ov@i@[qBk@OGYMLi@rA^ER"}, "start_location": {"lat": 29.733172, "lng": -95.293899}, "transit_details": {"arrival_stop": {"location": {"lat": 29.73518199999999, "lng": -95.30304199999999}, "name": "Magnolia Park Transit Center"}, "arrival_time": {"text": "3:09pm", "time_zone": "America/Chicago", "value": 1642021740}, "departure_stop": {"location": {"lat": 29.733172, "lng": -95.293899}, "name": "Harrisburg Blvd @ 74th St"}, "departure_time": {"text": "3:06pm", "time_zone": "America/Chicago", "value": 1642021613}, "headsign": "Eastwood TC", "line": {"agencies": [{"name": "Metropolitan Transit Authority of Harris County", "phone": "1 (713) 635-4000", "url": "http://www.ridemetro.org/"}], "color": "#004080", "name": "Broadway", "short_name": "50", "text_color": "#ffffff", "url": "https://www.ridemetro.org/MetroPDFs/Schedules/BusSchedules/n050-Broadway.pdf", "vehicle": {"icon": "//maps.gstatic.com/mapfiles/transit/iw2/6/bus2.png", "name": "Bus", "type": "BUS"}}, "num_stops": 4, "trip_short_name": "BROADWAY"}, "travel_mode": "TRANSIT"}, {"distance": {"text": "299 ft", "value": 91}, "duration": {"text": "1 min", "value": 67}, "end_location": {"lat": 29.7357753, "lng": -95.30291960000001}, "html_instructions": "Walk to Magnolia Park Transit Center", "polyline": {"points": "usntDjztdQsA_@Mh@[M"}, "start_location": {"lat": 29.7351533, "lng": -95.3029449}, "steps": [{"distance": {"text": "161 ft", "value": 49}, "duration": {"text": "1 min", "value": 36}, "end_location": {"lat": 29.735574, "lng": -95.3027798}, "html_instructions": "Head <b>north</b> on <b>Magnolia Tc 4 Dr</b>", "polyline": {"points": "usntDjztdQsA_@"}, "start_location": {"lat": 29.7351533, "lng": -95.3029449}, "travel_mode": "WALKING"}, {"distance": {"text": "69 ft", "value": 21}, "duration": {"text": "1 min", "value": 15}, "end_location": {"lat": 29.73563609999999, "lng": -95.30298619999999}, "html_instructions": "Turn <b>left</b> toward <b>Magnolia Tc 1 Dr</b>", "maneuver": "turn-left", "polyline": {"points": "ivntDjytdQMh@"}, "start_location": {"lat": 29.735574, "lng": -95.3027798}, "travel_mode": "WALKING"}, {"distance": {"text": "69 ft", "value": 21}, "duration": {"text": "1 min", "value": 16}, "end_location": {"lat": 29.7357753, "lng": -95.30291960000001}, "html_instructions": "Turn <b>right</b> onto <b>Magnolia Tc 1 Dr</b>", "maneuver": "turn-right", "polyline": {"points": "wvntDtztdQ[M"}, "start_location": {"lat": 29.73563609999999, "lng": -95.30298619999999}, "travel_mode": "WALKING"}], "travel_mode": "WALKING"}, {"distance": {"text": "4.0 mi", "value": 6399}, "duration": {"text": "16 mins", "value": 960}, "end_location": {"lat": 29.758362, "lng": -95.36194599999999}, "html_instructions": "Light rail towards Downtown", "polyline": {"points": "kxntD|ytdQBDi@jCMd@u@lCETGVYbB[bBOt@iApF]`BeA~E?@]~AcBfIa@tB]`BiAzFk@pCYlAEP_@`By@|DUv@Mh@UzAIf@Ib@i@bCKj@WjAaAxE_@fB?BECQv@UbAMn@[tAId@EPERIZGZI\\I\\I\\WdAKb@K`@I`@K`@UhACTANCRCRMn@EV[xAI\\I\\Qv@Qv@IZEVGXEVEXEd@CXCZA^Cf@Ez@Gz@CRARE\\C\\E`@EZYpCE^?@Gd@Ef@m@zFCTCTEZG\\EXGXETCNENEPGXGRuBhIIZKZK`@M^M`@Mb@O^M^gAzCADKVGPGRITGTEPGREPERKf@Qt@GREVGPIXEJEJENKRIPGLMTKT]n@Q\\[n@{@`Bo@nA_@t@INKPKPMTYf@S\\MVOTw@~AOTOPKPYj@KTIXIRe@z@MTKPMTSVMRMPSVuAbBWZo@v@KLMNKLKLMJKHC@KHs@d@OLKHMJ[XKJIHKLCBGHMPINKLIPINGNKTIRGRGRGTGXGVG`@Gf@EZAPAN?NAN?N?N?N?L@N?N@N@NJ`B@NLnB?N@RAN?NAHAJCNi@dAw@zACDCDCFq@pAYj@OVCHOVGLGNWl@GNINGPKPKRGPGNKNIJg@`AS`@S`@S^GNENAL?L@LBNFLFJf@n@FHFJDJBN@H?HCXGVOZYl@c@|@GLIN{@xACHQZoAdCa@v@aAlBEJeBdDS`@sAhC[l@_AnBGJ{@`BDB"}, "start_location": {"lat": 29.735905, "lng": -95.302872}, "transit_details": {"arrival_stop": {"location": {"lat": 29.758362, "lng": -95.36194599999999}, "name": "Central Station WB"}, "arrival_time": {"text": "3:30pm", "time_zone": "America/Chicago", "value": 1642023000}, "departure_stop": {"location": {"lat": 29.735905, "lng": -95.302872}, "name": "Magnolia Park Transit Center"}, "departure_time": {"text": "3:14pm", "time_zone": "America/Chicago", "value": 1642022040}, "headsign": "Downtown", "line": {"agencies": [{"name": "Metropolitan Transit Authority of Harris County", "phone": "1 (713) 635-4000", "url": "http://www.ridemetro.org/"}], "color": "#6d8428", "name": "Metrorail Green Line", "short_name": "Green", "text_color": "#ffffff", "url": "https://www.ridemetro.org/Pages/GreenLine.aspx", "vehicle": {"icon": "//maps.gstatic.com/mapfiles/transit/iw2/6/tram2.png", "name": "Light rail", "type": "TRAM"}}, "num_stops": 7}, "travel_mode": "TRANSIT"}, {"distance": {"text": "0.1 mi", "value": 193}, "duration": {"text": "2 mins", "value": 143}, "end_location": {"lat": 29.758764, "lng": -95.363464}, "html_instructions": "Walk to Central Station Main", "polyline": {"points": "gestDlk`eQa@x@IJKPw@zAWd@BBFDJH\\VTRGLBA"}, "start_location": {"lat": 29.7584352, "lng": -95.3619863}, "steps": [{"distance": {"text": "443 ft", "value": 135}, "duration": {"text": "2 mins", "value": 100}, "end_location": {"lat": 29.7591223, "lng": -95.3630816}, "html_instructions": "Head <b>northwest</b> on <b>Capitol St</b> toward <b>Fannin St</b>", "polyline": {"points": "gestDlk`eQa@x@IJKPw@zAWd@"}, "start_location": {"lat": 29.7584352, "lng": -95.3619863}, "travel_mode": "WALKING"}, {"distance": {"text": "187 ft", "value": 57}, "duration": {"text": "1 min", "value": 41}, "end_location": {"lat": 29.7587357, "lng": -95.36339579999999}, "html_instructions": "Turn <b>left</b> onto <b>Main St</b><div style=\"font-size:0.9em\">Destination will be on the right</div>", "maneuver": "turn-left", "polyline": {"points": "oistDfr`eQBBFDJH\\VTR"}, "start_location": {"lat": 29.7591223, "lng": -95.3630816}, "travel_mode": "WALKING"}, {"distance": {"text": "3 ft", "value": 1}, "duration": {"text": "1 min", "value": 2}, "end_location": {"lat": 29.758764, "lng": -95.363464}, "html_instructions": "Take entrance <span class=\"location\"></span>", "polyline": {"points": "kgstDtt`eQBA"}, "start_location": {"lat": 29.7587793, "lng": -95.3634667}, "travel_mode": "WALKING"}], "travel_mode": "WALKING"}, {"distance": {"text": "3.6 mi", "value": 5729}, "duration": {"text": "14 mins", "value": 840}, "end_location": {"lat": 29.802746, "lng": -95.36810299999999}, "html_instructions": "Light rail towards Northline TC", "polyline": {"points": "ggstDrt`eQGJA?gAy@KIgCmBOK{CyBGGeCkBGEgAw@MK_Aq@_Aq@sAaAu@g@}AmAAACA_@SAA[QIEQIUIMGQEOEAAMC]G_@M]MMEc@GOCMCgAUaASEAE?ICIAc@I]I[GYECA]Ec@Ec@EWCSGQCGCQCOCMAKAMAC?G?O?O?Q@O@OBOBw@P]H[HE@WHIBA?MBQBA@M@SDM@UD_@JA?MD[Fu@N]HWFA?QDUFYJa@R}@^C@aA`@c@PKDSHUJUJSJ?@_@RYNa@ZWRCBSLWNSHCBWJC@a@N_@Na@NcC~@mAd@UHc@PiAb@e@P[JWJ}Al@i@R{Bx@QJYPOHc@NYHSBSFq@Vi@RmAb@_@Ne@Py@ZeA`@o@TEBC@i@Rm@T_A\\u@XYJa@Pm@Ta@Ny@ZMDKBI@E@I?OAKCMEKGIIEGEGEMEM{@cDIYQs@e@cBMk@i@mB?AMe@CKAIAI?K?k@AOAOCMEMEKEECEMKMIMEMCKCsAMOAc@EMA{AOc@EE?o@GSCQAOASASA{AIWASAW?a@A_DAU@M@K?UCoAAM?k@?O@M@MDKDsBdA{At@]PyBfAQJKDKJKHKJKLIJYj@_@p@i@|@U\\g@x@IJc@p@QTcB|B{ArBSXMLIJOPORONeA|AiAzAKPINa@n@KPKPKNo@|@_@f@IJMNMLMJKHOFOFODOBQ@O@Q?kBAW?_@?o@?U?S@O?{AFM?W@U?M?{B?{BAQ?}BAaBAK?I@I@KBkA\\?@"}, "start_location": {"lat": 29.758764, "lng": -95.363464}, "transit_details": {"arrival_stop": {"location": {"lat": 29.802746, "lng": -95.36810299999999}, "name": "Cavalcade"}, "arrival_time": {"text": "3:54pm", "time_zone": "America/Chicago", "value": 1642024440}, "departure_stop": {"location": {"lat": 29.758764, "lng": -95.363464}, "name": "Central Station Main"}, "departure_time": {"text": "3:40pm", "time_zone": "America/Chicago", "value": 1642023600}, "headsign": "Northline TC", "line": {"agencies": [{"name": "Metropolitan Transit Authority of Harris County", "phone": "1 (713) 635-4000", "url": "http://www.ridemetro.org/"}], "color": "#e60f33", "name": "Metrorail Red Line", "short_name": "Red", "text_color": "#ffffff", "url": "https://www.ridemetro.org/Pages/RedLine.aspx", "vehicle": {"icon": "//maps.gstatic.com/mapfiles/transit/iw2/6/tram2.png", "name": "Light rail", "type": "TRAM"}}, "num_stops": 7}, "travel_mode": "TRANSIT"}, {"distance": {"text": "374 ft", "value": 114}, "duration": {"text": "2 mins", "value": 132}, "end_location": {"lat": 29.80337, "lng": -95.3681249}, "html_instructions": "Walk to Cavalcade St @ Fulton St", "polyline": {"points": "}y{tDnraeQ]JYJ]NOHE@MFMD?Q@Q?O@Q?S"}, "start_location": {"lat": 29.8027124, "lng": -95.36824179999999}, "steps": [{"distance": {"text": "253 ft", "value": 77}, "duration": {"text": "1 min", "value": 75}, "end_location": {"lat": 29.8033907, "lng": -95.3684799}, "html_instructions": "Head <b>north</b> on <b>Fulton St</b> toward <b>Cavalcade St</b>", "polyline": {"points": "}y{tDnraeQ]JYJ]NOHE@MFMD?Q"}, "start_location": {"lat": 29.8027124, "lng": -95.36824179999999}, "travel_mode": "WALKING"}, {"distance": {"text": "121 ft", "value": 37}, "duration": {"text": "1 min", "value": 57}, "end_location": {"lat": 29.80337, "lng": -95.3681249}, "html_instructions": "Turn <b>right</b> onto <b>Cavalcade St</b>", "maneuver": "turn-right", "polyline": {"points": "e~{tD~saeQ@Q?O@Q?S"}, "start_location": {"lat": 29.8033907, "lng": -95.3684799}, "travel_mode": "WALKING"}], "travel_mode": "WALKING"}, {"distance": {"text": "5.2 mi", "value": 8421}, "duration": {"text": "19 mins", "value": 1120}, "end_location": {"lat": 29.80163, "lng": -95.454342}, "html_instructions": "Bus towards Memorial City", "polyline": {"points": "a~{tDvqaeQF@AV?LANAT?RAXCR?@CXQ|@Kf@Sz@ENOr@CRE\\Cb@KfCARCpAAv@AXCf@?DAT?LAHCfAAd@?D?lB?h@?VBjC?lB?x@@z@@fB?fD@fDE`BA|@?HA\\@V?lA@L?\\?x@?V@j@@t@?L?JB`@@T@NBN@N@V?f@@f@?`A?r@?L?xBAP?JALAPANIbAEb@?TAR?V?fH?p@@vD@xAC^C^CRA@ETC\\Af@?P?P?LA`@@\\BpA?^@j@?H@tA?n@?b@@b@?X?P?V@`A?v@@dA?V?vA@T?lB@jB@tA?XB|E?~A@zB@nB?V?V@t@?L?R?L@R?N?f@?h@@|@?\\?d@?b@@n@?pA@|B?d@?`@@t@?T?pA@v@@rA?v@@bD@~@?nA@H?tB@^@dC?P?j@@x@?x@?t@@P?dA@|A?\\?^@dC@zB?xA?N@V?fA@`ABfE?tABtJ?pB@rA?r@?H?|@?jB?@?j@@h@AL?\\?J@f@?|B?h@?|@?n@?N?|G?J@tE?d@@dC?p@AL@J?V@P@H?B?D@F@HBH@JDPDLDLDHDJDJHLFHFHLL?@TVTVn@v@NRh@h@NPVX^f@BJBFBFf@v@P`@DZDVBT@F?D@F?H?P@P?X?N?F?j@@pAIpB@f@?V?fA?j@?V@h@AjA?h@@~@?b@@^Af@@d@?X?bA?jA?b@@nC?J?d@Aj@?v@?P@dB?jA?bC?`A?\\@dH?`D?dC@fE?jD?T@`F@vB?jD?vC?X?`E@V@zCAb@?fAAX@fB@fA?T@|B?l@A~A?x@?XAzB?`A?dB?l@?P?F?H@^?Z?@?H?@?Z?h@?f@?j@?^?t@@j@BnAAV@|@@fB?bBG?"}, "start_location": {"lat": 29.803368, "lng": -95.368125}, "transit_details": {"arrival_stop": {"location": {"lat": 29.80163, "lng": -95.454342}, "name": "W 18th St @ Northwest Fwy"}, "arrival_time": {"text": "4:18pm", "time_zone": "America/Chicago", "value": 1642025920}, "departure_stop": {"location": {"lat": 29.803368, "lng": -95.368125}, "name": "Cavalcade St @ Fulton St"}, "departure_time": {"text": "4:00pm", "time_zone": "America/Chicago", "value": 1642024800}, "headsign": "Memorial City", "line": {"agencies": [{"name": "Metropolitan Transit Authority of Harris County", "phone": "1 (713) 635-4000", "url": "http://www.ridemetro.org/"}], "color": "#004080", "name": "Long Point / Cavalcade", "short_name": "26", "text_color": "#ffffff", "url": "https://www.ridemetro.org/MetroPDFs/Schedules/BusSchedules/n026-Long-Point-Cavalcade.pdf", "vehicle": {"icon": "//maps.gstatic.com/mapfiles/transit/iw2/6/bus2.png", "name": "Bus", "type": "BUS"}}, "num_stops": 31, "trip_short_name": "LONGPOINT"}, "travel_mode": "TRANSIT"}, {"distance": {"text": "322 ft", "value": 98}, "duration": {"text": "1 min", "value": 77}, "end_location": {"lat": 29.8019199, "lng": -95.45428179999999}, "html_instructions": "Walk to 4400 W 18th St, Houston, TX 77092, USA", "polyline": {"points": "es{tDrlreQ?z@YEc@E?G@Q@a@"}, "start_location": {"lat": 29.8016264, "lng": -95.454342}, "steps": [{"distance": {"text": "95 ft", "value": 29}, "duration": {"text": "1 min", "value": 22}, "end_location": {"lat": 29.8016252, "lng": -95.45463819999999}, "html_instructions": "Head <b>west</b> on <b>W 18th St</b>/<wbr/><b>NW Mall</b>", "polyline": {"points": "es{tDrlreQ?z@"}, "start_location": {"lat": 29.8016264, "lng": -95.454342}, "travel_mode": "WALKING"}, {"distance": {"text": "131 ft", "value": 40}, "duration": {"text": "1 min", "value": 33}, "end_location": {"lat": 29.8019405, "lng": -95.4545788}, "html_instructions": "Turn <b>right</b><div style=\"font-size:0.9em\">Restricted usage road</div>", "maneuver": "turn-right", "polyline": {"points": "es{tDnnreQYEc@E"}, "start_location": {"lat": 29.8016252, "lng": -95.45463819999999}, "travel_mode": "WALKING"}, {"distance": {"text": "95 ft", "value": 29}, "duration": {"text": "1 min", "value": 22}, "end_location": {"lat": 29.8019199, "lng": -95.45428179999999}, "html_instructions": "Turn <b>right</b><div style=\"font-size:0.9em\">Restricted usage road</div><div style=\"font-size:0.9em\">Destination will be on the left</div>", "maneuver": "turn-right", "polyline": {"points": "cu{tDbnreQ?G@Q@a@"}, "start_location": {"lat": 29.8019405, "lng": -95.4545788}, "travel_mode": "WALKING"}], "travel_mode": "WALKING"}], "traffic_speed_entry": [], "via_waypoint": []}], "overview_polyline": {"points": "igntDx~rdQAB`@LWrAGCLDI^e@|BoAhGu@hDOp@ENb@N`AXnC|@_@fBg@`CYtAs@|CuB|Ju@rD]dBi@[qBk@i@ULi@rA^ERDSsA_@Mh@s@WBDi@jCcArDMl@u@fEyAfHaCbLmFzWkBrIoAtFc@dCSjAu@nDyBpKECQv@c@rBq@`De@rBy@hDUbAY~AWfBu@lDs@bDSjAOzBUrDw@`I_A~IWhBWnAkChKo@xBy@dC}AjE_@pAgAtE[`Ak@hAmFjKiDlG_@f@e@|@Un@o@nA{@tAeC`DaBpBq@p@sA~@aAz@a@d@m@`Ag@hA_@vA]|BE`A?|@D~@ZpFA|@EZaB`D}@dB}@dBo@zAi@fAO`@UZcBdDM^AZD\\NXn@x@LVDXCb@Wr@}@jBqA`CeEfIsJhRDBOFk@dAcAlBWd@BBRNr@j@GLBAIJkF}DqHsFuEgDiFyDaAi@_Aa@q@Q}@Uk@SiCe@wAYgB]_BS{@Ie@Kw@Me@CaABuBb@cAXiBXkAXmB`@g@L{@^gDtAkAf@mAp@qA`AgAh@sJrDcDlAgC`AmCdAi@Z}@Xg@J{Aj@mE`B_C|@yIdDgA`@UDO@[EYMOQKUaAqDoA}E{@aDCS?w@C_@I[KQQQ[OYGuCWuD]eFYy@AuD?_CCy@?]BYJoEzBuDjBWTWXmBfDkBtCeF`Hw@~@kDzEcAbBeB`C[\\YT_@N_@Ha@B}BA}B?mCHwD@mJEU@UDkA\\?@FZ]Jw@ZUJ[L@c@@u@F@AVA\\GvAa@`CYjASfAI`AMzCKjECr@ElB?rBBzHBdK@fDE`BAfA@pC@zCDpBFt@BnA@jDAjCAXShCAhJ@hFAxBOjAEhBFjIJjYLp[\\j`AJ~[@zM@nJB|W@bABZLp@Vp@^l@x@~@hBtBf@j@^f@BJFNf@v@P`@Jr@D\\@h@@bA@|BIpB@f@?~A?bA?tB@hB@pC?zLBdWDvd@@jKA`HDbIA`F?tK?bEDpE@`HG??z@YEc@E?GBs@"}, "summary": "", "warnings": ["Walking directions are in beta. Use caution \u2013 This route may be missing sidewalks or pedestrian paths."], "waypoint_order": []}, {"bounds": {"northeast": {"lat": 29.804029, "lng": -95.2934143}, "southwest": {"lat": 29.7277031, "lng": -95.45463819999999}}, "copyrights": "Map data \u00a92022", "legs": [{"arrival_time": {"text": "4:34pm", "time_zone": "America/Chicago", "value": 1642026897}, "departure_time": {"text": "3:06pm", "time_zone": "America/Chicago", "value": 1642021560}, "distance": {"text": "16.0 mi", "value": 25694}, "duration": {"text": "1 hour 29 mins", "value": 5337}, "end_address": "4400 W 18th St, Houston, TX 77092, USA", "end_location": {"lat": 29.8019199, "lng": -95.45428179999999}, "start_address": "7415 Harrisburg Blvd, Houston, TX 77011, USA", "start_location": {"lat": 29.7331706, "lng": -95.2934143}, "steps": [{"distance": {"text": "223 ft", "value": 68}, "duration": {"text": "1 min", "value": 52}, "end_location": {"lat": 29.733132, "lng": -95.2939153}, "html_instructions": "Walk to Harrisburg Blvd @ 74th St", "polyline": {"points": "igntDx~rdQAB`@LWrA"}, "start_location": {"lat": 29.7331706, "lng": -95.2934143}, "steps": [{"distance": {"text": "7 ft", "value": 2}, "duration": {"text": "1 min", "value": 1}, "end_location": {"lat": 29.7331767, "lng": -95.2934327}, "html_instructions": "Head <b>southwest</b> toward <b>Harrisburg Blvd</b><div style=\"font-size:0.9em\">Restricted usage road</div>", "polyline": {"points": "igntDx~rdQAB"}, "start_location": {"lat": 29.7331706, "lng": -95.2934143}, "travel_mode": "WALKING"}, {"distance": {"text": "79 ft", "value": 24}, "duration": {"text": "1 min", "value": 19}, "end_location": {"lat": 29.7330054, "lng": -95.2935037}, "html_instructions": "Turn <b>left</b> toward <b>Harrisburg Blvd</b><div style=\"font-size:0.9em\">Restricted usage road</div>", "maneuver": "turn-left", "polyline": {"points": "kgntD|~rdQ`@L"}, "start_location": {"lat": 29.7331767, "lng": -95.2934327}, "travel_mode": "WALKING"}, {"distance": {"text": "138 ft", "value": 42}, "duration": {"text": "1 min", "value": 32}, "end_location": {"lat": 29.733132, "lng": -95.2939153}, "html_instructions": "Turn <b>right</b> onto <b>Harrisburg Blvd</b><div style=\"font-size:0.9em\">Destination will be on the right</div>", "maneuver": "turn-right", "polyline": {"points": "ifntDj_sdQWrA"}, "start_location": {"lat": 29.7330054, "lng": -95.2935037}, "travel_mode": "WALKING"}], "travel_mode": "WALKING"}, {"distance": {"text": "3.7 mi", "value": 5925}, "duration": {"text": "16 mins", "value": 967}, "end_location": {"lat": 29.728237, "lng": -95.335172}, "html_instructions": "Bus towards Eastwood TC", "polyline": {"points": "igntDzasdQLDI^WnAMl@Ib@g@bCYpACNQt@YpAAHGVGVGXENb@Nr@RLDnC|@_@fBMl@YrAAFWlAOl@Mn@K`@I\\Ml@EP_@jBKb@Op@ERENYvAETI^_@lBENMl@Ov@i@[qBk@OGYMLi@rA^fA\\j@POv@Qv@OfAWxA[jAa@dBWhAETK`@Mj@Qv@Mh@dBf@XFB@dBh@`@Lh@NZJzAd@`AZWlACLENG\\AJAHAFA^?v@@D@RHj@BPBF@BDLFNJTn@xAJVDPBLDRBRDXBXJjAFn@@R@N@Z?V?l@?^@dD?h@?rA?n@?JA^Cb@C`@?HCTEXCNAHSz@o@pCGR[rAAH?B?@?@@@@BGTERQx@Qx@AHKd@On@WjAUnAc@rBYrAI`@g@~BQx@k@pCi@lCERq@|Ce@`CGXKj@i@fCi@xCABKd@Q~@AHGb@?H?DAJCLq@jDo@zCCHMj@EFCBCFGLERgAhFG`@[|@GXGX?@K`@Kd@Kf@Kh@GVLFVJRJVNRP\\^PTLTP^f@zANZDH^j@@@BBXTVPXNHDj@TRFr@RpA`@NFz@Vn@Rj@Ph@NJD|@VNDPDfBh@n@RlDbAXHjEpA|@BT?TAn@Cn@Cj@?n@Dp@gDLk@@AJk@J?JAJ?JBlAb@~@\\NNBD@LANGT]`@MNG@K?GAs@{@Xc@"}, "start_location": {"lat": 29.733172, "lng": -95.293899}, "transit_details": {"arrival_stop": {"location": {"lat": 29.728237, "lng": -95.335172}, "name": "Eastwood Transit Center"}, "arrival_time": {"text": "3:23pm", "time_zone": "America/Chicago", "value": 1642022580}, "departure_stop": {"location": {"lat": 29.733172, "lng": -95.293899}, "name": "Harrisburg Blvd @ 74th St"}, "departure_time": {"text": "3:06pm", "time_zone": "America/Chicago", "value": 1642021613}, "headsign": "Eastwood TC", "line": {"agencies": [{"name": "Metropolitan Transit Authority of Harris County", "phone": "1 (713) 635-4000", "url": "http://www.ridemetro.org/"}], "color": "#004080", "name": "Broadway", "short_name": "50", "text_color": "#ffffff", "url": "https://www.ridemetro.org/MetroPDFs/Schedules/BusSchedules/n050-Broadway.pdf", "vehicle": {"icon": "//maps.gstatic.com/mapfiles/transit/iw2/6/bus2.png", "name": "Bus", "type": "BUS"}}, "num_stops": 21, "trip_short_name": "BROADWAY"}, "travel_mode": "TRANSIT"}, {"distance": {"text": "8.8 mi", "value": 14161}, "duration": {"text": "40 mins", "value": 2400}, "end_location": {"lat": 29.804029, "lng": -95.398901}, "html_instructions": "Bus towards N Shepherd P&R", "polyline": {"points": "ohmtDxc{dQDe@nAHNNBD@LANGT]`@MNG@K?GAWKa@Yc@YMQGIEO@E?EBKHe@?WK@K?Kj@UFSGMY[i@QYg@i@c@_@m@c@eBk@?Aa@KMEsDiAoBm@_@KICuAc@SG]KCA]KcCu@eBi@OEm@Qi@Me@GS?QAa@@WBC@G?SDA?E@c@F]BK?c@Ba@?Y?C?_@C[CUCWKe@Oa@M_@MMEGVu@pDI\\ABKf@SjAEX?La@tBa@rBI`@cBfIQx@wBnKQ|@S~@YnAG\\]|A[xAKd@]`BCLGXUlAMn@Op@Op@iAvF]bBEXAFI^CNCHCNIV]~@Q`@Wj@INeBjDqAdCOZGLGHADWh@KPm@jAGLGJaB~CgBhDyAtCKTgBlDy@zAk@jAuAnCQZUj@Wd@_@t@MTKJg@bAIN]p@OZMTINCFQZS\\AFS`@INGP{AtCA@IRWh@GLMPCHo@lAMPKVIL?@?@INCFA@GJ?@A@ABEHCDA@a@t@i@fA{@`BKTUb@QMuB}AGGA?CAA?A@A??@A@EDu@xA_@p@SRQLIFKDODEBE?G@IB]DMBKBEBM@UD_@HIBC@IBQLIFIJKRQTsAlCKP?BABADINs@pAi@bAgArBa@t@aBnDQZgArBMTADABCFA@OVwAnCuAnCMT_@x@gAtB]p@{@bB?@KViBdDIRMTkA|BdAz@t@f@RNbBnAj@r@Lj@BvA?TBVGT?b@?bBB|A@n@?L?B?@?f@?B?Z?@?F@b@?B?DAX@l@@T?\\@nA?h@?h@A|A@V?\\?nA?f@@d@AJAL?HCJGTEREp@C`@ANAd@?@?h@?nA@tA?R@dB?F@v@?H?T?JBt@BTDRLp@D^Dn@?b@@tA?`@@x@?h@@d@?X@`AB|C?v@@n@@R?H?P@p@?~@@dA@h@?rA@F?^@rA@f@@|B?lA?p@@P?LB|D@`C@lB@P?@?F@\\?Z?dA@fA@vABjB@dA?`@?^@T?hB@p@@|B@^B|C@rA?R?V?r@_B@{ABk@@uA@yAAa@A{A?O?aC?Y?O?I?Y@[@A?G@E?G@UBMDMFOF}@^_A^QHSH]NQFC@MBEB[DWDW@Y@m@Em@GMCIACAOCEAMCe@QSISIUM_@Q[KGEWMCAUMCCAAWQ[UECSOYUOKGG[WSKSIYMKCKEqCm@c@E_ABq@@yB@O?k@Bc@BQJO@Q@MBWNB[y@?c@?[?o@?oA@qA@S?O@G?cA?{EDm@?{ABa@@C?eA?[?aB?YAmA@kA@S@C?O@g@?[?s@BG?C?U?M?E?s@A}@@}A@I?gJDI?sHD{@@eJDK?S?E?{@@m@@yEBO?_JFS?gIFW?M?yDB{C@Y?kFBsB@Q?aC@mB@iB@W?yB@c@@_E@S?cJHK?qHF]?O?O@iE?_EDK?{@?i@@cB?gBBs@@_@?Q??R?L@R?N?f@?h@@|@M?"}, "start_location": {"lat": 29.728237, "lng": -95.335172}, "transit_details": {"arrival_stop": {"location": {"lat": 29.804029, "lng": -95.398901}, "name": "W 20th St @ Yale St"}, "arrival_time": {"text": "4:16pm", "time_zone": "America/Chicago", "value": 1642025760}, "departure_stop": {"location": {"lat": 29.728237, "lng": -95.335172}, "name": "Eastwood Transit Center"}, "departure_time": {"text": "3:36pm", "time_zone": "America/Chicago", "value": 1642023360}, "headsign": "N Shepherd P&R", "line": {"agencies": [{"name": "Metropolitan Transit Authority of Harris County", "phone": "1 (713) 635-4000", "url": "http://www.ridemetro.org/"}], "color": "#004080", "name": "Telephone / Heights", "short_name": "40", "text_color": "#ffffff", "url": "https://www.ridemetro.org/MetroPDFs/Schedules/BusSchedules/n040-Telephone-Heights.pdf", "vehicle": {"icon": "//maps.gstatic.com/mapfiles/transit/iw2/6/bus2.png", "name": "Bus", "type": "BUS"}}, "num_stops": 57, "trip_short_name": "TELEHEIGHT"}, "travel_mode": "TRANSIT"}, {"distance": {"text": "3.4 mi", "value": 5442}, "duration": {"text": "12 mins", "value": 725}, "end_location": {"lat": 29.80163, "lng": -95.454342}, "html_instructions": "Bus towards Memorial City", "polyline": {"points": "eb|tDbrgeQL??\\?d@?b@@n@?pA@|B?d@?`@@t@?T?pA@v@@rA?v@@bD@~@?nA@H?tB@^@dC?P?j@@x@?x@?t@@P?dA@|A?\\?^@dC@zB?xA?N@V?fA@`ABfE?tABtJ?pB@rA?r@?H?|@?jB?@?j@@h@AL?\\?J@f@?|B?h@?|@?n@?N?|G?J@tE?d@@dC?p@AL@J?V@P@H?B?D@F@HBH@JDPDLDLDHDJDJHLFHFHLL?@TVTVn@v@NRh@h@NPVX^f@BJBFBFf@v@P`@DZDVBT@F?D@F?H?P@P?X?N?F?j@@pAIpB@f@?V?fA?j@?V@h@AjA?h@@~@?b@@^Af@@d@?X?bA?jA?b@@nC?J?d@Aj@?v@?P@dB?jA?bC?`A?\\@dH?`D?dC@fE?jD?T@`F@vB?jD?vC?X?`E@V@zCAb@?fAAX@fB@fA?T@|B?l@A~A?x@?XAzB?`A?dB?l@?P?F?H@^?Z?@?H?@?Z?h@?f@?j@?^?t@@j@BnAAV@|@@fB?bBG?"}, "start_location": {"lat": 29.804029, "lng": -95.398901}, "transit_details": {"arrival_stop": {"location": {"lat": 29.80163, "lng": -95.454342}, "name": "W 18th St @ Northwest Fwy"}, "arrival_time": {"text": "4:33pm", "time_zone": "America/Chicago", "value": 1642026820}, "departure_stop": {"location": {"lat": 29.804029, "lng": -95.398901}, "name": "W 20th St @ Yale St"}, "departure_time": {"text": "4:21pm", "time_zone": "America/Chicago", "value": 1642026095}, "headsign": "Memorial City", "line": {"agencies": [{"name": "Metropolitan Transit Authority of Harris County", "phone": "1 (713) 635-4000", "url": "http://www.ridemetro.org/"}], "color": "#004080", "name": "Long Point / Cavalcade", "short_name": "26", "text_color": "#ffffff", "url": "https://www.ridemetro.org/MetroPDFs/Schedules/BusSchedules/n026-Long-Point-Cavalcade.pdf", "vehicle": {"icon": "//maps.gstatic.com/mapfiles/transit/iw2/6/bus2.png", "name": "Bus", "type": "BUS"}}, "num_stops": 18, "trip_short_name": "LONGPOINT"}, "travel_mode": "TRANSIT"}, {"distance": {"text": "322 ft", "value": 98}, "duration": {"text": "1 min", "value": 77}, "end_location": {"lat": 29.8019199, "lng": -95.45428179999999}, "html_instructions": "Walk to 4400 W 18th St, Houston, TX 77092, USA", "polyline": {"points": "es{tDrlreQ?z@YEc@E?G@Q@a@"}, "start_location": {"lat": 29.8016264, "lng": -95.454342}, "steps": [{"distance": {"text": "95 ft", "value": 29}, "duration": {"text": "1 min", "value": 22}, "end_location": {"lat": 29.8016252, "lng": -95.45463819999999}, "html_instructions": "Head <b>west</b> on <b>W 18th St</b>/<wbr/><b>NW Mall</b>", "polyline": {"points": "es{tDrlreQ?z@"}, "start_location": {"lat": 29.8016264, "lng": -95.454342}, "travel_mode": "WALKING"}, {"distance": {"text": "131 ft", "value": 40}, "duration": {"text": "1 min", "value": 33}, "end_location": {"lat": 29.8019405, "lng": -95.4545788}, "html_instructions": "Turn <b>right</b><div style=\"font-size:0.9em\">Restricted usage road</div>", "maneuver": "turn-right", "polyline": {"points": "es{tDnnreQYEc@E"}, "start_location": {"lat": 29.8016252, "lng": -95.45463819999999}, "travel_mode": "WALKING"}, {"distance": {"text": "95 ft", "value": 29}, "duration": {"text": "1 min", "value": 22}, "end_location": {"lat": 29.8019199, "lng": -95.45428179999999}, "html_instructions": "Turn <b>right</b><div style=\"font-size:0.9em\">Restricted usage road</div><div style=\"font-size:0.9em\">Destination will be on the left</div>", "maneuver": "turn-right", "polyline": {"points": "cu{tDbnreQ?G@Q@a@"}, "start_location": {"lat": 29.8019405, "lng": -95.4545788}, "travel_mode": "WALKING"}], "travel_mode": "WALKING"}], "traffic_speed_entry": [], "via_waypoint": []}], "overview_polyline": {"points": "igntDx~rdQAB`@LWrAGCLDI^e@|BoAhGu@hDOp@ENb@N`AXnC|@_@fBg@`CYtAs@|CuB|Ju@rD]dBi@[qBk@i@ULi@rA^rBn@a@nBg@`D}@pDw@lD_@`B~Bn@tDhAvBp@`AZWlAI\\Ih@CPAvABXL|@Rh@z@nBPh@RnAXhDBpB@bIE~BMzAoB|IBHq@|CsCdNuFfXu@rDk@|Cg@rCEh@sB|JIJKTmA|Fc@~A[vAk@nCd@Rj@Zp@p@^j@x@zBTd@`@l@\\Xp@`@t@ZhDdAlHvB~IjCjEpArABdAEzACn@Dp@gDNm@Jk@J?VAxAf@~@\\NNDRANGT]`@MNG@SAs@{@Xc@De@nAHRT@LId@k@p@S@_@MeAs@U[CUBQHe@?WW@Kj@UFSGMYm@cAkAiAm@c@eBk@a@MaEoAoFaB{JyCoAUe@AeAF_ANi@BeAByAGm@OgA]m@S}@hEk@tCEX?LcAhFwFrXkDjPwDdRUpAGXg@vAi@lAoBzDqBxDmHpNgGtLiDbHw@zAY`@_B`DaB`DoB|Dq@rAsAdCIRWf@yC|FUb@QM}BeBI?IHuAjCe@`@k@Vu@JqBb@e@XU^eBbDO^oDxGcCdFyAnCUf@_ExHsCvFqDbHWh@kA|BdAz@hAv@bBnAj@r@Lj@BvABl@GT?b@B`E@`A@vBB~F?fJAVK`@EREp@Ep@A`DBvE@bBFjARdAJnA@xBBjDHpKTv`@RnYHnK?j@?r@_B@gCDoD?oGAmA@k@BG@c@H{CnAuAj@s@NiAH{AMMCc@IgA_@i@W{@]y@c@}BcBc@_@g@Ue@Q}Cs@c@E_ABkDB{@Bc@BQJa@BMBWNB[y@?_A?qEBoB@gKJgE?gB?_BBwA@uABeC?{d@TaVN}`@RaVJuTPgG@qQLQ??R@`@@~CM?L??bABbHDhLHjRLv]Ht]@bH@dX?jFD~@BZPt@Vn@f@n@dDxDv@`AFRj@~@V|@Jz@Bt@?|A@pAIpB@~@@tDAtB@bB@fC@bI?|MBv`@BxI?bIBnKAlFBhGCnH?fF@vBBfJBdD?bBG??z@}@KB{@"}, "summary": "", "warnings": ["Walking directions are in beta. Use caution \u2013 This route may be missing sidewalks or pedestrian paths."], "waypoint_order": []}, {"bounds": {"northeast": {"lat": 29.8041315, "lng": -95.2934143}, "southwest": {"lat": 29.7330054, "lng": -95.45463819999999}}, "copyrights": "Map data \u00a92022", "legs": [{"arrival_time": {"text": "4:19pm", "time_zone": "America/Chicago", "value": 1642025997}, "departure_time": {"text": "3:01pm", "time_zone": "America/Chicago", "value": 1642021276}, "distance": {"text": "13.6 mi", "value": 21944}, "duration": {"text": "1 hour 19 mins", "value": 4721}, "end_address": "4400 W 18th St, Houston, TX 77092, USA", "end_location": {"lat": 29.8019199, "lng": -95.45428179999999}, "start_address": "7415 Harrisburg Blvd, Houston, TX 77011, USA", "start_location": {"lat": 29.7331706, "lng": -95.2934143}, "steps": [{"distance": {"text": "0.6 mi", "value": 990}, "duration": {"text": "13 mins", "value": 763}, "end_location": {"lat": 29.7359874, "lng": -95.30286989999999}, "html_instructions": "Walk to Magnolia Park Transit Center", "polyline": {"points": "igntDx~rdQAB`@La@pBWnAMl@Kd@g@bC]`BOt@YpACFEVGVGZENUdAKj@Mh@Op@ERQx@q@`DK`@CLETI^_@dBI^]bBENOXKf@Gb@Mb@Kb@Ul@GTKf@Kh@CF"}, "start_location": {"lat": 29.7331706, "lng": -95.2934143}, "steps": [{"distance": {"text": "7 ft", "value": 2}, "duration": {"text": "1 min", "value": 1}, "end_location": {"lat": 29.7331767, "lng": -95.2934327}, "html_instructions": "Head <b>southwest</b> toward <b>Harrisburg Blvd</b><div style=\"font-size:0.9em\">Restricted usage road</div>", "polyline": {"points": "igntDx~rdQAB"}, "start_location": {"lat": 29.7331706, "lng": -95.2934143}, "travel_mode": "WALKING"}, {"distance": {"text": "79 ft", "value": 24}, "duration": {"text": "1 min", "value": 19}, "end_location": {"lat": 29.7330054, "lng": -95.2935037}, "html_instructions": "Turn <b>left</b> toward <b>Harrisburg Blvd</b><div style=\"font-size:0.9em\">Restricted usage road</div>", "maneuver": "turn-left", "polyline": {"points": "kgntD|~rdQ`@L"}, "start_location": {"lat": 29.7331767, "lng": -95.2934327}, "travel_mode": "WALKING"}, {"distance": {"text": "0.6 mi", "value": 964}, "duration": {"text": "12 mins", "value": 743}, "end_location": {"lat": 29.7359874, "lng": -95.30286989999999}, "html_instructions": "Turn <b>right</b> onto <b>Harrisburg Blvd</b><div style=\"font-size:0.9em\">Destination will be on the left</div>", "maneuver": "turn-right", "polyline": {"points": "ifntDj_sdQa@pBWnAMl@Kd@g@bC]`BOt@YpACFEVGVGZENUdAKj@Mh@Op@ERQx@q@`DK`@CLETI^_@dBI^]bBENOXKf@Gb@Mb@Kb@Ul@GTKf@Kh@CF"}, "start_location": {"lat": 29.7330054, "lng": -95.2935037}, "travel_mode": "WALKING"}], "travel_mode": "WALKING"}, {"distance": {"text": "4.0 mi", "value": 6399}, "duration": {"text": "16 mins", "value": 960}, "end_location": {"lat": 29.758362, "lng": -95.36194599999999}, "html_instructions": "Light rail towards Downtown", "polyline": {"points": "kxntD|ytdQBDi@jCMd@u@lCETGVYbB[bBOt@iApF]`BeA~E?@]~AcBfIa@tB]`BiAzFk@pCYlAEP_@`By@|DUv@Mh@UzAIf@Ib@i@bCKj@WjAaAxE_@fB?BECQv@UbAMn@[tAId@EPERIZGZI\\I\\I\\WdAKb@K`@I`@K`@UhACTANCRCRMn@EV[xAI\\I\\Qv@Qv@IZEVGXEVEXEd@CXCZA^Cf@Ez@Gz@CRARE\\C\\E`@EZYpCE^?@Gd@Ef@m@zFCTCTEZG\\EXGXETCNENEPGXGRuBhIIZKZK`@M^M`@Mb@O^M^gAzCADKVGPGRITGTEPGREPERKf@Qt@GREVGPIXEJEJENKRIPGLMTKT]n@Q\\[n@{@`Bo@nA_@t@INKPKPMTYf@S\\MVOTw@~AOTOPKPYj@KTIXIRe@z@MTKPMTSVMRMPSVuAbBWZo@v@KLMNKLKLMJKHC@KHs@d@OLKHMJ[XKJIHKLCBGHMPINKLIPINGNKTIRGRGRGTGXGVG`@Gf@EZAPAN?NAN?N?N?N?L@N?N@N@NJ`B@NLnB?N@RAN?NAHAJCNi@dAw@zACDCDCFq@pAYj@OVCHOVGLGNWl@GNINGPKPKRGPGNKNIJg@`AS`@S`@S^GNENAL?L@LBNFLFJf@n@FHFJDJBN@H?HCXGVOZYl@c@|@GLIN{@xACHQZoAdCa@v@aAlBEJeBdDS`@sAhC[l@_AnBGJ{@`BDB"}, "start_location": {"lat": 29.735905, "lng": -95.302872}, "transit_details": {"arrival_stop": {"location": {"lat": 29.758362, "lng": -95.36194599999999}, "name": "Central Station WB"}, "arrival_time": {"text": "3:30pm", "time_zone": "America/Chicago", "value": 1642023000}, "departure_stop": {"location": {"lat": 29.735905, "lng": -95.302872}, "name": "Magnolia Park Transit Center"}, "departure_time": {"text": "3:14pm", "time_zone": "America/Chicago", "value": 1642022040}, "headsign": "Downtown", "line": {"agencies": [{"name": "Metropolitan Transit Authority of Harris County", "phone": "1 (713) 635-4000", "url": "http://www.ridemetro.org/"}], "color": "#6d8428", "name": "Metrorail Green Line", "short_name": "Green", "text_color": "#ffffff", "url": "https://www.ridemetro.org/Pages/GreenLine.aspx", "vehicle": {"icon": "//maps.gstatic.com/mapfiles/transit/iw2/6/tram2.png", "name": "Light rail", "type": "TRAM"}}, "num_stops": 7}, "travel_mode": "TRANSIT"}, {"distance": {"text": "0.1 mi", "value": 193}, "duration": {"text": "2 mins", "value": 143}, "end_location": {"lat": 29.758764, "lng": -95.363464}, "html_instructions": "Walk to Central Station Main", "polyline": {"points": "gestDlk`eQa@x@IJKPw@zAWd@BBFDJH\\VTRGLBA"}, "start_location": {"lat": 29.7584352, "lng": -95.3619863}, "steps": [{"distance": {"text": "443 ft", "value": 135}, "duration": {"text": "2 mins", "value": 100}, "end_location": {"lat": 29.7591223, "lng": -95.3630816}, "html_instructions": "Head <b>northwest</b> on <b>Capitol St</b> toward <b>Fannin St</b>", "polyline": {"points": "gestDlk`eQa@x@IJKPw@zAWd@"}, "start_location": {"lat": 29.7584352, "lng": -95.3619863}, "travel_mode": "WALKING"}, {"distance": {"text": "187 ft", "value": 57}, "duration": {"text": "1 min", "value": 41}, "end_location": {"lat": 29.7587357, "lng": -95.36339579999999}, "html_instructions": "Turn <b>left</b> onto <b>Main St</b><div style=\"font-size:0.9em\">Destination will be on the right</div>", "maneuver": "turn-left", "polyline": {"points": "oistDfr`eQBBFDJH\\VTR"}, "start_location": {"lat": 29.7591223, "lng": -95.3630816}, "travel_mode": "WALKING"}, {"distance": {"text": "3 ft", "value": 1}, "duration": {"text": "1 min", "value": 2}, "end_location": {"lat": 29.758764, "lng": -95.363464}, "html_instructions": "Take entrance <span class=\"location\"></span>", "polyline": {"points": "kgstDtt`eQBA"}, "start_location": {"lat": 29.7587793, "lng": -95.3634667}, "travel_mode": "WALKING"}], "travel_mode": "WALKING"}, {"distance": {"text": "3.6 mi", "value": 5729}, "duration": {"text": "14 mins", "value": 840}, "end_location": {"lat": 29.802746, "lng": -95.36810299999999}, "html_instructions": "Light rail towards Northline TC", "polyline": {"points": "ggstDrt`eQGJA?gAy@KIgCmBOK{CyBGGeCkBGEgAw@MK_Aq@_Aq@sAaAu@g@}AmAAACA_@SAA[QIEQIUIMGQEOEAAMC]G_@M]MMEc@GOCMCgAUaASEAE?ICIAc@I]I[GYECA]Ec@Ec@EWCSGQCGCQCOCMAKAMAC?G?O?O?Q@O@OBOBw@P]H[HE@WHIBA?MBQBA@M@SDM@UD_@JA?MD[Fu@N]HWFA?QDUFYJa@R}@^C@aA`@c@PKDSHUJUJSJ?@_@RYNa@ZWRCBSLWNSHCBWJC@a@N_@Na@NcC~@mAd@UHc@PiAb@e@P[JWJ}Al@i@R{Bx@QJYPOHc@NYHSBSFq@Vi@RmAb@_@Ne@Py@ZeA`@o@TEBC@i@Rm@T_A\\u@XYJa@Pm@Ta@Ny@ZMDKBI@E@I?OAKCMEKGIIEGEGEMEM{@cDIYQs@e@cBMk@i@mB?AMe@CKAIAI?K?k@AOAOCMEMEKEECEMKMIMEMCKCsAMOAc@EMA{AOc@EE?o@GSCQAOASASA{AIWASAW?a@A_DAU@M@K?UCoAAM?k@?O@M@MDKDsBdA{At@]PyBfAQJKDKJKHKJKLIJYj@_@p@i@|@U\\g@x@IJc@p@QTcB|B{ArBSXMLIJOPORONeA|AiAzAKPINa@n@KPKPKNo@|@_@f@IJMNMLMJKHOFOFODOBQ@O@Q?kBAW?_@?o@?U?S@O?{AFM?W@U?M?{B?{BAQ?}BAaBAK?I@I@KBkA\\?@"}, "start_location": {"lat": 29.758764, "lng": -95.363464}, "transit_details": {"arrival_stop": {"location": {"lat": 29.802746, "lng": -95.36810299999999}, "name": "Cavalcade"}, "arrival_time": {"text": "3:54pm", "time_zone": "America/Chicago", "value": 1642024440}, "departure_stop": {"location": {"lat": 29.758764, "lng": -95.363464}, "name": "Central Station Main"}, "departure_time": {"text": "3:40pm", "time_zone": "America/Chicago", "value": 1642023600}, "headsign": "Northline TC", "line": {"agencies": [{"name": "Metropolitan Transit Authority of Harris County", "phone": "1 (713) 635-4000", "url": "http://www.ridemetro.org/"}], "color": "#e60f33", "name": "Metrorail Red Line", "short_name": "Red", "text_color": "#ffffff", "url": "https://www.ridemetro.org/Pages/RedLine.aspx", "vehicle": {"icon": "//maps.gstatic.com/mapfiles/transit/iw2/6/tram2.png", "name": "Light rail", "type": "TRAM"}}, "num_stops": 7}, "travel_mode": "TRANSIT"}, {"distance": {"text": "374 ft", "value": 114}, "duration": {"text": "2 mins", "value": 132}, "end_location": {"lat": 29.80337, "lng": -95.3681249}, "html_instructions": "Walk to Cavalcade St @ Fulton St", "polyline": {"points": "}y{tDnraeQ]JYJ]NOHE@MFMD?Q@Q?O@Q?S"}, "start_location": {"lat": 29.8027124, "lng": -95.36824179999999}, "steps": [{"distance": {"text": "253 ft", "value": 77}, "duration": {"text": "1 min", "value": 75}, "end_location": {"lat": 29.8033907, "lng": -95.3684799}, "html_instructions": "Head <b>north</b> on <b>Fulton St</b> toward <b>Cavalcade St</b>", "polyline": {"points": "}y{tDnraeQ]JYJ]NOHE@MFMD?Q"}, "start_location": {"lat": 29.8027124, "lng": -95.36824179999999}, "travel_mode": "WALKING"}, {"distance": {"text": "121 ft", "value": 37}, "duration": {"text": "1 min", "value": 57}, "end_location": {"lat": 29.80337, "lng": -95.3681249}, "html_instructions": "Turn <b>right</b> onto <b>Cavalcade St</b>", "maneuver": "turn-right", "polyline": {"points": "e~{tD~saeQ@Q?O@Q?S"}, "start_location": {"lat": 29.8033907, "lng": -95.3684799}, "travel_mode": "WALKING"}], "travel_mode": "WALKING"}, {"distance": {"text": "5.2 mi", "value": 8421}, "duration": {"text": "19 mins", "value": 1120}, "end_location": {"lat": 29.80163, "lng": -95.454342}, "html_instructions": "Bus towards Memorial City", "polyline": {"points": "a~{tDvqaeQF@AV?LANAT?RAXCR?@CXQ|@Kf@Sz@ENOr@CRE\\Cb@KfCARCpAAv@AXCf@?DAT?LAHCfAAd@?D?lB?h@?VBjC?lB?x@@z@@fB?fD@fDE`BA|@?HA\\@V?lA@L?\\?x@?V@j@@t@?L?JB`@@T@NBN@N@V?f@@f@?`A?r@?L?xBAP?JALAPANIbAEb@?TAR?V?fH?p@@vD@xAC^C^CRA@ETC\\Af@?P?P?LA`@@\\BpA?^@j@?H@tA?n@?b@@b@?X?P?V@`A?v@@dA?V?vA@T?lB@jB@tA?XB|E?~A@zB@nB?V?V@t@?L?R?L@R?N?f@?h@@|@?\\?d@?b@@n@?pA@|B?d@?`@@t@?T?pA@v@@rA?v@@bD@~@?nA@H?tB@^@dC?P?j@@x@?x@?t@@P?dA@|A?\\?^@dC@zB?xA?N@V?fA@`ABfE?tABtJ?pB@rA?r@?H?|@?jB?@?j@@h@AL?\\?J@f@?|B?h@?|@?n@?N?|G?J@tE?d@@dC?p@AL@J?V@P@H?B?D@F@HBH@JDPDLDLDHDJDJHLFHFHLL?@TVTVn@v@NRh@h@NPVX^f@BJBFBFf@v@P`@DZDVBT@F?D@F?H?P@P?X?N?F?j@@pAIpB@f@?V?fA?j@?V@h@AjA?h@@~@?b@@^Af@@d@?X?bA?jA?b@@nC?J?d@Aj@?v@?P@dB?jA?bC?`A?\\@dH?`D?dC@fE?jD?T@`F@vB?jD?vC?X?`E@V@zCAb@?fAAX@fB@fA?T@|B?l@A~A?x@?XAzB?`A?dB?l@?P?F?H@^?Z?@?H?@?Z?h@?f@?j@?^?t@@j@BnAAV@|@@fB?bBG?"}, "start_location": {"lat": 29.803368, "lng": -95.368125}, "transit_details": {"arrival_stop": {"location": {"lat": 29.80163, "lng": -95.454342}, "name": "W 18th St @ Northwest Fwy"}, "arrival_time": {"text": "4:18pm", "time_zone": "America/Chicago", "value": 1642025920}, "departure_stop": {"location": {"lat": 29.803368, "lng": -95.368125}, "name": "Cavalcade St @ Fulton St"}, "departure_time": {"text": "4:00pm", "time_zone": "America/Chicago", "value": 1642024800}, "headsign": "Memorial City", "line": {"agencies": [{"name": "Metropolitan Transit Authority of Harris County", "phone": "1 (713) 635-4000", "url": "http://www.ridemetro.org/"}], "color": "#004080", "name": "Long Point / Cavalcade", "short_name": "26", "text_color": "#ffffff", "url": "https://www.ridemetro.org/MetroPDFs/Schedules/BusSchedules/n026-Long-Point-Cavalcade.pdf", "vehicle": {"icon": "//maps.gstatic.com/mapfiles/transit/iw2/6/bus2.png", "name": "Bus", "type": "BUS"}}, "num_stops": 31, "trip_short_name": "LONGPOINT"}, "travel_mode": "TRANSIT"}, {"distance": {"text": "322 ft", "value": 98}, "duration": {"text": "1 min", "value": 77}, "end_location": {"lat": 29.8019199, "lng": -95.45428179999999}, "html_instructions": "Walk to 4400 W 18th St, Houston, TX 77092, USA", "polyline": {"points": "es{tDrlreQ?z@YEc@E?G@Q@a@"}, "start_location": {"lat": 29.8016264, "lng": -95.454342}, "steps": [{"distance": {"text": "95 ft", "value": 29}, "duration": {"text": "1 min", "value": 22}, "end_location": {"lat": 29.8016252, "lng": -95.45463819999999}, "html_instructions": "Head <b>west</b> on <b>W 18th St</b>/<wbr/><b>NW Mall</b>", "polyline": {"points": "es{tDrlreQ?z@"}, "start_location": {"lat": 29.8016264, "lng": -95.454342}, "travel_mode": "WALKING"}, {"distance": {"text": "131 ft", "value": 40}, "duration": {"text": "1 min", "value": 33}, "end_location": {"lat": 29.8019405, "lng": -95.4545788}, "html_instructions": "Turn <b>right</b><div style=\"font-size:0.9em\">Restricted usage road</div>", "maneuver": "turn-right", "polyline": {"points": "es{tDnnreQYEc@E"}, "start_location": {"lat": 29.8016252, "lng": -95.45463819999999}, "travel_mode": "WALKING"}, {"distance": {"text": "95 ft", "value": 29}, "duration": {"text": "1 min", "value": 22}, "end_location": {"lat": 29.8019199, "lng": -95.45428179999999}, "html_instructions": "Turn <b>right</b><div style=\"font-size:0.9em\">Restricted usage road</div><div style=\"font-size:0.9em\">Destination will be on the left</div>", "maneuver": "turn-right", "polyline": {"points": "cu{tDbnreQ?G@Q@a@"}, "start_location": {"lat": 29.8019405, "lng": -95.4545788}, "travel_mode": "WALKING"}], "travel_mode": "WALKING"}], "traffic_speed_entry": [], "via_waypoint": []}], "overview_polyline": {"points": "igntDx~rdQAB`@Ly@`E_BxH_BpHcCfLy@zDc@rBOXKf@UfAa@pAc@nBP?BDw@pD{@bDa@zBsClNgEhSuDdRyB~Jc@`B_@bCwA~GaB`IE?qA`GeA|Ey@lDa@jBEd@[nBaAlEi@dCQvAa@|G}@rI{@nI[lBUfAoCrKs@~BsB~F}@tCi@bC_@vA]z@k@jAmFfKgAlBeBbD[b@e@`ASl@s@pA{@rAoChDuAbBi@d@{AfA_Az@e@l@i@~@e@lA_@zAWvBC~@@|@NpCPbDEt@CNi@dA{@`BsAjCk@fAq@|Ag@hAeAlBcArBG\\@ZJ\\n@z@NTHZ@RKp@uAtC{AnCyDvHiF~JgAzB{@`BDBOFa@x@U\\oA`CJHh@`@TRGLBAGJiAy@_I}F}EqD{JkHgAm@gAa@}@S}@[q@MgDq@_@GwBa@iBSeAS{@Ki@Aa@@_@DaCh@i@No@Ja@Fu@PaB\\iAVo@R_Br@uBz@sAl@_@T{@j@gAt@s@ZyLtEwDvAeDlAk@\\s@Xm@L}DvAiHnCiJlDi@LYAYIUQKOqAyEcCoJCqAE]KYIK[U[I_BQ}CYmBQiFUaECc@B_CE{@@[FyFrCcDdBWTUXyBxDgBlCaFxGy@`AeDzEeAbBgB`C[X[P_@La@DeD?yB@qCHyOESBwA`@F\\w@VaAb@MD?Q@a@@e@F@EjAEbAUvA_@bBUbAIp@OjDEdBG~BGtBAbEBjIDrNIfEFdIDpAFn@BfB?|FE|@QlCAdKBpGG~@OhAAxABpDBzDDjIHlTHxUNj_@Lra@Jv\\BrK?tJ@zVD~@BZPt@Vn@f@n@zAhBhAnAv@`AFRj@~@V|@Jz@BrC@pAIpB@~@@tDAtB@bB@fC?xMBnZ@nOBxI?bIBnKAlFBhGCnH@tH?fEBhEBdD?bBG??z@}@KB{@"}, "summary": "", "warnings": ["Walking directions are in beta. Use caution \u2013 This route may be missing sidewalks or pedestrian paths."], "waypoint_order": []}, {"bounds": {"northeast": {"lat": 29.8026478, "lng": -95.28313879999999}, "southwest": {"lat": 29.7307626, "lng": -95.4593211}}, "copyrights": "Map data \u00a92022", "legs": [{"arrival_time": {"text": "4:35pm", "time_zone": "America/Chicago", "value": 1642026935}, "departure_time": {"text": "3:14pm", "time_zone": "America/Chicago", "value": 1642022058}, "distance": {"text": "15.5 mi", "value": 25008}, "duration": {"text": "1 hour 21 mins", "value": 4877}, "end_address": "4400 W 18th St, Houston, TX 77092, USA", "end_location": {"lat": 29.8019199, "lng": -95.45428179999999}, "start_address": "7415 Harrisburg Blvd, Houston, TX 77011, USA", "start_location": {"lat": 29.7331706, "lng": -95.2934143}, "steps": [{"distance": {"text": "335 ft", "value": 102}, "duration": {"text": "1 min", "value": 89}, "end_location": {"lat": 29.733165, "lng": -95.2942727}, "html_instructions": "Walk to Harrisburg Blvd @ 74th St", "polyline": {"points": "igntDx~rdQAB`@La@pBLDI`@"}, "start_location": {"lat": 29.7331706, "lng": -95.2934143}, "steps": [{"distance": {"text": "7 ft", "value": 2}, "duration": {"text": "1 min", "value": 1}, "end_location": {"lat": 29.7331767, "lng": -95.2934327}, "html_instructions": "Head <b>southwest</b> toward <b>Harrisburg Blvd</b><div style=\"font-size:0.9em\">Restricted usage road</div>", "polyline": {"points": "igntDx~rdQAB"}, "start_location": {"lat": 29.7331706, "lng": -95.2934143}, "travel_mode": "WALKING"}, {"distance": {"text": "79 ft", "value": 24}, "duration": {"text": "1 min", "value": 19}, "end_location": {"lat": 29.7330054, "lng": -95.2935037}, "html_instructions": "Turn <b>left</b> toward <b>Harrisburg Blvd</b><div style=\"font-size:0.9em\">Restricted usage road</div>", "maneuver": "turn-left", "polyline": {"points": "kgntD|~rdQ`@L"}, "start_location": {"lat": 29.7331767, "lng": -95.2934327}, "travel_mode": "WALKING"}, {"distance": {"text": "249 ft", "value": 76}, "duration": {"text": "1 min", "value": 69}, "end_location": {"lat": 29.733165, "lng": -95.2942727}, "html_instructions": "Turn <b>right</b> onto <b>Harrisburg Blvd</b>", "maneuver": "turn-right", "polyline": {"points": "ifntDj_sdQa@pBLDI`@"}, "start_location": {"lat": 29.7330054, "lng": -95.2935037}, "travel_mode": "WALKING"}], "travel_mode": "WALKING"}, {"distance": {"text": "6.9 mi", "value": 11035}, "duration": {"text": "32 mins", "value": 1932}, "end_location": {"lat": 29.76296, "lng": -95.365387}, "html_instructions": "Bus towards Bellaire TC", "polyline": {"points": "_gntDhdsdQOEHa@b@qBd@{BH]Lo@DOFYH_@Lm@F[BMJc@FWDUJe@DSXsAF[R}@lB{JDUxAkHX{AsAa@wAa@y@YwBo@KEeCs@gCu@}Ag@o@SSGyC{@wBo@MEiCs@cA]aA[EOGWGQ}At@QJGDs@`@i@b@a@`@[^SVOTQXGJQ^KVi@~ACNENAFAL@TeA|EEVmA~FIX[zAhCx@rBl@PDfCt@fBj@^J`Cv@p@RXHd@Lf@NI^_@lBEPEPw@xDGXe@~B[|AMh@Sz@KZY`Ac@fBABAHERG\\IXMp@e@vBcAzEMj@[tAMj@g@xBkAhFI^Op@ETS|@yAbHELETKf@Sz@g@~BKb@I^S~@CHGXMj@YnAgA`FCLIb@]xAGXoAzFER}A`HI^GZCJERABAFKd@On@k@lCKh@g@xBS`AiAlFGXs@dDER{@tDMp@k@lCs@dDGTw@vD{@`EMj@i@fCKb@g@hCWjAMn@GTe@vBI^g@~BCPGVe@zBUfAWjAa@tBABi@lCK`@I^CLENCHWnAI`@_@dBUfAMr@ABGVk@dCCLEP_@fBKh@CLYnAUlAKf@EV[xAS|@[|ACJKb@]`BG\\Mh@Mj@CHM\\GPQZKLKLMLCBKJSP_@b@Wb@AB[l@cAnBIPIL{AtCELoAbCOXy@bBmAbCKP?@GLCDWf@[l@INc@z@Yh@IP{AtCaAjB[j@OXaB|CGLyArCwArCkAzBS^A@GDOTABYf@a@t@g@`Aa@v@IROZILMVQZGLGJ]n@M^N\\N^Nd@^hA|@pCNd@J^@BZ~@Nl@Hv@@V?ZAVEPGLIRA@S`@U^MTMVEV]v@EFEHGNKP[l@hAz@hAz@m@nAc@z@ABQ\\y@`Be@|@CFw@zAKREJKPO\\U`@KPSb@OVe@~@o@nAe@~@MTw@zAGJa@x@GHqAnCQ^OXs@tACH]l@MT}@`BQXINABEFABCFWf@k@lA_@r@ADOXA@EJOZKR]n@OZa@v@MVs@xAa@v@k@dAINIJJR`@h@FFtAbAbCfBGL"}, "start_location": {"lat": 29.733117, "lng": -95.294292}, "transit_details": {"arrival_stop": {"location": {"lat": 29.76296, "lng": -95.365387}, "name": "Smith St @ Prairie St"}, "arrival_time": {"text": "3:48pm", "time_zone": "America/Chicago", "value": 1642024080}, "departure_stop": {"location": {"lat": 29.733117, "lng": -95.294292}, "name": "Harrisburg Blvd @ 74th St"}, "departure_time": {"text": "3:15pm", "time_zone": "America/Chicago", "value": 1642022148}, "headsign": "Bellaire TC", "line": {"agencies": [{"name": "Metropolitan Transit Authority of Harris County", "phone": "1 (713) 635-4000", "url": "http://www.ridemetro.org/"}], "color": "#004080", "name": "Canal / Memorial", "short_name": "20", "text_color": "#ffffff", "url": "https://www.ridemetro.org/MetroPDFs/Schedules/BusSchedules/n020-Canal-Memorial.pdf", "vehicle": {"icon": "//maps.gstatic.com/mapfiles/transit/iw2/6/bus2.png", "name": "Bus", "type": "BUS"}}, "num_stops": 50, "trip_short_name": "CANALMEM"}, "travel_mode": "TRANSIT"}, {"distance": {"text": "436 ft", "value": 133}, "duration": {"text": "2 mins", "value": 126}, "end_location": {"lat": 29.7621626, "lng": -95.36456489999999}, "html_instructions": "Walk to Louisiana St @ Prairie St", "polyline": {"points": "kattDn`aeQHFJFFMvAoCHSDMTN"}, "start_location": {"lat": 29.7629423, "lng": -95.3653571}, "steps": [{"distance": {"text": "36 ft", "value": 11}, "duration": {"text": "1 min", "value": 8}, "end_location": {"lat": 29.7627891, "lng": -95.3653745}, "html_instructions": "Head <b>southwest</b> on <b>Smith St</b> toward <b>Prairie St</b>", "polyline": {"points": "kattDn`aeQHFJFFM"}, "start_location": {"lat": 29.7629423, "lng": -95.3653571}, "travel_mode": "WALKING"}, {"distance": {"text": "341 ft", "value": 104}, "duration": {"text": "2 mins", "value": 95}, "end_location": {"lat": 29.7622658, "lng": -95.3644813}, "html_instructions": "Turn <b>left</b> onto <b>Prairie St</b>", "maneuver": "turn-left", "polyline": {"points": "m`ttDp`aeQvAoCHSDM"}, "start_location": {"lat": 29.7627891, "lng": -95.3653745}, "travel_mode": "WALKING"}, {"distance": {"text": "59 ft", "value": 18}, "duration": {"text": "1 min", "value": 23}, "end_location": {"lat": 29.7621626, "lng": -95.36456489999999}, "html_instructions": "Turn <b>right</b> onto <b>Louisiana St</b>", "maneuver": "turn-right", "polyline": {"points": "e}stD~z`eQTN"}, "start_location": {"lat": 29.7622658, "lng": -95.3644813}, "travel_mode": "WALKING"}], "travel_mode": "WALKING"}, {"distance": {"text": "8.1 mi", "value": 13000}, "duration": {"text": "31 mins", "value": 1848}, "end_location": {"lat": 29.801027, "lng": -95.45922999999999}, "html_instructions": "Bus towards SH 249", "polyline": {"points": "k|stDh{`eQGL[UqCqBAAqCqBa@v@k@dAINIJGHA@A@GJGDC@C@C@E?M?C?Q?M?ICIEAAEGC\\SdBGd@E^O`A?BM|@M|@EZOjAALGX?@?@CJALGl@?@A@?BAHAJAHShAETCJEPCHCLGVWdAKXQh@O`@GTGLS^IPS\\AB}@~AGFADABMv@EV?@OfAOnAEXAPGd@Gn@?XGrACb@Cr@Ev@ALEp@AVEv@ALGrAEt@G~@?BGdAATGlACj@ItACb@AT?TAFG`AATCb@GzAGtAMfCANGfA?DKtBAHMfCEbAANALCr@AVAr@Al@?d@CrAAx@Cx@?NCzBAJAz@Cv@GnAQvCEz@EbAM~B?HAp@C|@GjCCj@MtFGHAB?BALCb@Af@?R?TA`@A`@ARGt@AVGp@AXGz@KtBCZ?B?@@D?B@D@FGlACd@A`@GtACZA\\KfBG|@Ez@C`@C\\A`@El@El@Cb@CZCf@Cd@AREp@APIzACXANATALANAHC\\AZATC\\A`@IbBEp@ALCp@GfAG~@G~@Cj@AXCVAL?BCd@AL?NCl@Cd@El@Ab@Ev@ANMxCCXAXAXQtCCl@?z@@dA?|A@d@?~B@d@?N?zA?P?N@d@?b@?X?\\?^?X?N?j@?b@@`@?t@@j@?j@?N@`@?z@@dC?V@h@?RARAr@AJ?NAP?RCZAV?FCxA?XExACpAClACnAAj@CvAC|@?NA`@Ab@GxAAVIhAI|BEf@KnDEv@Cv@EpAGlACz@?DA`@APCvAAPCDABCHC`AAPAF@JC@A@A@A@A@A@?@CBc@FKDG@C?IBC@C@C@C@A@EBMLwAlAc@\\sAhA_Av@MJa@^sBbB_Av@QLq@h@IHKHOLw@p@w@n@]Z_@ZSPGFIFaAz@EBe@b@QRUVY\\q@~@s@`AOPGF?@o@v@?@CB}@hAQPKNYd@c@|@ILg@bAU`@IPA@S`@g@bAw@zAq@rA}AxCkA|Bc@v@IPYh@Uf@IP?`@?DCHI\\I`@I`@CVATARA^?\\Ar@?^@`@@@?b@?@@^@hB?f@?XCjA?D?XCXCZEVId@Ot@Ot@GVUfAAD{@`E?@Mj@?@K^[|AMn@Sx@On@I`@I^[xAGZMn@Mh@Kf@Qx@Qr@_@rBg@`DKl@Gd@CXMdA?BALGj@CXCVCXE`@IfAMzBE|AAr@AXC?Ar@CbDAjCCpF@l@@v@AzG~@@X?V?Z^?r@Ap@?bAAtA?R?d@?XEAw@B?u@@S?_@AcA@cA@w@@k@ZA^@DA`AAN??H?P?f@?j@?l@?d@JCF@D?DABA@CDIDSB[@g@BUBM@AN]FGJY@K?MCUCKCCA?OGQAGAE?E@GDQJOPMD[BY@W?aAAY@c@?AVAzAAb@?f@?L?ZAn@?`B?R?f@sBNO@Q@Y?W?K@wA@y@@K?u@?wA@U?O?}@@I?Y?_@?_@@oA@oD@eABM?A?a@?c@?qA@W?w@?cA@s@?c@@_@?uA@a@?OAY?q@@c@?_@?[@cA@a@?U?G?C?E?]@S?S@]@c@?}@@M?w@@]?mA@_B@W?E?e@Aa@EQEWG[OUM[QIG_@Ui@i@e@_@OQQQOMCCc@a@MR{A|BU\\W`@sBtCg@z@a@L{@vA]b@Sd@w@lAYh@OQ"}, "start_location": {"lat": 29.762139, "lng": -95.364532}, "transit_details": {"arrival_stop": {"location": {"lat": 29.801027, "lng": -95.45922999999999}, "name": "Hempstead Rd @ W 18th St"}, "arrival_time": {"text": "4:25pm", "time_zone": "America/Chicago", "value": 1642026348}, "departure_stop": {"location": {"lat": 29.762139, "lng": -95.364532}, "name": "Louisiana St @ Prairie St"}, "departure_time": {"text": "3:55pm", "time_zone": "America/Chicago", "value": 1642024500}, "headsign": "SH 249", "line": {"agencies": [{"name": "Metropolitan Transit Authority of Harris County", "phone": "1 (713) 635-4000", "url": "http://www.ridemetro.org/"}], "color": "#004080", "name": "Antoine / Washington", "short_name": "85", "text_color": "#ffffff", "url": "https://www.ridemetro.org/MetroPDFs/Schedules/BusSchedules/n085-Antoine-Washington.pdf", "vehicle": {"icon": "//maps.gstatic.com/mapfiles/transit/iw2/6/bus2.png", "name": "Bus", "type": "BUS"}}, "num_stops": 43, "trip_short_name": "ANTOINWAS"}, "travel_mode": "TRANSIT"}, {"distance": {"text": "0.5 mi", "value": 738}, "duration": {"text": "10 mins", "value": 587}, "end_location": {"lat": 29.8019199, "lng": -95.45428179999999}, "html_instructions": "Walk to 4400 W 18th St, Houston, TX 77092, USA", "polyline": {"points": "mo{tDdkseQKPKKKAK?I@IB?Q?aA?M?QAO?OM?M@M?mED@[Ae@?g@ASDKP]d@}@Xq@B]QOIIOMEKKAQUGGEIAE?C?A@C@EBEV_@KMNWHMJSRa@Ts@R}@Jy@Hy@?G@Q@a@"}, "start_location": {"lat": 29.8010254, "lng": -95.4592253}, "steps": [{"distance": {"text": "49 ft", "value": 15}, "duration": {"text": "1 min", "value": 11}, "end_location": {"lat": 29.8011512, "lng": -95.4592626}, "html_instructions": "Head <b>northwest</b>", "polyline": {"points": "mo{tDdkseQKPKK"}, "start_location": {"lat": 29.8010254, "lng": -95.4592253}, "travel_mode": "WALKING"}, {"distance": {"text": "102 ft", "value": 31}, "duration": {"text": "1 min", "value": 23}, "end_location": {"lat": 29.8013705, "lng": -95.4592806}, "html_instructions": "Turn <b>right</b> toward <b>W 18th St</b>", "maneuver": "turn-right", "polyline": {"points": "ep{tDjkseQKAK?I@IB"}, "start_location": {"lat": 29.8011512, "lng": -95.4592626}, "travel_mode": "WALKING"}, {"distance": {"text": "240 ft", "value": 73}, "duration": {"text": "1 min", "value": 61}, "end_location": {"lat": 29.8014508, "lng": -95.4585436}, "html_instructions": "Turn <b>right</b> onto <b>W 18th St</b>", "maneuver": "turn-right", "polyline": {"points": "qq{tDnkseQ?Q?aA?M?QAO?OM?"}, "start_location": {"lat": 29.8013705, "lng": -95.4592806}, "travel_mode": "WALKING"}, {"distance": {"text": "440 ft", "value": 134}, "duration": {"text": "2 mins", "value": 127}, "end_location": {"lat": 29.80261729999999, "lng": -95.45858140000001}, "html_instructions": "Turn <b>left</b> onto <b>Mangum Rd</b>", "maneuver": "turn-left", "polyline": {"points": "ar{tDzfseQM@M?mED"}, "start_location": {"lat": 29.8014508, "lng": -95.4585436}, "travel_mode": "WALKING"}, {"distance": {"text": "0.1 mi", "value": 168}, "duration": {"text": "2 mins", "value": 133}, "end_location": {"lat": 29.8021725, "lng": -95.45703209999999}, "html_instructions": "Turn <b>right</b>", "maneuver": "turn-right", "polyline": {"points": "ky{tDbgseQ@[Ae@?g@ASDKP]d@}@Xq@B]"}, "start_location": {"lat": 29.80261729999999, "lng": -95.45858140000001}, "travel_mode": "WALKING"}, {"distance": {"text": "348 ft", "value": 106}, "duration": {"text": "1 min", "value": 80}, "end_location": {"lat": 29.8024852, "lng": -95.4562641}, "html_instructions": "Turn <b>left</b><div style=\"font-size:0.9em\">Partial restricted usage road</div>", "maneuver": "turn-left", "polyline": {"points": "qv{tDl}reQQOIIOMEKKAQUGGEIAE?C?A@C@EBEV_@"}, "start_location": {"lat": 29.8021725, "lng": -95.45703209999999}, "travel_mode": "WALKING"}, {"distance": {"text": "33 ft", "value": 10}, "duration": {"text": "1 min", "value": 8}, "end_location": {"lat": 29.8025494, "lng": -95.456192}, "html_instructions": "Turn <b>left</b><div style=\"font-size:0.9em\">Restricted usage road</div>", "maneuver": "turn-left", "polyline": {"points": "qx{tDrxreQKM"}, "start_location": {"lat": 29.8024852, "lng": -95.4562641}, "travel_mode": "WALKING"}, {"distance": {"text": "0.1 mi", "value": 201}, "duration": {"text": "2 mins", "value": 144}, "end_location": {"lat": 29.8019199, "lng": -95.45428179999999}, "html_instructions": "Turn <b>right</b><div style=\"font-size:0.9em\">Restricted usage road</div><div style=\"font-size:0.9em\">Destination will be on the left</div>", "maneuver": "turn-right", "polyline": {"points": "}x{tDdxreQNWHMJSRa@Ts@R}@Jy@Hy@?G@Q@a@"}, "start_location": {"lat": 29.8025494, "lng": -95.456192}, "travel_mode": "WALKING"}], "travel_mode": "WALKING"}], "traffic_speed_entry": [], "via_waypoint": []}], "overview_polyline": {"points": "igntDx~rdQAB`@La@pBLDI`@FBOEHa@hAmFVmAd@wBpAiGnCkNrBgKkDcAcIcCiHyBiLeDeCy@Mg@GQ}At@YPs@`@i@b@}@`A}@rA]v@m@nBGV?b@cDnO[zAhCx@dCr@nF`B`DbAxCz@u@pDaCpLa@dBe@|Am@hCeA`F{BhKmCtLgE~ReDdOcHt[sPlw@{D~QkDrPoBhJcCbLiAnFcAfFsBtJg@dB]h@YZcAdAyBdEuBbEgFdKyBhEwInPqGbMIFQXeCvEq@tA_AdBM^N\\^dAxB`H\\bAXdB@r@AVEPQ`@Ub@c@t@MVEVc@~@MXg@~@rCvBeBlDiErIoEtIiBjDgD~GqCdFqHhOmA|BSZJR`@h@|AjAbCfBGLBEHFJFFM`BcDDMTNBEGLmDgCsCsBmA|BSZSXSJi@?WCKGEGC\\[jCc@bDe@rDUdBAFYhBS|@o@dCq@nBs@rAeAfBCHc@xC_@`DGn@GlBO|COnCk@bL_@hH_@hIUlEWhFIlDQ`Mc@zIU~F]jNILAPEtBCbAIhAS~COvCDVUjFi@|Jc@nHy@hOg@dJUlFs@rNDvOD|NBzFAdCMvE[dPKnD[fGi@bPEhBEVELErA?REBGFCDo@LYFMFoC|BcElDsDzCcAv@}ArAiCxByAnAw@v@o@t@}BzCs@~@{AjBoBtDeHdNsCpF_@x@?f@a@jBI`B?rCBfA@pCCdB?^Gt@o@hD{AfHgBfIqBrJq@fDs@nEYhCQjBIz@WbEGpCAXC?EvEE|JBdBAzG~@@p@?Z^?r@AtBAhB?~@EAw@B@iAAcBB{B@k@ZAd@?pAA?nB?rARAPGJ]DcAFc@P_@Ra@@YGa@ECOGQAMAMFa@\\MD[Bq@@{A?c@?AVC~B?t@A`E?f@sBNa@BuCBaIDoLHcKDwH@sMLkEBgAGi@MwAw@_@Ui@i@u@q@iAeAwCpEsBtCg@z@a@L{@vA]b@Sd@qAvBOQKPKKWASD?sBA_@[@{ED?aAA{@Vi@~@oBB]QOYWEKKAY]GOBOZe@KMNWTa@Ra@Ts@R}@TsBB{@"}, "summary": "", "warnings": ["Walking directions are in beta. Use caution \u2013 This route may be missing sidewalks or pedestrian paths."], "waypoint_order": []}], "status": "OK"}