{"geocoded_waypoints": [{"geocoder_status": "OK", "place_id": "ChIJPccuQd_HQIYR7knEC9o4_LA", "types": ["establishment", "point_of_interest", "primary_school", "school"]}, {"geocoder_status": "OK", "place_id": "ChIJ9_tphxzHQIYRIMyPy_d3VZU", "types": ["establishment", "point_of_interest"]}], "routes": [{"bounds": {"northeast": {"lat": 29.8632834, "lng": -95.4104709}, "southwest": {"lat": 29.8015904, "lng": -95.45463819999999}}, "copyrights": "Map data \u00a92022", "legs": [{"arrival_time": {"text": "4:49pm", "time_zone": "America/Chicago", "value": 1642027797}, "departure_time": {"text": "3:55pm", "time_zone": "America/Chicago", "value": 1642024527}, "distance": {"text": "7.3 mi", "value": 11808}, "duration": {"text": "55 mins", "value": 3270}, "end_address": "4400 W 18th St, Houston, TX 77092, USA", "end_location": {"lat": 29.8019199, "lng": -95.45428179999999}, "start_address": "800 Dillard St, Houston, TX 77091, USA", "start_location": {"lat": 29.8612077, "lng": -95.4184578}, "steps": [{"distance": {"text": "0.5 mi", "value": 786}, "duration": {"text": "10 mins", "value": 579}, "end_location": {"lat": 29.8632832, "lng": -95.4127196}, "html_instructions": "Walk to N Shepherd Dr @ Granville Dr", "polyline": {"points": "qgguDjlkeQ?c@sABKG?[yABAm@?yA?cEAcE?sDAW?{A?gGc@@y@?W?w@@W?W?"}, "start_location": {"lat": 29.8612077, "lng": -95.4184578}, "steps": [{"distance": {"text": "59 ft", "value": 18}, "duration": {"text": "1 min", "value": 13}, "end_location": {"lat": 29.86121169999999, "lng": -95.4182764}, "html_instructions": "Head <b>east</b> toward <b>De Priest St</b>", "polyline": {"points": "qgguDjlkeQ?c@"}, "start_location": {"lat": 29.8612077, "lng": -95.4184578}, "travel_mode": "WALKING"}, {"distance": {"text": "220 ft", "value": 67}, "duration": {"text": "1 min", "value": 49}, "end_location": {"lat": 29.8616913, "lng": -95.4181176}, "html_instructions": "Turn <b>left</b> toward <b>De Priest St</b>", "maneuver": "turn-left", "polyline": {"points": "qgguDfkkeQsABKG?["}, "start_location": {"lat": 29.86121169999999, "lng": -95.4182764}, "travel_mode": "WALKING"}, {"distance": {"text": "161 ft", "value": 49}, "duration": {"text": "1 min", "value": 37}, "end_location": {"lat": 29.862135, "lng": -95.41813499999999}, "html_instructions": "Turn <b>left</b> onto <b>De Priest St</b>", "maneuver": "turn-left", "polyline": {"points": "qjguDfjkeQyAB"}, "start_location": {"lat": 29.8616913, "lng": -95.4181176}, "travel_mode": "WALKING"}, {"distance": {"text": "0.3 mi", "value": 529}, "duration": {"text": "6 mins", "value": 385}, "end_location": {"lat": 29.8621746, "lng": -95.4127039}, "html_instructions": "Turn <b>right</b> onto <b>Dillard St</b>", "maneuver": "turn-right", "polyline": {"points": "kmguDjjkeQAm@?yA?cEAcE?sDAW?{A?gG"}, "start_location": {"lat": 29.862135, "lng": -95.41813499999999}, "travel_mode": "WALKING"}, {"distance": {"text": "404 ft", "value": 123}, "duration": {"text": "2 mins", "value": 95}, "end_location": {"lat": 29.8632832, "lng": -95.4127196}, "html_instructions": "Turn <b>left</b> onto <b>N Shepherd Dr</b>", "maneuver": "turn-left", "polyline": {"points": "qmguDjhjeQc@@y@?W?w@@W?W?"}, "start_location": {"lat": 29.8621746, "lng": -95.4127039}, "travel_mode": "WALKING"}], "travel_mode": "WALKING"}, {"distance": {"text": "4.1 mi", "value": 6669}, "duration": {"text": "18 mins", "value": 1054}, "end_location": {"lat": 29.803965, "lng": -95.412369}, "html_instructions": "Bus towards TMC TC", "polyline": {"points": "otguDzhjeQ?UV?VAv@?V?x@Ab@?dDA~BAXAn@?vBAzAAlAAP?T?|C?bAAvAA`FClAAhAAhA?~C?|AClAGrAIzDYt@MXEvAU|AYr@Kv@Mn@I~@OVGh@KhBYzAUdAMFAF?d@Gr@ITChBI\\ClCCx@C|DAr@AT?vA?fECfAAZ?ZA^?h@AL?`@@l@AP?zCClA?vBCf@?h@?XAfA?F?ZA`@?jAA`A?TAlA?^AbCAhAAxAApAAT?nAA~B?pCCnA?dCCz@A`@AP?hAAX?t@?rAAVAF?l@?D?zAAZ?v@AN?h@?bBAbCEP?hA?v@AfA?hBAzCAfAA~BCf@?|@?b@AvCCjA?zBCjB@pAC|@AvAAzAAfAAb@?lAApAAr@Av@AP@H?nBC`A?fBCj@?P?J@|@HD?h@H\\HLDPBDFb@PTJDB@@F@n@\\FDTJ^TJFj@Zz@d@HD^TB@\\PFDDBp@\\THFBVHNDB@RFNDh@HVBRBH@B?F?l@BH?h@?zAArA?XAdBAdBAbBAdA?`@?bBAfBAdAA\\?hAA\\?bBAt@?n@AX?jA?z@A@N"}, "start_location": {"lat": 29.863283, "lng": -95.41277799999999}, "transit_details": {"arrival_stop": {"location": {"lat": 29.803965, "lng": -95.412369}, "name": "N Durham Dr @ W 20th St"}, "arrival_time": {"text": "4:23pm", "time_zone": "America/Chicago", "value": 1642026180}, "departure_stop": {"location": {"lat": 29.863283, "lng": -95.41277799999999}, "name": "N Shepherd Dr @ Granville Dr"}, "departure_time": {"text": "4:05pm", "time_zone": "America/Chicago", "value": 1642025126}, "headsign": "TMC TC", "line": {"agencies": [{"name": "Metropolitan Transit Authority of Harris County", "phone": "1 (713) 635-4000", "url": "http://www.ridemetro.org/"}], "color": "#004080", "name": "Shepherd", "short_name": "27", "text_color": "#ffffff", "url": "https://www.ridemetro.org/MetroPDFs/Schedules/BusSchedules/n027-Shepherd.pdf", "vehicle": {"icon": "//maps.gstatic.com/mapfiles/transit/iw2/6/bus2.png", "name": "Bus", "type": "BUS"}}, "num_stops": 23, "trip_short_name": "SHEPHERD"}, "travel_mode": "TRANSIT"}, {"distance": {"text": "207 ft", "value": 63}, "duration": {"text": "1 min", "value": 56}, "end_location": {"lat": 29.80381, "lng": -95.41185329999999}, "html_instructions": "Walk to W 20th St @ N Durham Dr", "polyline": {"points": "wa|tD`fjeQ^A?OAmA"}, "start_location": {"lat": 29.8039634, "lng": -95.4123288}, "steps": [{"distance": {"text": "72 ft", "value": 22}, "duration": {"text": "1 min", "value": 16}, "end_location": {"lat": 29.8038031, "lng": -95.412241}, "html_instructions": "Head <b>south</b> on <b>N Durham Dr</b> toward <b>W 20th St</b>", "polyline": {"points": "wa|tD`fjeQ^A?O"}, "start_location": {"lat": 29.8039634, "lng": -95.4123288}, "travel_mode": "WALKING"}, {"distance": {"text": "135 ft", "value": 41}, "duration": {"text": "1 min", "value": 40}, "end_location": {"lat": 29.80381, "lng": -95.41185329999999}, "html_instructions": "Turn <b>left</b> onto <b>W 20th St</b>", "maneuver": "turn-left", "polyline": {"points": "w`|tDnejeQAmA"}, "start_location": {"lat": 29.8038031, "lng": -95.412241}, "travel_mode": "WALKING"}], "travel_mode": "WALKING"}, {"distance": {"text": "2.6 mi", "value": 4192}, "duration": {"text": "9 mins", "value": 559}, "end_location": {"lat": 29.80163, "lng": -95.454342}, "html_instructions": "Bus towards Memorial City", "polyline": {"points": "_a|tD`cjeQL??tABtJ?pB@rA?r@?H?|@?jB?@?j@@h@AL?\\?J@f@?|B?h@?|@?n@?N?|G?J@tE?d@@dC?p@AL@J?V@P@H?B?D@F@HBH@JDPDLDLDHDJDJHLFHFHLL?@TVTVn@v@NRh@h@NPVX^f@BJBFBFf@v@P`@DZDVBT@F?D@F?H?P@P?X?N?F?j@@pAIpB@f@?V?fA?j@?V@h@AjA?h@@~@?b@@^Af@@d@?X?bA?jA?b@@nC?J?d@Aj@?v@?P@dB?jA?bC?`A?\\@dH?`D?dC@fE?jD?T@`F@vB?jD?vC?X?`E@V@zCAb@?fAAX@fB@fA?T@|B?l@A~A?x@?XAzB?`A?dB?l@?P?F?H@^?Z?@?H?@?Z?h@?f@?j@?^?t@@j@BnAAV@|@@fB?bBG?"}, "start_location": {"lat": 29.803836, "lng": -95.41185399999999}, "transit_details": {"arrival_stop": {"location": {"lat": 29.80163, "lng": -95.454342}, "name": "W 18th St @ Northwest Fwy"}, "arrival_time": {"text": "4:48pm", "time_zone": "America/Chicago", "value": 1642027720}, "departure_stop": {"location": {"lat": 29.803836, "lng": -95.41185399999999}, "name": "W 20th St @ N Durham Dr"}, "departure_time": {"text": "4:39pm", "time_zone": "America/Chicago", "value": 1642027161}, "headsign": "Memorial City", "line": {"agencies": [{"name": "Metropolitan Transit Authority of Harris County", "phone": "1 (713) 635-4000", "url": "http://www.ridemetro.org/"}], "color": "#004080", "name": "Long Point / Cavalcade", "short_name": "26", "text_color": "#ffffff", "url": "https://www.ridemetro.org/MetroPDFs/Schedules/BusSchedules/n026-Long-Point-Cavalcade.pdf", "vehicle": {"icon": "//maps.gstatic.com/mapfiles/transit/iw2/6/bus2.png", "name": "Bus", "type": "BUS"}}, "num_stops": 13, "trip_short_name": "LONGPOINT"}, "travel_mode": "TRANSIT"}, {"distance": {"text": "322 ft", "value": 98}, "duration": {"text": "1 min", "value": 77}, "end_location": {"lat": 29.8019199, "lng": -95.45428179999999}, "html_instructions": "Walk to 4400 W 18th St, Houston, TX 77092, USA", "polyline": {"points": "es{tDrlreQ?z@YEc@E?G@Q@a@"}, "start_location": {"lat": 29.8016264, "lng": -95.454342}, "steps": [{"distance": {"text": "95 ft", "value": 29}, "duration": {"text": "1 min", "value": 22}, "end_location": {"lat": 29.8016252, "lng": -95.45463819999999}, "html_instructions": "Head <b>west</b> on <b>W 18th St</b>/<wbr/><b>NW Mall</b>", "polyline": {"points": "es{tDrlreQ?z@"}, "start_location": {"lat": 29.8016264, "lng": -95.454342}, "travel_mode": "WALKING"}, {"distance": {"text": "131 ft", "value": 40}, "duration": {"text": "1 min", "value": 33}, "end_location": {"lat": 29.8019405, "lng": -95.4545788}, "html_instructions": "Turn <b>right</b><div style=\"font-size:0.9em\">Restricted usage road</div>", "maneuver": "turn-right", "polyline": {"points": "es{tDnnreQYEc@E"}, "start_location": {"lat": 29.8016252, "lng": -95.45463819999999}, "travel_mode": "WALKING"}, {"distance": {"text": "95 ft", "value": 29}, "duration": {"text": "1 min", "value": 22}, "end_location": {"lat": 29.8019199, "lng": -95.45428179999999}, "html_instructions": "Turn <b>right</b><div style=\"font-size:0.9em\">Restricted usage road</div><div style=\"font-size:0.9em\">Destination will be on the left</div>", "maneuver": "turn-right", "polyline": {"points": "cu{tDbnreQ?G@Q@a@"}, "start_location": {"lat": 29.8019405, "lng": -95.4545788}, "travel_mode": "WALKING"}], "travel_mode": "WALKING"}], "traffic_speed_entry": [], "via_waypoint": []}], "overview_polyline": {"points": "qgguDjlkeQ?c@sABKG?[yABAm@?}GCkN?gGc@@qA?oA@W??J?UV?nAAzGC`IElVK`KCjDKnGc@dGcAzEs@`ASdEo@zBWhAMfCMfEGpFC|JE`CCxNG~IErOKpLEtFG`IE~DCbHG~TKdIEfFAnCE~GEjGGlEApDAbAHfAR^Hh@Xd@RlBdA`DfBj@Zp@\\\\L~@Xx@Nj@FbADbFA|RKnLGfCA@N?G^A?OAmAE?L??tABfN@nE@bH@dX?jFD~@BZPt@Vn@f@n@dDxDv@`AFRj@~@V|@Jz@Bt@?|A@pAIpB@~@@tDAtB@bB@fC@bI?|MBv`@BxI?bIBnKAlFBhGCnH?fF@vBBfJBdD?bBG??z@}@KB{@"}, "summary": "", "warnings": ["Walking directions are in beta. Use caution \u2013 This route may be missing sidewalks or pedestrian paths."], "waypoint_order": []}, {"bounds": {"northeast": {"lat": 29.8632834, "lng": -95.3973674}, "southwest": {"lat": 29.8015904, "lng": -95.45463819999999}}, "copyrights": "Map data \u00a92022", "legs": [{"arrival_time": {"text": "4:34pm", "time_zone": "America/Chicago", "value": 1642026897}, "departure_time": {"text": "3:50pm", "time_zone": "America/Chicago", "value": 1642024257}, "distance": {"text": "8.9 mi", "value": 14288}, "duration": {"text": "44 mins", "value": 2640}, "end_address": "4400 W 18th St, Houston, TX 77092, USA", "end_location": {"lat": 29.8019199, "lng": -95.45428179999999}, "start_address": "800 Dillard St, Houston, TX 77091, USA", "start_location": {"lat": 29.8612077, "lng": -95.4184578}, "steps": [{"distance": {"text": "0.5 mi", "value": 786}, "duration": {"text": "10 mins", "value": 579}, "end_location": {"lat": 29.8632832, "lng": -95.4127196}, "html_instructions": "Walk to N Shepherd Dr @ Granville Dr", "polyline": {"points": "qgguDjlkeQ?c@sABKG?[yABAm@?yA?cEAcE?sDAW?{A?gGc@@y@?W?w@@W?W?"}, "start_location": {"lat": 29.8612077, "lng": -95.4184578}, "steps": [{"distance": {"text": "59 ft", "value": 18}, "duration": {"text": "1 min", "value": 13}, "end_location": {"lat": 29.86121169999999, "lng": -95.4182764}, "html_instructions": "Head <b>east</b> toward <b>De Priest St</b>", "polyline": {"points": "qgguDjlkeQ?c@"}, "start_location": {"lat": 29.8612077, "lng": -95.4184578}, "travel_mode": "WALKING"}, {"distance": {"text": "220 ft", "value": 67}, "duration": {"text": "1 min", "value": 49}, "end_location": {"lat": 29.8616913, "lng": -95.4181176}, "html_instructions": "Turn <b>left</b> toward <b>De Priest St</b>", "maneuver": "turn-left", "polyline": {"points": "qgguDfkkeQsABKG?["}, "start_location": {"lat": 29.86121169999999, "lng": -95.4182764}, "travel_mode": "WALKING"}, {"distance": {"text": "161 ft", "value": 49}, "duration": {"text": "1 min", "value": 37}, "end_location": {"lat": 29.862135, "lng": -95.41813499999999}, "html_instructions": "Turn <b>left</b> onto <b>De Priest St</b>", "maneuver": "turn-left", "polyline": {"points": "qjguDfjkeQyAB"}, "start_location": {"lat": 29.8616913, "lng": -95.4181176}, "travel_mode": "WALKING"}, {"distance": {"text": "0.3 mi", "value": 529}, "duration": {"text": "6 mins", "value": 385}, "end_location": {"lat": 29.8621746, "lng": -95.4127039}, "html_instructions": "Turn <b>right</b> onto <b>Dillard St</b>", "maneuver": "turn-right", "polyline": {"points": "kmguDjjkeQAm@?yA?cEAcE?sDAW?{A?gG"}, "start_location": {"lat": 29.862135, "lng": -95.41813499999999}, "travel_mode": "WALKING"}, {"distance": {"text": "404 ft", "value": 123}, "duration": {"text": "2 mins", "value": 95}, "end_location": {"lat": 29.8632832, "lng": -95.4127196}, "html_instructions": "Turn <b>left</b> onto <b>N Shepherd Dr</b>", "maneuver": "turn-left", "polyline": {"points": "qmguDjhjeQc@@y@?W?w@@W?W?"}, "start_location": {"lat": 29.8621746, "lng": -95.4127039}, "travel_mode": "WALKING"}], "travel_mode": "WALKING"}, {"distance": {"text": "4.8 mi", "value": 7729}, "duration": {"text": "17 mins", "value": 1024}, "end_location": {"lat": 29.803894, "lng": -95.398252}, "html_instructions": "Bus towards Hobby Airport", "polyline": {"points": "otguDzhjeQ?UV?VAv@?V?x@Ab@?dDA~BAXAn@?vBAzAA~AAT?AaA?}C?}@?iD?yB?OAY?{EAqEAsC?i@@aB?A?cBC_@Ay@?CCq@KoACUUyAESK_@\\QTK\\MPEj@IJAXAP?dA?b@?nDHX?vAAdA@zA?j@A\\?bBAxACd@@|BAP?hC?\\?xAAxAApA?h@?hDA^C^?l@AhEAdB?hB?n@?vAAd@ABC?AB?BAF?N?l@CDA@?AD?@ADP?p@?`A?jDA\\ApB?^?z@AX?hA?bA?rAA`@AxA?^?jCAfAAN?rC?~BAdBA~@A|@?R?xEC`A?X?l@AfD?p@?R?J?f@A`A?B?f@ANANALAj@IPA|@SLCPCh@SXMRK^UtA}@PK`C}ALGp@c@zCqBHCvA}@h@Yd@URIjBg@PCd@Gv@ITALAF?P?\\Ar@?rACz@A`@?p@AD?P?f@?v@AbB?~@AT?b@?fAA`@?t@?rBAF?RAbCApBAfAAX?dAAzA?jACp@CVGRCdA?`A?X?r@?vDCdCAL?jAAv@?dCCh@?h@?zAAZ?X?\\?n@At@Ab@?J?NAR?N?^?r@A`@?F?NAlA@P?V?JAR?r@?bBALA|@AX?lAAZ?bBAbBAb@?b@A^?\\?d@?b@AdAA\\AbB?P?h@?h@?bBAhBCb@?lAAP?`@??g@`@?A{A?i@?YN?"}, "start_location": {"lat": 29.863283, "lng": -95.41277799999999}, "transit_details": {"arrival_stop": {"location": {"lat": 29.803894, "lng": -95.398252}, "name": "20th St @ Heights Blvd"}, "arrival_time": {"text": "4:18pm", "time_zone": "America/Chicago", "value": 1642025880}, "departure_stop": {"location": {"lat": 29.863283, "lng": -95.41277799999999}, "name": "N Shepherd Dr @ Granville Dr"}, "departure_time": {"text": "4:00pm", "time_zone": "America/Chicago", "value": 1642024856}, "headsign": "Hobby Airport", "line": {"agencies": [{"name": "Metropolitan Transit Authority of Harris County", "phone": "1 (713) 635-4000", "url": "http://www.ridemetro.org/"}], "color": "#004080", "name": "Telephone / Heights", "short_name": "40", "text_color": "#ffffff", "url": "https://www.ridemetro.org/MetroPDFs/Schedules/BusSchedules/n040-Telephone-Heights.pdf", "vehicle": {"icon": "//maps.gstatic.com/mapfiles/transit/iw2/6/bus2.png", "name": "Bus", "type": "BUS"}}, "num_stops": 31, "trip_short_name": "TELEHEIGHT"}, "travel_mode": "TRANSIT"}, {"distance": {"text": "282 ft", "value": 86}, "duration": {"text": "1 min", "value": 71}, "end_location": {"lat": 29.804025, "lng": -95.3973684}, "html_instructions": "Walk to E 20th St @ Heights Blvd", "polyline": {"points": "sa|tD`ngeQ?M?GM??G?S?M?SAM?u@?W"}, "start_location": {"lat": 29.8039365, "lng": -95.3982528}, "steps": [{"distance": {"text": "282 ft", "value": 86}, "duration": {"text": "1 min", "value": 71}, "end_location": {"lat": 29.804025, "lng": -95.3973684}, "html_instructions": "Head <b>east</b> on <b>W 20th St</b> toward <b>Heights Blvd</b>", "polyline": {"points": "sa|tD`ngeQ?M?GM??G?S?M?SAM?u@?W"}, "start_location": {"lat": 29.8039365, "lng": -95.3982528}, "travel_mode": "WALKING"}], "travel_mode": "WALKING"}, {"distance": {"text": "3.5 mi", "value": 5589}, "duration": {"text": "12 mins", "value": 744}, "end_location": {"lat": 29.80163, "lng": -95.454342}, "html_instructions": "Bus towards Memorial City", "polyline": {"points": "ib|tDphgeQJ??V@t@?L?R?L@R?N?f@?h@@|@?\\?d@?b@@n@?pA@|B?d@?`@@t@?T?pA@v@@rA?v@@bD@~@?nA@H?tB@^@dC?P?j@@x@?x@?t@@P?dA@|A?\\?^@dC@zB?xA?N@V?fA@`ABfE?tABtJ?pB@rA?r@?H?|@?jB?@?j@@h@AL?\\?J@f@?|B?h@?|@?n@?N?|G?J@tE?d@@dC?p@AL@J?V@P@H?B?D@F@HBH@JDPDLDLDHDJDJHLFHFHLL?@TVTVn@v@NRh@h@NPVX^f@BJBFBFf@v@P`@DZDVBT@F?D@F?H?P@P?X?N?F?j@@pAIpB@f@?V?fA?j@?V@h@AjA?h@@~@?b@@^Af@@d@?X?bA?jA?b@@nC?J?d@Aj@?v@?P@dB?jA?bC?`A?\\@dH?`D?dC@fE?jD?T@`F@vB?jD?vC?X?`E@V@zCAb@?fAAX@fB@fA?T@|B?l@A~A?x@?XAzB?`A?dB?l@?P?F?H@^?Z?@?H?@?Z?h@?f@?j@?^?t@@j@BnAAV@|@@fB?bBG?"}, "start_location": {"lat": 29.804048, "lng": -95.397369}, "transit_details": {"arrival_stop": {"location": {"lat": 29.80163, "lng": -95.454342}, "name": "W 18th St @ Northwest Fwy"}, "arrival_time": {"text": "4:33pm", "time_zone": "America/Chicago", "value": 1642026820}, "departure_stop": {"location": {"lat": 29.804048, "lng": -95.397369}, "name": "E 20th St @ Heights Blvd"}, "departure_time": {"text": "4:21pm", "time_zone": "America/Chicago", "value": 1642026076}, "headsign": "Memorial City", "line": {"agencies": [{"name": "Metropolitan Transit Authority of Harris County", "phone": "1 (713) 635-4000", "url": "http://www.ridemetro.org/"}], "color": "#004080", "name": "Long Point / Cavalcade", "short_name": "26", "text_color": "#ffffff", "url": "https://www.ridemetro.org/MetroPDFs/Schedules/BusSchedules/n026-Long-Point-Cavalcade.pdf", "vehicle": {"icon": "//maps.gstatic.com/mapfiles/transit/iw2/6/bus2.png", "name": "Bus", "type": "BUS"}}, "num_stops": 19, "trip_short_name": "LONGPOINT"}, "travel_mode": "TRANSIT"}, {"distance": {"text": "322 ft", "value": 98}, "duration": {"text": "1 min", "value": 77}, "end_location": {"lat": 29.8019199, "lng": -95.45428179999999}, "html_instructions": "Walk to 4400 W 18th St, Houston, TX 77092, USA", "polyline": {"points": "es{tDrlreQ?z@YEc@E?G@Q@a@"}, "start_location": {"lat": 29.8016264, "lng": -95.454342}, "steps": [{"distance": {"text": "95 ft", "value": 29}, "duration": {"text": "1 min", "value": 22}, "end_location": {"lat": 29.8016252, "lng": -95.45463819999999}, "html_instructions": "Head <b>west</b> on <b>W 18th St</b>/<wbr/><b>NW Mall</b>", "polyline": {"points": "es{tDrlreQ?z@"}, "start_location": {"lat": 29.8016264, "lng": -95.454342}, "travel_mode": "WALKING"}, {"distance": {"text": "131 ft", "value": 40}, "duration": {"text": "1 min", "value": 33}, "end_location": {"lat": 29.8019405, "lng": -95.4545788}, "html_instructions": "Turn <b>right</b><div style=\"font-size:0.9em\">Restricted usage road</div>", "maneuver": "turn-right", "polyline": {"points": "es{tDnnreQYEc@E"}, "start_location": {"lat": 29.8016252, "lng": -95.45463819999999}, "travel_mode": "WALKING"}, {"distance": {"text": "95 ft", "value": 29}, "duration": {"text": "1 min", "value": 22}, "end_location": {"lat": 29.8019199, "lng": -95.45428179999999}, "html_instructions": "Turn <b>right</b><div style=\"font-size:0.9em\">Restricted usage road</div><div style=\"font-size:0.9em\">Destination will be on the left</div>", "maneuver": "turn-right", "polyline": {"points": "cu{tDbnreQ?G@Q@a@"}, "start_location": {"lat": 29.8019405, "lng": -95.4545788}, "travel_mode": "WALKING"}], "travel_mode": "WALKING"}], "traffic_speed_entry": [], "via_waypoint": []}], "overview_polyline": {"points": "qgguDjlkeQ?c@sABKG?[yABAm@?}GCkN?gGc@@qA?oA@W??J?UV?nAAzGC`IEzDCT?AaA?{E?cHCwM?aHCcCA}@OaCYoBQs@r@]n@Sv@KpBArEHpBAjF?|DEbD?rGA~JC~@CvFCvIAh@EBAhAEFAAFADP?rB?zICbFAfRGlTItKCtAG|@KjAWPCh@Sl@YhG}DdFaD`CwAx@_@|Bk@|AQ|@ClIIfLE|OI`DA|BGj@KfC?jKEvGEhJExECbFAhEEpHErHGhOGr@??g@`@?AeC?YN?I??M?GM??[?a@AcA?WE?J??V@bA@dA@lDDfMNv`@Rjm@BjYB|W@bABZLp@Vp@^l@x@~@hBtBf@j@^f@BJFNf@v@P`@Jr@D\\@h@@bA@|BIpB@f@?~A?bA?tB@hB@pC?zLBdWDvd@@jKA`HDbIA`F?tK?bEDpE@`HG??z@YEc@E?GBs@"}, "summary": "", "warnings": ["Walking directions are in beta. Use caution \u2013 This route may be missing sidewalks or pedestrian paths."], "waypoint_order": []}, {"bounds": {"northeast": {"lat": 29.86121169999999, "lng": -95.38748149999999}, "southwest": {"lat": 29.8015904, "lng": -95.45463819999999}}, "copyrights": "Map data \u00a92022", "legs": [{"arrival_time": {"text": "4:49pm", "time_zone": "America/Chicago", "value": 1642027797}, "departure_time": {"text": "3:47pm", "time_zone": "America/Chicago", "value": 1642024046}, "distance": {"text": "9.4 mi", "value": 15129}, "duration": {"text": "1 hour 3 mins", "value": 3751}, "end_address": "4400 W 18th St, Houston, TX 77092, USA", "end_location": {"lat": 29.8019199, "lng": -95.45428179999999}, "start_address": "800 Dillard St, Houston, TX 77091, USA", "start_location": {"lat": 29.8612077, "lng": -95.4184578}, "steps": [{"distance": {"text": "0.4 mi", "value": 724}, "duration": {"text": "9 mins", "value": 556}, "end_location": {"lat": 29.855484, "lng": -95.4188748}, "html_instructions": "Walk to W Montgomery Rd @ De Priest St", "polyline": {"points": "qgguDjlkeQ?c@n@C?_@x@AtEApA?~A?`DA`@A|@?L?P?d@?L@P?J?JBHDvCdDRVCDHJBBHJBGx@aA"}, "start_location": {"lat": 29.8612077, "lng": -95.4184578}, "steps": [{"distance": {"text": "59 ft", "value": 18}, "duration": {"text": "1 min", "value": 13}, "end_location": {"lat": 29.86121169999999, "lng": -95.4182764}, "html_instructions": "Head <b>east</b> toward <b>De Priest St</b>", "polyline": {"points": "qgguDjlkeQ?c@"}, "start_location": {"lat": 29.8612077, "lng": -95.4184578}, "travel_mode": "WALKING"}, {"distance": {"text": "89 ft", "value": 27}, "duration": {"text": "1 min", "value": 20}, "end_location": {"lat": 29.8609723, "lng": -95.41826329999999}, "html_instructions": "Turn <b>right</b> toward <b>De Priest St</b>", "maneuver": "turn-right", "polyline": {"points": "qgguDfkkeQn@C"}, "start_location": {"lat": 29.86121169999999, "lng": -95.4182764}, "travel_mode": "WALKING"}, {"distance": {"text": "52 ft", "value": 16}, "duration": {"text": "1 min", "value": 13}, "end_location": {"lat": 29.8609715, "lng": -95.41809579999999}, "html_instructions": "Turn <b>left</b> toward <b>De Priest St</b>", "maneuver": "turn-left", "polyline": {"points": "afguDbkkeQ?_@"}, "start_location": {"lat": 29.8609723, "lng": -95.41826329999999}, "travel_mode": "WALKING"}, {"distance": {"text": "0.4 mi", "value": 618}, "duration": {"text": "8 mins", "value": 468}, "end_location": {"lat": 29.8557653, "lng": -95.41920379999999}, "html_instructions": "Turn <b>right</b> onto <b>De Priest St</b>", "maneuver": "turn-right", "polyline": {"points": "afguDbjkeQx@AtEApA?~A?`DA`@A|@?L?P?d@?L@P?J?JBHDvCdDRVCDHJBBHJBG"}, "start_location": {"lat": 29.8609715, "lng": -95.41809579999999}, "travel_mode": "WALKING"}, {"distance": {"text": "148 ft", "value": 45}, "duration": {"text": "1 min", "value": 42}, "end_location": {"lat": 29.855484, "lng": -95.4188748}, "html_instructions": "Turn <b>left</b> onto <b>W Montgomery Rd</b><div style=\"font-size:0.9em\">Destination will be on the right</div>", "maneuver": "turn-left", "polyline": {"points": "qefuD~pkeQx@aA"}, "start_location": {"lat": 29.8557653, "lng": -95.41920379999999}, "travel_mode": "WALKING"}], "travel_mode": "WALKING"}, {"distance": {"text": "4.8 mi", "value": 7681}, "duration": {"text": "19 mins", "value": 1141}, "end_location": {"lat": 29.803195, "lng": -95.38754999999999}, "html_instructions": "Bus towards Downtown", "polyline": {"points": "wcfuD~nkeQEEbAqAt@{@bAoA`@g@lA{ANOHKJMlCeD`CyCNQTWpA}AX]n@u@n@q@V]z@aAPUpB_CX[f@m@X[j@q@ZWp@k@hBYzAUdAMFAF?d@Gr@ITChBI\\ClCCx@C|DAr@AT?vA?fECfAAZ?ZA^?h@AL?`@@l@AP?zCClA?vBCf@?h@?XAfA?F?ZA`@?jAA`A?TAlA?^AbCAhAAxAApAAT?nAA~B?pCCnA?dCCz@A`@AP?hAAX?t@?rAAVAF?l@?D?zAAZ?v@AN?h@?bBAbCEP??]C}DAe@?k@Ku@M_AACMe@Sw@Qo@Oo@Mk@Ou@Ea@Gq@CqCAw@?aA?m@?a@AeB?W?S?w@C}B?w@?q@?G?sBC}DAsAAe@A{B?[CYAe@CgAUuDGgACi@jAe@VMhCcA`@QjBs@bAa@x@]BATINIpAm@|@a@lCmAzAu@f@Wx@Y`@Oh@M`Bc@ZIbDy@lCq@VGh@Ov@SbAY~Ac@BA`AWt@QnBg@|@WlAYTGlCs@VIHCBCPE\\KZIj@O^IhBe@\\IBABATEx@U^Ir@S@?@?z@WVIdBc@NErBg@^IhCq@XGnA]hA[JCnCs@TGf@MzBm@pCu@RGbD{@`AUTG\\KjCs@b@Kp@Qt@Qv@Uv@SnA[PGRGRERAb@IJQFI\\W`Au@FL"}, "start_location": {"lat": 29.855483, "lng": -95.418876}, "transit_details": {"arrival_stop": {"location": {"lat": 29.803195, "lng": -95.38754999999999}, "name": "N Main St @ Kern St"}, "arrival_time": {"text": "4:15pm", "time_zone": "America/Chicago", "value": 1642025743}, "departure_stop": {"location": {"lat": 29.855483, "lng": -95.418876}, "name": "W Montgomery Rd @ De Priest St"}, "departure_time": {"text": "3:56pm", "time_zone": "America/Chicago", "value": 1642024602}, "headsign": "Downtown", "line": {"agencies": [{"name": "Metropolitan Transit Authority of Harris County", "phone": "1 (713) 635-4000", "url": "http://www.ridemetro.org/"}], "color": "#004080", "name": "Acres Homes", "short_name": "44", "text_color": "#ffffff", "url": "https://www.ridemetro.org/MetroPDFs/Schedules/BusSchedules/n044-Acres-Homes.pdf", "vehicle": {"icon": "//maps.gstatic.com/mapfiles/transit/iw2/6/bus2.png", "name": "Bus", "type": "BUS"}}, "num_stops": 33, "trip_short_name": "ACRESHOM"}, "travel_mode": "TRANSIT"}, {"distance": {"text": "417 ft", "value": 127}, "duration": {"text": "2 mins", "value": 124}, "end_location": {"lat": 29.8040987, "lng": -95.3879358}, "html_instructions": "Walk to W Cavalcade St @ N Main St", "polyline": {"points": "c}{tD~jeeQ{@n@KHUPGHCDQ?UBOBC?O@DO?A"}, "start_location": {"lat": 29.803216, "lng": -95.3875158}, "steps": [{"distance": {"text": "377 ft", "value": 115}, "duration": {"text": "2 mins", "value": 105}, "end_location": {"lat": 29.8041286, "lng": -95.38803279999999}, "html_instructions": "Head <b>northwest</b> on <b>N Main St</b> toward <b>Studewood St</b>", "polyline": {"points": "c}{tD~jeeQ{@n@KHUPGHCDQ?UBOBC?O@"}, "start_location": {"lat": 29.803216, "lng": -95.3875158}, "travel_mode": "WALKING"}, {"distance": {"text": "39 ft", "value": 12}, "duration": {"text": "1 min", "value": 19}, "end_location": {"lat": 29.8040987, "lng": -95.3879358}, "html_instructions": "Turn <b>right</b> onto <b>W Cavalcade St</b>", "maneuver": "turn-right", "polyline": {"points": "yb|tDdneeQDO?A"}, "start_location": {"lat": 29.8041286, "lng": -95.38803279999999}, "travel_mode": "WALKING"}], "travel_mode": "WALKING"}, {"distance": {"text": "4.0 mi", "value": 6499}, "duration": {"text": "14 mins", "value": 864}, "end_location": {"lat": 29.80163, "lng": -95.454342}, "html_instructions": "Bus towards Memorial City", "polyline": {"points": "wb|tDpmeeQJBA@ETC\\Af@?P?P?LA`@@\\BpA?^@j@?H@tA?n@?b@@b@?X?P?V@`A?v@@dA?V?vA@T?lB@jB@tA?XB|E?~A@zB@nB?V?V@t@?L?R?L@R?N?f@?h@@|@?\\?d@?b@@n@?pA@|B?d@?`@@t@?T?pA@v@@rA?v@@bD@~@?nA@H?tB@^@dC?P?j@@x@?x@?t@@P?dA@|A?\\?^@dC@zB?xA?N@V?fA@`ABfE?tABtJ?pB@rA?r@?H?|@?jB?@?j@@h@AL?\\?J@f@?|B?h@?|@?n@?N?|G?J@tE?d@@dC?p@AL@J?V@P@H?B?D@F@HBH@JDPDLDLDHDJDJHLFHFHLL?@TVTVn@v@NRh@h@NPVX^f@BJBFBFf@v@P`@DZDVBT@F?D@F?H?P@P?X?N?F?j@@pAIpB@f@?V?fA?j@?V@h@AjA?h@@~@?b@@^Af@@d@?X?bA?jA?b@@nC?J?d@Aj@?v@?P@dB?jA?bC?`A?\\@dH?`D?dC@fE?jD?T@`F@vB?jD?vC?X?`E@V@zCAb@?fAAX@fB@fA?T@|B?l@A~A?x@?XAzB?`A?dB?l@?P?F?H@^?Z?@?H?@?Z?h@?f@?j@?^?t@@j@BnAAV@|@@fB?bBG?"}, "start_location": {"lat": 29.804119, "lng": -95.38793299999999}, "transit_details": {"arrival_stop": {"location": {"lat": 29.80163, "lng": -95.454342}, "name": "W 18th St @ Northwest Fwy"}, "arrival_time": {"text": "4:48pm", "time_zone": "America/Chicago", "value": 1642027720}, "departure_stop": {"location": {"lat": 29.804119, "lng": -95.38793299999999}, "name": "W Cavalcade St @ N Main St"}, "departure_time": {"text": "4:34pm", "time_zone": "America/Chicago", "value": 1642026856}, "headsign": "Memorial City", "line": {"agencies": [{"name": "Metropolitan Transit Authority of Harris County", "phone": "1 (713) 635-4000", "url": "http://www.ridemetro.org/"}], "color": "#004080", "name": "Long Point / Cavalcade", "short_name": "26", "text_color": "#ffffff", "url": "https://www.ridemetro.org/MetroPDFs/Schedules/BusSchedules/n026-Long-Point-Cavalcade.pdf", "vehicle": {"icon": "//maps.gstatic.com/mapfiles/transit/iw2/6/bus2.png", "name": "Bus", "type": "BUS"}}, "num_stops": 24, "trip_short_name": "LONGPOINT"}, "travel_mode": "TRANSIT"}, {"distance": {"text": "322 ft", "value": 98}, "duration": {"text": "1 min", "value": 77}, "end_location": {"lat": 29.8019199, "lng": -95.45428179999999}, "html_instructions": "Walk to 4400 W 18th St, Houston, TX 77092, USA", "polyline": {"points": "es{tDrlreQ?z@YEc@E?G@Q@a@"}, "start_location": {"lat": 29.8016264, "lng": -95.454342}, "steps": [{"distance": {"text": "95 ft", "value": 29}, "duration": {"text": "1 min", "value": 22}, "end_location": {"lat": 29.8016252, "lng": -95.45463819999999}, "html_instructions": "Head <b>west</b> on <b>W 18th St</b>/<wbr/><b>NW Mall</b>", "polyline": {"points": "es{tDrlreQ?z@"}, "start_location": {"lat": 29.8016264, "lng": -95.454342}, "travel_mode": "WALKING"}, {"distance": {"text": "131 ft", "value": 40}, "duration": {"text": "1 min", "value": 33}, "end_location": {"lat": 29.8019405, "lng": -95.4545788}, "html_instructions": "Turn <b>right</b><div style=\"font-size:0.9em\">Restricted usage road</div>", "maneuver": "turn-right", "polyline": {"points": "es{tDnnreQYEc@E"}, "start_location": {"lat": 29.8016252, "lng": -95.45463819999999}, "travel_mode": "WALKING"}, {"distance": {"text": "95 ft", "value": 29}, "duration": {"text": "1 min", "value": 22}, "end_location": {"lat": 29.8019199, "lng": -95.45428179999999}, "html_instructions": "Turn <b>right</b><div style=\"font-size:0.9em\">Restricted usage road</div><div style=\"font-size:0.9em\">Destination will be on the left</div>", "maneuver": "turn-right", "polyline": {"points": "cu{tDbnreQ?G@Q@a@"}, "start_location": {"lat": 29.8019405, "lng": -95.4545788}, "travel_mode": "WALKING"}], "travel_mode": "WALKING"}], "traffic_speed_entry": [], "via_waypoint": []}], "overview_polyline": {"points": "qgguDjlkeQ?c@n@C?_@x@AfHA`GA~BApA@THjD|DCDHJLN|@iAEC~EeGhLoNbLyMfCwClAcAdEo@zBWhAMfCMfEGpFC|JEpFCp^SjGEpLEbNKrGEbHGEmHYuBOi@e@gB]{AUwAGq@CqCAyB?oAAiECoFGkLAwCE_ACgAUuDKqBnGiClFuBtDcBhFcCf@Wx@YjA]|Bm@rJcC~EsAnPiE|@YpEiAjEgAhNoDxb@aL`J_Cv@KR[~AmAFLCEgAx@]ZCDQ?e@FS@DQCAJBGVEhBB~CD|HPbf@FrP\\h`AJx]?xH@lG?hJBrL@bABZLp@Vp@^l@bDtDf@j@^f@BJFNf@v@P`@Jr@D\\@h@@bA@|BIpB@f@?~A?bA?tB@hB@pC?lE@hNBdd@Df\\A`HDbIA`FApI@lB?xCDpE@`HG??z@YEc@E?GBs@"}, "summary": "", "warnings": ["Walking directions are in beta. Use caution \u2013 This route may be missing sidewalks or pedestrian paths."], "waypoint_order": []}, {"bounds": {"northeast": {"lat": 29.86121169999999, "lng": -95.4180909}, "southwest": {"lat": 29.8015904, "lng": -95.45463819999999}}, "copyrights": "Map data \u00a92022", "legs": [{"arrival_time": {"text": "4:34pm", "time_zone": "America/Chicago", "value": 1642026897}, "departure_time": {"text": "3:50pm", "time_zone": "America/Chicago", "value": 1642024213}, "distance": {"text": "6.4 mi", "value": 10293}, "duration": {"text": "45 mins", "value": 2684}, "end_address": "4400 W 18th St, Houston, TX 77092, USA", "end_location": {"lat": 29.8019199, "lng": -95.45428179999999}, "start_address": "800 Dillard St, Houston, TX 77091, USA", "start_location": {"lat": 29.8612077, "lng": -95.4184578}, "steps": [{"distance": {"text": "0.9 mi", "value": 1478}, "duration": {"text": "19 mins", "value": 1129}, "end_location": {"lat": 29.857904, "lng": -95.4291939}, "html_instructions": "Walk to Wheatley St @ Wilburforce St", "polyline": {"points": "qgguDjlkeQ?c@n@C?_@x@A?d@?h@?f@@lA?rC@dC?R?|@?zEdEC~EAH@F@D@B@CDHJBBHHBCHPDBn@?^??bB@z@?bB@~C@|C@|C?X?dC?~C?jA?h@?h@?vBG??N?P?NQ?"}, "start_location": {"lat": 29.8612077, "lng": -95.4184578}, "steps": [{"distance": {"text": "59 ft", "value": 18}, "duration": {"text": "1 min", "value": 13}, "end_location": {"lat": 29.86121169999999, "lng": -95.4182764}, "html_instructions": "Head <b>east</b> toward <b>De Priest St</b>", "polyline": {"points": "qgguDjlkeQ?c@"}, "start_location": {"lat": 29.8612077, "lng": -95.4184578}, "travel_mode": "WALKING"}, {"distance": {"text": "89 ft", "value": 27}, "duration": {"text": "1 min", "value": 20}, "end_location": {"lat": 29.8609723, "lng": -95.41826329999999}, "html_instructions": "Turn <b>right</b> toward <b>De Priest St</b>", "maneuver": "turn-right", "polyline": {"points": "qgguDfkkeQn@C"}, "start_location": {"lat": 29.86121169999999, "lng": -95.4182764}, "travel_mode": "WALKING"}, {"distance": {"text": "52 ft", "value": 16}, "duration": {"text": "1 min", "value": 13}, "end_location": {"lat": 29.8609715, "lng": -95.41809579999999}, "html_instructions": "Turn <b>left</b> toward <b>De Priest St</b>", "maneuver": "turn-left", "polyline": {"points": "afguDbkkeQ?_@"}, "start_location": {"lat": 29.8609723, "lng": -95.41826329999999}, "travel_mode": "WALKING"}, {"distance": {"text": "108 ft", "value": 33}, "duration": {"text": "1 min", "value": 25}, "end_location": {"lat": 29.8606761, "lng": -95.4180909}, "html_instructions": "Turn <b>right</b> onto <b>De Priest St</b>", "maneuver": "turn-right", "polyline": {"points": "afguDbjkeQx@A"}, "start_location": {"lat": 29.8609715, "lng": -95.41809579999999}, "travel_mode": "WALKING"}, {"distance": {"text": "0.2 mi", "value": 377}, "duration": {"text": "5 mins", "value": 275}, "end_location": {"lat": 29.8606554, "lng": -95.4219988}, "html_instructions": "Turn <b>right</b> onto <b>Lovers Ln</b>", "maneuver": "turn-right", "polyline": {"points": "gdguD`jkeQ?d@?h@?f@@lA?rC@dC?R?|@?zE"}, "start_location": {"lat": 29.8606761, "lng": -95.4180909}, "travel_mode": "WALKING"}, {"distance": {"text": "0.2 mi", "value": 328}, "duration": {"text": "4 mins", "value": 260}, "end_location": {"lat": 29.8578055, "lng": -95.4222564}, "html_instructions": "Turn <b>left</b> onto <b>Radcliffe St</b>", "maneuver": "turn-left", "polyline": {"points": "cdguDnbleQdEC~EAH@F@D@B@CDHJBBHHBCHPDBn@?^?"}, "start_location": {"lat": 29.8606554, "lng": -95.4219988}, "travel_mode": "WALKING"}, {"distance": {"text": "0.4 mi", "value": 665}, "duration": {"text": "8 mins", "value": 503}, "end_location": {"lat": 29.85780919999999, "lng": -95.4291934}, "html_instructions": "Turn <b>right</b> onto <b>Wilburforce St</b>", "maneuver": "turn-right", "polyline": {"points": "irfuDbdleQ?bB@z@?bB@~C@|C@|C?X?dC?~C?jA?h@?h@?vBG??N?P?N"}, "start_location": {"lat": 29.8578055, "lng": -95.4222564}, "travel_mode": "WALKING"}, {"distance": {"text": "46 ft", "value": 14}, "duration": {"text": "1 min", "value": 20}, "end_location": {"lat": 29.857904, "lng": -95.4291939}, "html_instructions": "Turn <b>right</b> onto <b>Wheatley St</b>", "maneuver": "turn-right", "polyline": {"points": "irfuDlomeQQ?"}, "start_location": {"lat": 29.85780919999999, "lng": -95.4291934}, "travel_mode": "WALKING"}], "travel_mode": "WALKING"}, {"distance": {"text": "3.8 mi", "value": 6186}, "duration": {"text": "16 mins", "value": 933}, "end_location": {"lat": 29.802773, "lng": -95.42999999999999}, "html_instructions": "Bus towards Clinton Park", "polyline": {"points": "{rfuDpomeQ?KX?dD?h@?pD?j@?b@?zB?Z?tD?f@?nECfB?xA?Z?lE?~C?r@Ax@?v@Af@AVCB?XC|@Gb@C`@Ch@CB?D?R?d@AZAv@AB?lDET@R@lB?P?`C?^?pA@pA?fD?zA?P?lAAn@?f@?P?d@?zB?~ABh@@r@HPBNBJBPF^NjBv@PFFBJDh@NXHv@LH@RBZ@j@@`@?|@@lCCV?vAAjAApC?R?bDCvAAn@?Z?fDAhCAV?dDA|AAdA?\\A`@?f@?d@?`AAJ?R?n@At@?dAAZ?dDAzAAb@?L?T?~FCrBCr@?R?dD?`DCp@?j@AN?zA?vAAhA@Z@L?P?b@@X?n@@t@?RAdBAB?L?H?FGBAB?D?\\?F??FF@`@Cd@Al@C`AGfAEx@AL@zAA^?bA?P?D?^?N?L?l@?P?d@AV?p@?l@?z@?JAX?x@?R?N?RAb@?x@ChACx@?T?X?X?V?bAAhACZ?h@?pBARAl@Ab@?xBCfCCj@?T?NAN?B?@?|AAJC|@@F?`@AhBAV?T?P?J@DCJCN?N??L`@FRDNF^LXLRH~@b@VJd@NLDLBCJ"}, "start_location": {"lat": 29.857904, "lng": -95.429208}, "transit_details": {"arrival_stop": {"location": {"lat": 29.802773, "lng": -95.42999999999999}, "name": "Ella Blvd @ W TC Jester Blvd"}, "arrival_time": {"text": "4:24pm", "time_zone": "America/Chicago", "value": 1642026276}, "departure_stop": {"location": {"lat": 29.857904, "lng": -95.429208}, "name": "Wheatley St @ Wilburforce St"}, "departure_time": {"text": "4:09pm", "time_zone": "America/Chicago", "value": 1642025343}, "headsign": "Clinton Park", "line": {"agencies": [{"name": "Metropolitan Transit Authority of Harris County", "phone": "1 (713) 635-4000", "url": "http://www.ridemetro.org/"}], "color": "#004080", "name": "Clinton / Ella", "short_name": "30", "text_color": "#ffffff", "url": "https://www.ridemetro.org/MetroPDFs/Schedules/BusSchedules/n030-Clinton-Ella.pdf", "vehicle": {"icon": "//maps.gstatic.com/mapfiles/transit/iw2/6/bus2.png", "name": "Bus", "type": "BUS"}}, "num_stops": 23, "trip_short_name": "ELLACLIN"}, "travel_mode": "TRANSIT"}, {"distance": {"text": "499 ft", "value": 152}, "duration": {"text": "3 mins", "value": 156}, "end_location": {"lat": 29.801746, "lng": -95.42979059999999}, "html_instructions": "Walk to W 18th St @ Ella Blvd", "polyline": {"points": "kz{tDjtmeQPDLDRBNBVDF@R@PBF?d@@V@?Q?M?OA["}, "start_location": {"lat": 29.8027751, "lng": -95.42997869999999}, "steps": [{"distance": {"text": "394 ft", "value": 120}, "duration": {"text": "2 mins", "value": 112}, "end_location": {"lat": 29.8017409, "lng": -95.43008309999999}, "html_instructions": "Head <b>south</b> on <b>Ella Blvd</b> toward <b>T C Jester Blvd</b><div style=\"font-size:0.9em\">Pass by Jack in the Box (on the left in 322&nbsp;ft)</div>", "polyline": {"points": "kz{tDjtmeQPDLDRBNBVDF@R@PBF?d@@V@?Q"}, "start_location": {"lat": 29.8027751, "lng": -95.42997869999999}, "travel_mode": "WALKING"}, {"distance": {"text": "105 ft", "value": 32}, "duration": {"text": "1 min", "value": 44}, "end_location": {"lat": 29.801746, "lng": -95.42979059999999}, "html_instructions": "Turn <b>left</b> onto <b>W 18th St</b>", "maneuver": "turn-left", "polyline": {"points": "{s{tD~tmeQ?M?OA["}, "start_location": {"lat": 29.8017409, "lng": -95.43008309999999}, "travel_mode": "WALKING"}], "travel_mode": "WALKING"}, {"distance": {"text": "1.5 mi", "value": 2379}, "duration": {"text": "5 mins", "value": 317}, "end_location": {"lat": 29.80163, "lng": -95.454342}, "html_instructions": "Bus towards Memorial City", "polyline": {"points": "_t{tDdsmeQH??b@@^Af@@d@?X?bA?jA?b@@nC?J?d@Aj@?v@?P@dB?jA?bC?`A?\\@dH?`D?dC@fE?jD?T@`F@vB?jD?vC?X?`E@V@zCAb@?fAAX@fB@fA?T@|B?l@A~A?x@?XAzB?`A?dB?l@?P?F?H@^?Z?@?H?@?Z?h@?f@?j@?^?t@@j@BnAAV@|@@fB?bBG?"}, "start_location": {"lat": 29.80176, "lng": -95.429791}, "transit_details": {"arrival_stop": {"location": {"lat": 29.80163, "lng": -95.454342}, "name": "W 18th St @ Northwest Fwy"}, "arrival_time": {"text": "4:33pm", "time_zone": "America/Chicago", "value": 1642026820}, "departure_stop": {"location": {"lat": 29.80176, "lng": -95.429791}, "name": "W 18th St @ Ella Blvd"}, "departure_time": {"text": "4:28pm", "time_zone": "America/Chicago", "value": 1642026503}, "headsign": "Memorial City", "line": {"agencies": [{"name": "Metropolitan Transit Authority of Harris County", "phone": "1 (713) 635-4000", "url": "http://www.ridemetro.org/"}], "color": "#004080", "name": "Long Point / Cavalcade", "short_name": "26", "text_color": "#ffffff", "url": "https://www.ridemetro.org/MetroPDFs/Schedules/BusSchedules/n026-Long-Point-Cavalcade.pdf", "vehicle": {"icon": "//maps.gstatic.com/mapfiles/transit/iw2/6/bus2.png", "name": "Bus", "type": "BUS"}}, "num_stops": 6, "trip_short_name": "LONGPOINT"}, "travel_mode": "TRANSIT"}, {"distance": {"text": "322 ft", "value": 98}, "duration": {"text": "1 min", "value": 77}, "end_location": {"lat": 29.8019199, "lng": -95.45428179999999}, "html_instructions": "Walk to 4400 W 18th St, Houston, TX 77092, USA", "polyline": {"points": "es{tDrlreQ?z@YEc@E?G@Q@a@"}, "start_location": {"lat": 29.8016264, "lng": -95.454342}, "steps": [{"distance": {"text": "95 ft", "value": 29}, "duration": {"text": "1 min", "value": 22}, "end_location": {"lat": 29.8016252, "lng": -95.45463819999999}, "html_instructions": "Head <b>west</b> on <b>W 18th St</b>/<wbr/><b>NW Mall</b>", "polyline": {"points": "es{tDrlreQ?z@"}, "start_location": {"lat": 29.8016264, "lng": -95.454342}, "travel_mode": "WALKING"}, {"distance": {"text": "131 ft", "value": 40}, "duration": {"text": "1 min", "value": 33}, "end_location": {"lat": 29.8019405, "lng": -95.4545788}, "html_instructions": "Turn <b>right</b><div style=\"font-size:0.9em\">Restricted usage road</div>", "maneuver": "turn-right", "polyline": {"points": "es{tDnnreQYEc@E"}, "start_location": {"lat": 29.8016252, "lng": -95.45463819999999}, "travel_mode": "WALKING"}, {"distance": {"text": "95 ft", "value": 29}, "duration": {"text": "1 min", "value": 22}, "end_location": {"lat": 29.8019199, "lng": -95.45428179999999}, "html_instructions": "Turn <b>right</b><div style=\"font-size:0.9em\">Restricted usage road</div><div style=\"font-size:0.9em\">Destination will be on the left</div>", "maneuver": "turn-right", "polyline": {"points": "cu{tDbnreQ?G@Q@a@"}, "start_location": {"lat": 29.8019405, "lng": -95.4545788}, "travel_mode": "WALKING"}], "travel_mode": "WALKING"}], "traffic_speed_entry": [], "via_waypoint": []}], "overview_polyline": {"points": "qgguDjlkeQ?c@n@C?_@x@A?nA@tB@jJ?zEdEChF?LBB@CDLNHHBCNTnA?BbLBzW?vBG??`@?NQ??GzK?fF?tOCbN?lEErBOrBKzACz@AbECtG@jJ@jFAzE?hCDdALZFp@VpChAbAX`ANn@DlA@zHCtKEpVItHCfi@SnFCdCBbDBjCCH?FGFAb@?F??Fh@ArAEhCMfA?pEAbA?dHCvB?zDIdIEnPMx@A~AAhAAjDCr@@PG^??L`@Fb@Lx@ZrAl@xAd@CJAC^JbANrAFV@?Q?]C[H??b@?fA@~@@bIAtCBnZ@nOBxI?bIBnKAlFBhGCnH@tH?fEBhEBdD?bBG??z@}@KB{@"}, "summary": "", "warnings": ["Walking directions are in beta. Use caution \u2013 This route may be missing sidewalks or pedestrian paths."], "waypoint_order": []}], "status": "OK"}