{"geocoded_waypoints": [{"geocoder_status": "OK", "place_id": "ChIJ74noTve7QIYRbgTAMUD9zkI", "types": ["establishment", "point_of_interest", "primary_school", "school"]}, {"geocoder_status": "OK", "place_id": "ChIJ9_tphxzHQIYRIMyPy_d3VZU", "types": ["establishment", "point_of_interest"]}], "routes": [{"bounds": {"northeast": {"lat": 29.80413, "lng": -95.2960442}, "southwest": {"lat": 29.7747841, "lng": -95.45463819999999}}, "copyrights": "Map data \u00a92022", "legs": [{"arrival_time": {"text": "4:34pm", "time_zone": "America/Chicago", "value": 1642026897}, "departure_time": {"text": "3:20pm", "time_zone": "America/Chicago", "value": 1642022432}, "distance": {"text": "12.5 mi", "value": 20161}, "duration": {"text": "1 hour 14 mins", "value": 4465}, "end_address": "4400 W 18th St, Houston, TX 77092, USA", "end_location": {"lat": 29.8019199, "lng": -95.45428179999999}, "start_address": "400 Boyles St, Houston, TX 77020, USA", "start_location": {"lat": 29.781, "lng": -95.2989276}, "steps": [{"distance": {"text": "0.5 mi", "value": 780}, "duration": {"text": "10 mins", "value": 577}, "end_location": {"lat": 29.7765244, "lng": -95.2960598}, "html_instructions": "Walk to East Fwy @ Port St", "polyline": {"points": "grwtDhatdQt@AjC?fCAhCAhCGN@vBClCCGoEAiC?GA{B?Wd@OMc@"}, "start_location": {"lat": 29.781, "lng": -95.2989276}, "steps": [{"distance": {"text": "0.3 mi", "value": 492}, "duration": {"text": "6 mins", "value": 363}, "end_location": {"lat": 29.7765809, "lng": -95.29883199999999}, "html_instructions": "Head <b>south</b> on <b>Boyles St</b> toward <b>Laredo St</b>", "polyline": {"points": "grwtDhatdQt@AjC?fCAhCAhCGN@vBClCC"}, "start_location": {"lat": 29.781, "lng": -95.2989276}, "travel_mode": "WALKING"}, {"distance": {"text": "0.2 mi", "value": 242}, "duration": {"text": "3 mins", "value": 179}, "end_location": {"lat": 29.7766441, "lng": -95.296325}, "html_instructions": "Turn <b>left</b> onto <b>Lyons Ave</b>", "maneuver": "turn-left", "polyline": {"points": "svvtDt`tdQGoEAiC?GA{B?W"}, "start_location": {"lat": 29.7765809, "lng": -95.29883199999999}, "travel_mode": "WALKING"}, {"distance": {"text": "89 ft", "value": 27}, "duration": {"text": "1 min", "value": 20}, "end_location": {"lat": 29.77644999999999, "lng": -95.2962386}, "html_instructions": "Turn <b>right</b> to stay on <b>Lyons Ave</b>", "maneuver": "turn-right", "polyline": {"points": "_wvtD~psdQd@O"}, "start_location": {"lat": 29.7766441, "lng": -95.296325}, "travel_mode": "WALKING"}, {"distance": {"text": "62 ft", "value": 19}, "duration": {"text": "1 min", "value": 15}, "end_location": {"lat": 29.7765244, "lng": -95.2960598}, "html_instructions": "Turn <b>left</b> onto <b>East Fwy</b>/<wbr/><b>E Freeway Service Rd</b>", "maneuver": "turn-left", "polyline": {"points": "yuvtDnpsdQMc@"}, "start_location": {"lat": 29.77644999999999, "lng": -95.2962386}, "travel_mode": "WALKING"}], "travel_mode": "WALKING"}, {"distance": {"text": "2.1 mi", "value": 3403}, "duration": {"text": "9 mins", "value": 515}, "end_location": {"lat": 29.77623299999999, "lng": -95.32593299999999}, "html_instructions": "Bus towards Hiram Clarke TC", "polyline": {"points": "kvvtDlosdQHELb@FN|@tCXbAb@zADN\\jAHTBNH\\J`@XjAH\\T|@XjAT~AHv@@HDb@sA@mBJY@{BF?P?^?d@@T?`A?b@?hB?hA?XAfB?dBAbB?fA?`@?zB?n@?`@?fB?dA?X?X?~A?b@?~@AhB?jA?V?hB?`B?fB?fB?b@?R?J?b@?d@?h@?B?J@D?j@?`B?r@BxB@~@B`B@rABjAb@CXClAI`@AL_ADUy@Bc@D[DkALBjA@z@@t@?LFbF@P?`@BfDBpC?RFbDBfC?`@@xCBfD?Z@`E?zC?b@DxD@d@I?"}, "start_location": {"lat": 29.776538, "lng": -95.29607000000001}, "transit_details": {"arrival_stop": {"location": {"lat": 29.77623299999999, "lng": -95.32593299999999}, "name": "Lyons Ave @ Waco St"}, "arrival_time": {"text": "3:38pm", "time_zone": "America/Chicago", "value": 1642023524}, "departure_stop": {"location": {"lat": 29.776538, "lng": -95.29607000000001}, "name": "East Fwy @ Port St"}, "departure_time": {"text": "3:30pm", "time_zone": "America/Chicago", "value": 1642023009}, "headsign": "Hiram Clarke TC", "line": {"agencies": [{"name": "Metropolitan Transit Authority of Harris County", "phone": "1 (713) 635-4000", "url": "http://www.ridemetro.org/"}], "color": "#004080", "name": "Almeda / Lyons", "short_name": "11", "text_color": "#ffffff", "url": "https://www.ridemetro.org/MetroPDFs/Schedules/BusSchedules/n011-Almeda-Lyons.pdf", "vehicle": {"icon": "//maps.gstatic.com/mapfiles/transit/iw2/6/bus2.png", "name": "Bus", "type": "BUS"}}, "num_stops": 16, "trip_short_name": "ALMEDALYON"}, "travel_mode": "TRANSIT"}, {"distance": {"text": "344 ft", "value": 105}, "duration": {"text": "1 min", "value": 76}, "end_location": {"lat": 29.7767468, "lng": -95.3263571}, "html_instructions": "Walk to Waco St @ New Orleans St", "polyline": {"points": "ktvtD`jydQBjAmBH"}, "start_location": {"lat": 29.7762163, "lng": -95.325932}, "steps": [{"distance": {"text": "131 ft", "value": 40}, "duration": {"text": "1 min", "value": 30}, "end_location": {"lat": 29.7761998, "lng": -95.32630840000002}, "html_instructions": "Head <b>west</b> on <b>Lyons Ave</b> toward <b>Waco St</b>", "polyline": {"points": "ktvtD`jydQBjA"}, "start_location": {"lat": 29.7762163, "lng": -95.325932}, "travel_mode": "WALKING"}, {"distance": {"text": "213 ft", "value": 65}, "duration": {"text": "1 min", "value": 46}, "end_location": {"lat": 29.7767468, "lng": -95.3263571}, "html_instructions": "Turn <b>right</b> onto <b>Waco St</b><div style=\"font-size:0.9em\">Destination will be on the right</div>", "maneuver": "turn-right", "polyline": {"points": "gtvtDllydQmBH"}, "start_location": {"lat": 29.7761998, "lng": -95.32630840000002}, "travel_mode": "WALKING"}], "travel_mode": "WALKING"}, {"distance": {"text": "1.9 mi", "value": 3021}, "duration": {"text": "7 mins", "value": 437}, "end_location": {"lat": 29.803702, "lng": -95.328178}, "html_instructions": "Bus towards Northline TC", "polyline": {"points": "uwvtDrlydQ@JY@qCPmBFY?uA?K@i@?kC?sABY@Q@e@Bi@Fm@FYFkBb@a@HK@WDQBQ@M@Y@m@DS@c@@M@S@U@U@U?A?a@@G?[?c@@}@?c@?c@@gA?c@@c@?kB@qAJYBsDJwABG?G?u@?{@@cCBE?k@?]@m@?uBB}@@k@@a@@O@y@DSBG@k@Da@FS@o@DW@S@]@c@?iA@c@?g@?Q?cD?uADu@?W?eD?sA@c@?q@?[@]Da@BWDWDw@Rk@L_@Hu@LI@M@e@@w@@cA@cA?oA@_@@mA?uEBs@@u@?_B@K?uA@_A?M??I"}, "start_location": {"lat": 29.776748, "lng": -95.32633899999999}, "transit_details": {"arrival_stop": {"location": {"lat": 29.803702, "lng": -95.328178}, "name": "Hirsch Rd @ Rand St"}, "arrival_time": {"text": "3:56pm", "time_zone": "America/Chicago", "value": 1642024589}, "departure_stop": {"location": {"lat": 29.776748, "lng": -95.32633899999999}, "name": "Waco St @ New Orleans St"}, "departure_time": {"text": "3:49pm", "time_zone": "America/Chicago", "value": 1642024152}, "headsign": "Northline TC", "line": {"agencies": [{"name": "Metropolitan Transit Authority of Harris County", "phone": "1 (713) 635-4000", "url": "http://www.ridemetro.org/"}], "color": "#004080", "name": "Cullen / Hirsch", "short_name": "29", "text_color": "#ffffff", "url": "https://www.ridemetro.org/MetroPDFs/Schedules/BusSchedules/n029-Cullen-Hirsch.pdf", "vehicle": {"icon": "//maps.gstatic.com/mapfiles/transit/iw2/6/bus2.png", "name": "Bus", "type": "BUS"}}, "num_stops": 11, "trip_short_name": "CULLENHIRS"}, "travel_mode": "TRANSIT"}, {"distance": {"text": "128 ft", "value": 39}, "duration": {"text": "1 min", "value": 49}, "end_location": {"lat": 29.8039524, "lng": -95.32838989999999}, "html_instructions": "Walk to Hirsch Rd @ Rand St", "polyline": {"points": "c`|tDdxydQW?G??NAD@PQ?"}, "start_location": {"lat": 29.8037023, "lng": -95.328188}, "steps": [{"distance": {"text": "46 ft", "value": 14}, "duration": {"text": "1 min", "value": 10}, "end_location": {"lat": 29.8038633, "lng": -95.3282701}, "html_instructions": "Head <b>north</b> on <b>Hirsch Rd</b> toward <b>Rand St</b>", "polyline": {"points": "c`|tDdxydQW?G??N"}, "start_location": {"lat": 29.8037023, "lng": -95.328188}, "travel_mode": "WALKING"}, {"distance": {"text": "36 ft", "value": 11}, "duration": {"text": "1 min", "value": 20}, "end_location": {"lat": 29.8038639, "lng": -95.3283879}, "html_instructions": "Turn <b>left</b> onto <b>Rand St</b>", "maneuver": "turn-left", "polyline": {"points": "ca|tDtxydQAD@P"}, "start_location": {"lat": 29.8038633, "lng": -95.3282701}, "travel_mode": "WALKING"}, {"distance": {"text": "46 ft", "value": 14}, "duration": {"text": "1 min", "value": 19}, "end_location": {"lat": 29.8039524, "lng": -95.32838989999999}, "html_instructions": "Turn <b>right</b> onto <b>Hirsch Rd</b>", "maneuver": "turn-right", "polyline": {"points": "ca|tDlyydQQ?"}, "start_location": {"lat": 29.8038639, "lng": -95.3283879}, "travel_mode": "WALKING"}], "travel_mode": "WALKING"}, {"distance": {"text": "7.9 mi", "value": 12715}, "duration": {"text": "30 mins", "value": 1826}, "end_location": {"lat": 29.80163, "lng": -95.454342}, "html_instructions": "Bus towards Memorial City", "polyline": {"points": "ua|tDpyydQ?KV?\\?zFEdA?H?z@Ah@?v@?vAAb@?t@??n@?j@@bD?p@@hA?X?x@DvCFpD?rA@zBGvAEpAGjBARC\\K`AEb@]fBKb@EPGVYdAUdAMx@W|AOjAMx@EZGd@WbBKj@Ib@EVAFIf@ADKn@Kz@In@K|@SdBK|@Gb@K~@AHW|Bc@jEo@fFWlBK|@EVSbBQpAGr@Mp@Eb@CNOrAKdBCf@?HAx@?xB@d@@j@?pA@nA?X@dB?T@fAB~D@bD@ZBbEBzB@fAGrAAXGvA@vD@xC@^@tD@x@?V?v@?l@?\\BpD@nB?fA@jA?tA?T?\\?lA@nA?tA@dA?Z@bA?pB@vDAlBAV?LANAT?RAXCR?@CXQ|@Kf@Sz@ENOr@CRE\\Cb@KfCARCpAAv@AXCf@?DAT?LAHCfAAd@?D?lB?h@?VBjC?lB?x@@z@@fB?fD@fDE`BA|@?HA\\@V?lA@L?\\?x@?V@j@@t@?L?JB`@@T@NBN@N@V?f@@f@?`A?r@?L?xBAP?JALAPANIbAEb@?TAR?V?fH?p@@vD@xAC^C^CRA@ETC\\Af@?P?P?LA`@@\\BpA?^@j@?H@tA?n@?b@@b@?X?P?V@`A?v@@dA?V?vA@T?lB@jB@tA?XB|E?~A@zB@nB?V?V@t@?L?R?L@R?N?f@?h@@|@?\\?d@?b@@n@?pA@|B?d@?`@@t@?T?pA@v@@rA?v@@bD@~@?nA@H?tB@^@dC?P?j@@x@?x@?t@@P?dA@|A?\\?^@dC@zB?xA?N@V?fA@`ABfE?tABtJ?pB@rA?r@?H?|@?jB?@?j@@h@AL?\\?J@f@?|B?h@?|@?n@?N?|G?J@tE?d@@dC?p@AL@J?V@P@H?B?D@F@HBH@JDPDLDLDHDJDJHLFHFHLL?@TVTVn@v@NRh@h@NPVX^f@BJBFBFf@v@P`@DZDVBT@F?D@F?H?P@P?X?N?F?j@@pAIpB@f@?V?fA?j@?V@h@AjA?h@@~@?b@@^Af@@d@?X?bA?jA?b@@nC?J?d@Aj@?v@?P@dB?jA?bC?`A?\\@dH?`D?dC@fE?jD?T@`F@vB?jD?vC?X?`E@V@zCAb@?fAAX@fB@fA?T@|B?l@A~A?x@?XAzB?`A?dB?l@?P?F?H@^?Z?@?H?@?Z?h@?f@?j@?^?t@@j@BnAAV@|@@fB?bBG?"}, "start_location": {"lat": 29.803952, "lng": -95.328411}, "transit_details": {"arrival_stop": {"location": {"lat": 29.80163, "lng": -95.454342}, "name": "W 18th St @ Northwest Fwy"}, "arrival_time": {"text": "4:33pm", "time_zone": "America/Chicago", "value": 1642026820}, "departure_stop": {"location": {"lat": 29.803952, "lng": -95.328411}, "name": "Hirsch Rd @ Rand St"}, "departure_time": {"text": "4:03pm", "time_zone": "America/Chicago", "value": 1642024994}, "headsign": "Memorial City", "line": {"agencies": [{"name": "Metropolitan Transit Authority of Harris County", "phone": "1 (713) 635-4000", "url": "http://www.ridemetro.org/"}], "color": "#004080", "name": "Long Point / Cavalcade", "short_name": "26", "text_color": "#ffffff", "url": "https://www.ridemetro.org/MetroPDFs/Schedules/BusSchedules/n026-Long-Point-Cavalcade.pdf", "vehicle": {"icon": "//maps.gstatic.com/mapfiles/transit/iw2/6/bus2.png", "name": "Bus", "type": "BUS"}}, "num_stops": 47, "trip_short_name": "LONGPOINT"}, "travel_mode": "TRANSIT"}, {"distance": {"text": "322 ft", "value": 98}, "duration": {"text": "1 min", "value": 77}, "end_location": {"lat": 29.8019199, "lng": -95.45428179999999}, "html_instructions": "Walk to 4400 W 18th St, Houston, TX 77092, USA", "polyline": {"points": "es{tDrlreQ?z@YEc@E?G@Q@a@"}, "start_location": {"lat": 29.8016264, "lng": -95.454342}, "steps": [{"distance": {"text": "95 ft", "value": 29}, "duration": {"text": "1 min", "value": 22}, "end_location": {"lat": 29.8016252, "lng": -95.45463819999999}, "html_instructions": "Head <b>west</b> on <b>W 18th St</b>/<wbr/><b>NW Mall</b>", "polyline": {"points": "es{tDrlreQ?z@"}, "start_location": {"lat": 29.8016264, "lng": -95.454342}, "travel_mode": "WALKING"}, {"distance": {"text": "131 ft", "value": 40}, "duration": {"text": "1 min", "value": 33}, "end_location": {"lat": 29.8019405, "lng": -95.4545788}, "html_instructions": "Turn <b>right</b><div style=\"font-size:0.9em\">Restricted usage road</div>", "maneuver": "turn-right", "polyline": {"points": "es{tDnnreQYEc@E"}, "start_location": {"lat": 29.8016252, "lng": -95.45463819999999}, "travel_mode": "WALKING"}, {"distance": {"text": "95 ft", "value": 29}, "duration": {"text": "1 min", "value": 22}, "end_location": {"lat": 29.8019199, "lng": -95.45428179999999}, "html_instructions": "Turn <b>right</b><div style=\"font-size:0.9em\">Restricted usage road</div><div style=\"font-size:0.9em\">Destination will be on the left</div>", "maneuver": "turn-right", "polyline": {"points": "cu{tDbnreQ?G@Q@a@"}, "start_location": {"lat": 29.8019405, "lng": -95.4545788}, "travel_mode": "WALKING"}], "travel_mode": "WALKING"}], "traffic_speed_entry": [], "via_waypoint": []}], "overview_polyline": {"points": "grwtDhatdQ`EApGC~KMK}M?Wd@OMc@C@HELb@dAdD`BzFvBxI^vCFl@sA@mBJuCH@lB?xGC`R?fMApX@fEJnJBjAb@CfBM`@AL_ADUy@B_AJkALBjABpBFpFHlJJ`JF~O?~DF~EI?@?BjAmBH?C@JkDRiFHuD?mBDoCTsDv@iAL_CJoCHuIDkB@qAJmEN}CBqNLwCJiBRoBJoDBy@?yFDgI@uA?y@Fy@HoAXkAV_ANoDFaTJoD@?G_@?AT@PQ??B?Kt@?fKG|EAt@??zABxHDpEFdG@zBGvAM|DWvCw@tDo@jCe@vCk@fEaA`GWjBUlBs@fGYfCc@jEo@fFc@jDYzBYdCStASbBOlCAbA@~CBfFRb[@fAGrAIpBFfPF~PDnOBhKEbDGvAa@`CYjASfAI`AMzCKjECr@ElB?rBBzHBdK@fDE`BAfA@pC@zCDpBFt@BnA@jDAjCAXShCAhJ@hFAxBOjAEhBFjIJjYZx|@Nb_@J~[@zM@nJB|W@bABZLp@Vp@^l@x@~@hBtBf@j@^f@BJFNf@v@P`@Jr@D\\@h@@bA@|BIpB@f@?~A?bA?tB@hB@pC?zLBdWDvd@@jKA`HDbIA`F?tK?bEDpE@`HG??z@YEc@E?GBs@"}, "summary": "", "warnings": ["Walking directions are in beta. Use caution \u2013 This route may be missing sidewalks or pedestrian paths."], "waypoint_order": []}, {"bounds": {"northeast": {"lat": 29.8041315, "lng": -95.29883199999999}, "southwest": {"lat": 29.7737017, "lng": -95.45463819999999}}, "copyrights": "Map data \u00a92022", "legs": [{"arrival_time": {"text": "4:34pm", "time_zone": "America/Chicago", "value": 1642026897}, "departure_time": {"text": "3:21pm", "time_zone": "America/Chicago", "value": 1642022499}, "distance": {"text": "12.1 mi", "value": 19446}, "duration": {"text": "1 hour 13 mins", "value": 4398}, "end_address": "4400 W 18th St, Houston, TX 77092, USA", "end_location": {"lat": 29.8019199, "lng": -95.45428179999999}, "start_address": "400 Boyles St, Houston, TX 77020, USA", "start_location": {"lat": 29.781, "lng": -95.2989276}, "steps": [{"distance": {"text": "0.5 mi", "value": 800}, "duration": {"text": "10 mins", "value": 589}, "end_location": {"lat": 29.7757527, "lng": -95.3010582}, "html_instructions": "Walk to Lathrop St @ Bonham St", "polyline": {"points": "grwtDhatdQt@AjC?fCAhCAhCGN@vBClCCFpEFtFzBGXA"}, "start_location": {"lat": 29.781, "lng": -95.2989276}, "steps": [{"distance": {"text": "0.3 mi", "value": 492}, "duration": {"text": "6 mins", "value": 363}, "end_location": {"lat": 29.7765809, "lng": -95.29883199999999}, "html_instructions": "Head <b>south</b> on <b>Boyles St</b> toward <b>Laredo St</b>", "polyline": {"points": "grwtDhatdQt@AjC?fCAhCAhCGN@vBClCC"}, "start_location": {"lat": 29.781, "lng": -95.2989276}, "travel_mode": "WALKING"}, {"distance": {"text": "0.1 mi", "value": 224}, "duration": {"text": "3 mins", "value": 162}, "end_location": {"lat": 29.7765042, "lng": -95.3011051}, "html_instructions": "Turn <b>right</b> onto <b>Lyons Ave</b>", "maneuver": "turn-right", "polyline": {"points": "svvtDt`tdQFpEFtF"}, "start_location": {"lat": 29.7765809, "lng": -95.29883199999999}, "travel_mode": "WALKING"}, {"distance": {"text": "276 ft", "value": 84}, "duration": {"text": "1 min", "value": 64}, "end_location": {"lat": 29.7757527, "lng": -95.3010582}, "html_instructions": "Turn <b>left</b> onto <b>Lathrop St</b>", "maneuver": "turn-left", "polyline": {"points": "cvvtD|ntdQzBGXA"}, "start_location": {"lat": 29.7765042, "lng": -95.3011051}, "travel_mode": "WALKING"}], "travel_mode": "WALKING"}, {"distance": {"text": "2.7 mi", "value": 4351}, "duration": {"text": "13 mins", "value": 751}, "end_location": {"lat": 29.774002, "lng": -95.341612}, "html_instructions": "Bus towards Hiram Clarke TC", "polyline": {"points": "mqvtDnntdQ?JY@{BF?P?^?d@@T?`A?b@?hB?hA?XAfB?dBAbB?fA?`@?zB?n@?`@?fB?dA?X?X?~A?b@?~@AhB?jA?V?hB?`B?fB?fB?b@?R?J?b@?d@?h@?B?J@D?j@?`B?r@BxB@~@B`B@rABjAb@CXClAI`@AL_ADUy@Bc@D[DkALBjA@z@@t@?LFbF@P?`@BfDBpC?RFbDBfC?`@@xCBfD?Z@`E?zC?b@DxD@d@BrA?`@Bp@Bz@Bn@DdD@`@?d@@X@~@@|A?\\F~H@\\@pB?~@BnC?^BrC?\\@nA?j@BvB?j@?`ACzAAXCjAElC?L?J@PDVDTHVFP@@Vl@|@rB@@T`@R`@f@`ARd@DH@@Pd@?@JVDHHPDJ?@@@?@@BBFBD@DTh@Rd@N^LX\\~@DJID"}, "start_location": {"lat": 29.775754, "lng": -95.301042}, "transit_details": {"arrival_stop": {"location": {"lat": 29.774002, "lng": -95.341612}, "name": "Lyons Ave @ Jensen Dr"}, "arrival_time": {"text": "3:44pm", "time_zone": "America/Chicago", "value": 1642023840}, "departure_stop": {"location": {"lat": 29.775754, "lng": -95.301042}, "name": "Lathrop St @ Bonham St"}, "departure_time": {"text": "3:31pm", "time_zone": "America/Chicago", "value": 1642023089}, "headsign": "Hiram Clarke TC", "line": {"agencies": [{"name": "Metropolitan Transit Authority of Harris County", "phone": "1 (713) 635-4000", "url": "http://www.ridemetro.org/"}], "color": "#004080", "name": "Almeda / Lyons", "short_name": "11", "text_color": "#ffffff", "url": "https://www.ridemetro.org/MetroPDFs/Schedules/BusSchedules/n011-Almeda-Lyons.pdf", "vehicle": {"icon": "//maps.gstatic.com/mapfiles/transit/iw2/6/bus2.png", "name": "Bus", "type": "BUS"}}, "num_stops": 22, "trip_short_name": "ALMEDALYON"}, "travel_mode": "TRANSIT"}, {"distance": {"text": "131 ft", "value": 40}, "duration": {"text": "1 min", "value": 39}, "end_location": {"lat": 29.7737017, "lng": -95.34175189999999}, "html_instructions": "Walk to Jensen Dr @ Lyons Ave", "polyline": {"points": "mfvtD~k|dQN\\N?X?"}, "start_location": {"lat": 29.7739853, "lng": -95.3416008}, "steps": [{"distance": {"text": "79 ft", "value": 24}, "duration": {"text": "1 min", "value": 17}, "end_location": {"lat": 29.7738256, "lng": -95.3417513}, "html_instructions": "Head <b>southwest</b> on <b>Lyons Ave</b> toward <b>Jensen Dr</b>", "polyline": {"points": "mfvtD~k|dQN\\N?"}, "start_location": {"lat": 29.7739853, "lng": -95.3416008}, "travel_mode": "WALKING"}, {"distance": {"text": "52 ft", "value": 16}, "duration": {"text": "1 min", "value": 22}, "end_location": {"lat": 29.7737017, "lng": -95.34175189999999}, "html_instructions": "Turn <b>left</b> onto <b>Jensen Dr</b>", "maneuver": "turn-left", "polyline": {"points": "mevtD|l|dQX?"}, "start_location": {"lat": 29.7738256, "lng": -95.3417513}, "travel_mode": "WALKING"}], "travel_mode": "WALKING"}, {"distance": {"text": "1.9 mi", "value": 3136}, "duration": {"text": "7 mins", "value": 444}, "end_location": {"lat": 29.801755, "lng": -95.342097}, "html_instructions": "Bus towards Greenspoint TC", "polyline": {"points": "sdvtDvl|dQ?L]?]A{BBy@?w@?_@?i@B]?c@?K?_B@A?O@e@?_@?]?i@?c@?Q?Q?mC@c@?S?cEB[?M@a@?_A?I?E?m@?O?sA?I?uA?q@@I?oB@I?Q?q@?g@?A?E?_@?K?K?M?[?W?Q?U@qB@]?Q@S?{B?C?U?_@?sIDY?{FBc@@eD@U?iGDc@@cDB_FFQ?aA@_A?A?oC@kIDO?wCBgKFK?qA@kB@o@AgBCu@?k@?m@?AS"}, "start_location": {"lat": 29.773704, "lng": -95.34172199999999}, "transit_details": {"arrival_stop": {"location": {"lat": 29.801755, "lng": -95.342097}, "name": "Jensen Dr @ Cavalcade St"}, "arrival_time": {"text": "4:01pm", "time_zone": "America/Chicago", "value": 1642024860}, "departure_stop": {"location": {"lat": 29.773704, "lng": -95.34172199999999}, "name": "Jensen Dr @ Lyons Ave"}, "departure_time": {"text": "3:53pm", "time_zone": "America/Chicago", "value": 1642024416}, "headsign": "Greenspoint TC", "line": {"agencies": [{"name": "Metropolitan Transit Authority of Harris County", "phone": "1 (713) 635-4000", "url": "http://www.ridemetro.org/"}], "color": "#004080", "name": "Jensen / Greens", "short_name": "6", "text_color": "#ffffff", "url": "https://www.ridemetro.org/MetroPDFs/Schedules/BusSchedules/n006-Jensen-Greens.pdf", "vehicle": {"icon": "//maps.gstatic.com/mapfiles/transit/iw2/6/bus2.png", "name": "Bus", "type": "BUS"}}, "num_stops": 14, "trip_short_name": "JENSENGREE"}, "travel_mode": "TRANSIT"}, {"distance": {"text": "207 ft", "value": 63}, "duration": {"text": "1 min", "value": 66}, "end_location": {"lat": 29.8021569, "lng": -95.34201689999999}, "html_instructions": "Walk to Cavalcade St @ Jensen Dr", "polyline": {"points": "}s{tDno|dQi@?M?O?O?D["}, "start_location": {"lat": 29.8017549, "lng": -95.3421599}, "steps": [{"distance": {"text": "148 ft", "value": 45}, "duration": {"text": "1 min", "value": 43}, "end_location": {"lat": 29.8021865, "lng": -95.3421642}, "html_instructions": "Head <b>north</b> on <b>Jensen Dr</b> toward <b>Cavalcade St</b>", "polyline": {"points": "}s{tDno|dQi@?M?O?O?"}, "start_location": {"lat": 29.8017549, "lng": -95.3421599}, "travel_mode": "WALKING"}, {"distance": {"text": "59 ft", "value": 18}, "duration": {"text": "1 min", "value": 23}, "end_location": {"lat": 29.8021569, "lng": -95.34201689999999}, "html_instructions": "Turn <b>right</b> onto <b>Cavalcade St</b>", "maneuver": "turn-right", "polyline": {"points": "uv{tDno|dQD["}, "start_location": {"lat": 29.8021865, "lng": -95.3421642}, "travel_mode": "WALKING"}], "travel_mode": "WALKING"}, {"distance": {"text": "6.8 mi", "value": 10958}, "duration": {"text": "26 mins", "value": 1569}, "end_location": {"lat": 29.80163, "lng": -95.454342}, "html_instructions": "Bus towards Memorial City", "polyline": {"points": "qv{tDpn|dQHBGb@K~@AHW|Bc@jEo@fFWlBK|@EVSbBQpAGr@Mp@Eb@CNOrAKdBCf@?HAx@?xB@d@@j@?pA@nA?X@dB?T@fAB~D@bD@ZBbEBzB@fAGrAAXGvA@vD@xC@^@tD@x@?V?v@?l@?\\BpD@nB?fA@jA?tA?T?\\?lA@nA?tA@dA?Z@bA?pB@vDAlBAV?LANAT?RAXCR?@CXQ|@Kf@Sz@ENOr@CRE\\Cb@KfCARCpAAv@AXCf@?DAT?LAHCfAAd@?D?lB?h@?VBjC?lB?x@@z@@fB?fD@fDE`BA|@?HA\\@V?lA@L?\\?x@?V@j@@t@?L?JB`@@T@NBN@N@V?f@@f@?`A?r@?L?xBAP?JALAPANIbAEb@?TAR?V?fH?p@@vD@xAC^C^CRA@ETC\\Af@?P?P?LA`@@\\BpA?^@j@?H@tA?n@?b@@b@?X?P?V@`A?v@@dA?V?vA@T?lB@jB@tA?XB|E?~A@zB@nB?V?V@t@?L?R?L@R?N?f@?h@@|@?\\?d@?b@@n@?pA@|B?d@?`@@t@?T?pA@v@@rA?v@@bD@~@?nA@H?tB@^@dC?P?j@@x@?x@?t@@P?dA@|A?\\?^@dC@zB?xA?N@V?fA@`ABfE?tABtJ?pB@rA?r@?H?|@?jB?@?j@@h@AL?\\?J@f@?|B?h@?|@?n@?N?|G?J@tE?d@@dC?p@AL@J?V@P@H?B?D@F@HBH@JDPDLDLDHDJDJHLFHFHLL?@TVTVn@v@NRh@h@NPVX^f@BJBFBFf@v@P`@DZDVBT@F?D@F?H?P@P?X?N?F?j@@pAIpB@f@?V?fA?j@?V@h@AjA?h@@~@?b@@^Af@@d@?X?bA?jA?b@@nC?J?d@Aj@?v@?P@dB?jA?bC?`A?\\@dH?`D?dC@fE?jD?T@`F@vB?jD?vC?X?`E@V@zCAb@?fAAX@fB@fA?T@|B?l@A~A?x@?XAzB?`A?dB?l@?P?F?H@^?Z?@?H?@?Z?h@?f@?j@?^?t@@j@BnAAV@|@@fB?bBG?"}, "start_location": {"lat": 29.802168, "lng": -95.34201399999999}, "transit_details": {"arrival_stop": {"location": {"lat": 29.80163, "lng": -95.454342}, "name": "W 18th St @ Northwest Fwy"}, "arrival_time": {"text": "4:33pm", "time_zone": "America/Chicago", "value": 1642026820}, "departure_stop": {"location": {"lat": 29.802168, "lng": -95.34201399999999}, "name": "Cavalcade St @ Jensen Dr"}, "departure_time": {"text": "4:07pm", "time_zone": "America/Chicago", "value": 1642025251}, "headsign": "Memorial City", "line": {"agencies": [{"name": "Metropolitan Transit Authority of Harris County", "phone": "1 (713) 635-4000", "url": "http://www.ridemetro.org/"}], "color": "#004080", "name": "Long Point / Cavalcade", "short_name": "26", "text_color": "#ffffff", "url": "https://www.ridemetro.org/MetroPDFs/Schedules/BusSchedules/n026-Long-Point-Cavalcade.pdf", "vehicle": {"icon": "//maps.gstatic.com/mapfiles/transit/iw2/6/bus2.png", "name": "Bus", "type": "BUS"}}, "num_stops": 41, "trip_short_name": "LONGPOINT"}, "travel_mode": "TRANSIT"}, {"distance": {"text": "322 ft", "value": 98}, "duration": {"text": "1 min", "value": 77}, "end_location": {"lat": 29.8019199, "lng": -95.45428179999999}, "html_instructions": "Walk to 4400 W 18th St, Houston, TX 77092, USA", "polyline": {"points": "es{tDrlreQ?z@YEc@E?G@Q@a@"}, "start_location": {"lat": 29.8016264, "lng": -95.454342}, "steps": [{"distance": {"text": "95 ft", "value": 29}, "duration": {"text": "1 min", "value": 22}, "end_location": {"lat": 29.8016252, "lng": -95.45463819999999}, "html_instructions": "Head <b>west</b> on <b>W 18th St</b>/<wbr/><b>NW Mall</b>", "polyline": {"points": "es{tDrlreQ?z@"}, "start_location": {"lat": 29.8016264, "lng": -95.454342}, "travel_mode": "WALKING"}, {"distance": {"text": "131 ft", "value": 40}, "duration": {"text": "1 min", "value": 33}, "end_location": {"lat": 29.8019405, "lng": -95.4545788}, "html_instructions": "Turn <b>right</b><div style=\"font-size:0.9em\">Restricted usage road</div>", "maneuver": "turn-right", "polyline": {"points": "es{tDnnreQYEc@E"}, "start_location": {"lat": 29.8016252, "lng": -95.45463819999999}, "travel_mode": "WALKING"}, {"distance": {"text": "95 ft", "value": 29}, "duration": {"text": "1 min", "value": 22}, "end_location": {"lat": 29.8019199, "lng": -95.45428179999999}, "html_instructions": "Turn <b>right</b><div style=\"font-size:0.9em\">Restricted usage road</div><div style=\"font-size:0.9em\">Destination will be on the left</div>", "maneuver": "turn-right", "polyline": {"points": "cu{tDbnreQ?G@Q@a@"}, "start_location": {"lat": 29.8019405, "lng": -95.4545788}, "travel_mode": "WALKING"}], "travel_mode": "WALKING"}], "traffic_speed_entry": [], "via_waypoint": []}], "overview_polyline": {"points": "grwtDhatdQ`EApGC~KMNfMtCI?C?JuCH@lB?xGC`RAta@?bD@fEJnJBjAb@CfBM`@AL_ADUy@B_AJkALBjABpBFpFHlJJ`JF~O?~DF~EJbFJ|GPdVL`SC|CEdBEzC@\\Jl@Ph@xAdDdBjDXr@b@dArA`Db@jAID@AN\\N?X??E?L]?yC@{DBeGBuI@mKDyJBkD?kGDsXHc\\Voc@TyF@wFCAS@Jw@?_@?B]HBGb@MhA{@hIgAtIw@jG_@xCOrAKdBCp@ArDBpAB`HF`MJbLIlBGvA@vDBxDBnF?zCFlSBfG@tD?dHEjAEbAUvA_@bBUbAIp@OjDEdBG~BGtBAbEH~XIfEBpCBrDDpAFn@BfB?|FE|@QlCAdKBpGG~@OhAAxABpDDnHPhf@Xnt@Lv]Ht]@bH@dX?jFD~@BZPt@Vn@f@n@dDxDv@`AFRj@~@V|@Jz@Bt@?|A@pAIpB@~@@tDAtB@bB@fC@bI?|MBv`@BxI?bIBnKAlFBhGCnH?fF@vBBfJBdD?bBG??z@}@KB{@"}, "summary": "", "warnings": ["Walking directions are in beta. Use caution \u2013 This route may be missing sidewalks or pedestrian paths."], "waypoint_order": []}, {"bounds": {"northeast": {"lat": 29.8026444, "lng": -95.29882119999999}, "southwest": {"lat": 29.7575968, "lng": -95.4593211}}, "copyrights": "Map data \u00a92022", "legs": [{"arrival_time": {"text": "4:35pm", "time_zone": "America/Chicago", "value": 1642026935}, "departure_time": {"text": "3:05pm", "time_zone": "America/Chicago", "value": 1642021539}, "distance": {"text": "15.5 mi", "value": 24894}, "duration": {"text": "1 hour 30 mins", "value": 5396}, "end_address": "4400 W 18th St, Houston, TX 77092, USA", "end_location": {"lat": 29.8019199, "lng": -95.45428179999999}, "start_address": "400 Boyles St, Houston, TX 77020, USA", "start_location": {"lat": 29.781, "lng": -95.2989276}, "steps": [{"distance": {"text": "0.7 mi", "value": 1114}, "duration": {"text": "14 mins", "value": 860}, "end_location": {"lat": 29.7728435, "lng": -95.30159359999999}, "html_instructions": "Walk to Market St @ Lathrop St", "polyline": {"points": "grwtDhatdQt@AjC?fCAhCAhCGN@vBClCC\\?`@?dAA`A?Z?XlAJ^R|@XhAV~AHt@Bd@BN@P@PN?\\?P?D?\\@@?R?v@?N?X?dB?`AA@bA"}, "start_location": {"lat": 29.781, "lng": -95.2989276}, "steps": [{"distance": {"text": "0.4 mi", "value": 623}, "duration": {"text": "8 mins", "value": 461}, "end_location": {"lat": 29.7754411, "lng": -95.29882119999999}, "html_instructions": "Head <b>south</b> on <b>Boyles St</b> toward <b>Laredo St</b>", "polyline": {"points": "grwtDhatdQt@AjC?fCAhCAhCGN@vBClCC\\?`@?dAA`A?Z?"}, "start_location": {"lat": 29.781, "lng": -95.2989276}, "travel_mode": "WALKING"}, {"distance": {"text": "0.2 mi", "value": 242}, "duration": {"text": "3 mins", "value": 188}, "end_location": {"lat": 29.7747137, "lng": -95.3012469}, "html_instructions": "Turn <b>right</b> onto <b>East Fwy</b>/<wbr/><b>E Freeway Service Rd</b>", "maneuver": "turn-right", "polyline": {"points": "oovtDr`tdQXlAJ^R|@XhAV~AHt@Bd@BN@P@PN?"}, "start_location": {"lat": 29.7754411, "lng": -95.29882119999999}, "travel_mode": "WALKING"}, {"distance": {"text": "0.1 mi", "value": 212}, "duration": {"text": "3 mins", "value": 185}, "end_location": {"lat": 29.772845, "lng": -95.3012504}, "html_instructions": "Turn <b>left</b> onto <b>Lathrop St</b>", "maneuver": "turn-left", "polyline": {"points": "}jvtDxotdQ\\?P?D?\\@@?R?v@?N?X?dB?`AA"}, "start_location": {"lat": 29.7747137, "lng": -95.3012469}, "travel_mode": "WALKING"}, {"distance": {"text": "121 ft", "value": 37}, "duration": {"text": "1 min", "value": 26}, "end_location": {"lat": 29.7728435, "lng": -95.30159359999999}, "html_instructions": "Turn <b>right</b> onto <b>Market St</b><div style=\"font-size:0.9em\">Destination will be on the right</div>", "maneuver": "turn-right", "polyline": {"points": "i_vtDxotdQ@bA"}, "start_location": {"lat": 29.772845, "lng": -95.3012504}, "travel_mode": "WALKING"}], "travel_mode": "WALKING"}, {"distance": {"text": "6.5 mi", "value": 10508}, "duration": {"text": "32 mins", "value": 1907}, "end_location": {"lat": 29.765169, "lng": -95.365017}, "html_instructions": "Bus towards Downtown", "polyline": {"points": "u_vtD|qtdQL??~BAtD?VAjE?xD?PAnE@jD?Z?X?~A?dBAtD?VAjE?pD?X?bA?|@?h@?X?FA@?J?V?D@T@P@DF\\Nn@BJFX?bD?dB?h@[C}@?C?c@BeADa@?Q?c@@E?G?U@O?I?m@?u@@W@E?m@@G`@Kr@XAP?T?PA`A?l@CH?N?TAF?x@Cb@?b@?dDC@vG?~AzAAtA?\\?tA?^?pB?P?vA?T?@xAjHCx@?@?@@@??@@@?B@R@pD?@@xE@hD?D?V?B?TARCZOlA?N@`G@XiC@mB@Y?iC@e@?s@?[?EAOADhD?J?d@?Z?F?LAJAFEJAjH?PiAAg@As@AkABU?i@?Q?y@?A?e@?G?c@?OAO?aA?wABQ?_@?]?WAI?W?u@?]?aB@_BA?`@Bp@Bz@Bn@DdD@`@?d@@X@~@@zBz@ApAA~BA`@@L?NBPDJDB@RF@?TDH?P?lB?t@AdAAHfBBb@@dC?f@?rBAj@?P@`AAfB?R?hB?X?xCBjE?BDj@dACfB?v@AB?P?zBAn@?lAAD?dBCFXBP@NBX@P?D@H?J@hC?n@?@?T@V?jC?j@?fA?f@?FCh@AJAHGPFF@@TDLAj@?PAH?F?N?F?JAB?^Ax@nGd@lDF^\\pBPv@Dt@|@AR?b@?N?rBCL?j@?F?XAt@Bp@?rA?J?b@AV?x@Ax@?jA?nB@T?`@@PDND^J`@Nh@Rd@RTHJB@@XLb@R^TDBVN\\Xb@Zr@f@r@h@PLTP@FDLTNLHBBPLNPLPLRHPZvAGJCHKTKT?BAB?FS^Yf@s@pA[n@y@`BEJIPCFOVKROTMTMTM\\QLEBEDS^?@CFe@dAQZe@p@GHOTMPCDMRA@GHINGHEFCBKP^JjCf@D?D@NBfB\\NBNBZFD@XJB?j@V\\Tn@Vx@n@\\VXRfAt@PLJFn@b@hAz@hAz@m@nAc@z@ABQ\\y@`Be@|@CFw@zAKREJKPO\\U`@KPSb@OVe@~@o@nAe@~@MTw@zAGJa@x@GHqAnCQ^OXs@tACH]l@MT}@`BQXINABEFABCFWf@k@lA_@r@ADOXA@EJOZKR]n@OZa@v@MVs@xAa@v@k@dAINIJGHA@A@GJGDC@C@C@E?M?C?Q?M?ICIEAAEGC\\SdBGd@UE"}, "start_location": {"lat": 29.772911, "lng": -95.301594}, "transit_details": {"arrival_stop": {"location": {"lat": 29.765169, "lng": -95.365017}, "name": "Franklin St @ Congress St"}, "arrival_time": {"text": "3:51pm", "time_zone": "America/Chicago", "value": 1642024307}, "departure_stop": {"location": {"lat": 29.772911, "lng": -95.301594}, "name": "Market St @ Lathrop St"}, "departure_time": {"text": "3:20pm", "time_zone": "America/Chicago", "value": 1642022400}, "headsign": "Downtown", "line": {"agencies": [{"name": "Metropolitan Transit Authority of Harris County", "phone": "1 (713) 635-4000", "url": "http://www.ridemetro.org/"}], "color": "#004080", "name": "Market", "short_name": "48", "text_color": "#ffffff", "url": "https://www.ridemetro.org/MetroPDFs/Schedules/BusSchedules/n048-Market.pdf", "vehicle": {"icon": "//maps.gstatic.com/mapfiles/transit/iw2/6/bus2.png", "name": "Bus", "type": "BUS"}}, "num_stops": 51, "trip_short_name": "MARKET"}, "travel_mode": "TRANSIT"}, {"distance": {"text": "7.8 mi", "value": 12534}, "duration": {"text": "30 mins", "value": 1780}, "end_location": {"lat": 29.801027, "lng": -95.45922999999999}, "html_instructions": "Bus towards SH 249", "polyline": {"points": "iottDj~`eQTDE^O`A?BM|@M|@EZOjAALGX?@?@CJALGl@?@A@?BAHAJAHShAETCJEPCHCLGVWdAKXQh@O`@GTGLS^IPS\\AB}@~AGFADABMv@EV?@OfAOnAEXAPGd@Gn@?XGrACb@Cr@Ev@ALEp@AVEv@ALGrAEt@G~@?BGdAATGlACj@ItACb@AT?TAFG`AATCb@GzAGtAMfCANGfA?DKtBAHMfCEbAANALCr@AVAr@Al@?d@CrAAx@Cx@?NCzBAJAz@Cv@GnAQvCEz@EbAM~B?HAp@C|@GjCCj@MtFGHAB?BALCb@Af@?R?TA`@A`@ARGt@AVGp@AXGz@KtBCZ?B?@@D?B@D@FGlACd@A`@GtACZA\\KfBG|@Ez@C`@C\\A`@El@El@Cb@CZCf@Cd@AREp@APIzACXANATALANAHC\\AZATC\\A`@IbBEp@ALCp@GfAG~@G~@Cj@AXCVAL?BCd@AL?NCl@Cd@El@Ab@Ev@ANMxCCXAXAXQtCCl@?z@@dA?|A@d@?~B@d@?N?zA?P?N@d@?b@?X?\\?^?X?N?j@?b@@`@?t@@j@?j@?N@`@?z@@dC?V@h@?RARAr@AJ?NAP?RCZAV?FCxA?XExACpAClACnAAj@CvAC|@?NA`@Ab@GxAAVIhAI|BEf@KnDEv@Cv@EpAGlACz@?DA`@APCvAAPCDABCHC`AAPAF@JC@A@A@A@A@A@?@CBc@FKDG@C?IBC@C@C@C@A@EBMLwAlAc@\\sAhA_Av@MJa@^sBbB_Av@QLq@h@IHKHOLw@p@w@n@]Z_@ZSPGFIFaAz@EBe@b@QRUVY\\q@~@s@`AOPGF?@o@v@?@CB}@hAQPKNYd@c@|@ILg@bAU`@IPA@S`@g@bAw@zAq@rA}AxCkA|Bc@v@IPYh@Uf@IP?`@?DCHI\\I`@I`@CVATARA^?\\Ar@?^@`@@@?b@?@@^@hB?f@?XCjA?D?XCXCZEVId@Ot@Ot@GVUfAAD{@`E?@Mj@?@K^[|AMn@Sx@On@I`@I^[xAGZMn@Mh@Kf@Qx@Qr@_@rBg@`DKl@Gd@CXMdA?BALGj@CXCVCXE`@IfAMzBE|AAr@AXC?Ar@CbDAjCCpF@l@@v@AzG~@@X?V?Z^?r@Ap@?bAAtA?R?d@?XEAw@B?u@@S?_@AcA@cA@w@@k@ZA^@DA`AAN??H?P?f@?j@?l@?d@JCF@D?DABA@CDIDSB[@g@BUBM@AN]FGJY@K?MCUCKCCA?OGQAGAE?E@GDQJOPMD[BY@W?aAAY@c@?AVAzAAb@?f@?L?ZAn@?`B?R?f@sBNO@Q@Y?W?K@wA@y@@K?u@?wA@U?O?}@@I?Y?_@?_@@oA@oD@eABM?A?a@?c@?qA@W?w@?cA@s@?c@@_@?uA@a@?OAY?q@@c@?_@?[@cA@a@?U?G?C?E?]@S?S@]@c@?}@@M?w@@]?mA@_B@W?E?e@Aa@EQEWG[OUM[QIG_@Ui@i@e@_@OQQQOMCCc@a@MR{A|BU\\W`@sBtCg@z@a@L{@vA]b@Sd@w@lAYh@OQ"}, "start_location": {"lat": 29.765169, "lng": -95.365017}, "transit_details": {"arrival_stop": {"location": {"lat": 29.801027, "lng": -95.45922999999999}, "name": "Hempstead Rd @ W 18th St"}, "arrival_time": {"text": "4:25pm", "time_zone": "America/Chicago", "value": 1642026348}, "departure_stop": {"location": {"lat": 29.765169, "lng": -95.365017}, "name": "Franklin St @ Congress St"}, "departure_time": {"text": "3:56pm", "time_zone": "America/Chicago", "value": 1642024568}, "headsign": "SH 249", "line": {"agencies": [{"name": "Metropolitan Transit Authority of Harris County", "phone": "1 (713) 635-4000", "url": "http://www.ridemetro.org/"}], "color": "#004080", "name": "Antoine / Washington", "short_name": "85", "text_color": "#ffffff", "url": "https://www.ridemetro.org/MetroPDFs/Schedules/BusSchedules/n085-Antoine-Washington.pdf", "vehicle": {"icon": "//maps.gstatic.com/mapfiles/transit/iw2/6/bus2.png", "name": "Bus", "type": "BUS"}}, "num_stops": 42, "trip_short_name": "ANTOINWAS"}, "travel_mode": "TRANSIT"}, {"distance": {"text": "0.5 mi", "value": 738}, "duration": {"text": "10 mins", "value": 587}, "end_location": {"lat": 29.8019199, "lng": -95.45428179999999}, "html_instructions": "Walk to 4400 W 18th St, Houston, TX 77092, USA", "polyline": {"points": "mo{tDdkseQKPKKKAK?I@IB?Q?aA?M?QAO?OM?M@M?mED@[Ae@?g@ASDKP]d@}@Xq@B]QOIIOMEKKAQUGGEIAE?C?A@C@EBEV_@KMNWHMJSRa@Ts@R}@Jy@Hy@?G@Q@a@"}, "start_location": {"lat": 29.8010254, "lng": -95.4592253}, "steps": [{"distance": {"text": "49 ft", "value": 15}, "duration": {"text": "1 min", "value": 11}, "end_location": {"lat": 29.8011512, "lng": -95.4592626}, "html_instructions": "Head <b>northwest</b>", "polyline": {"points": "mo{tDdkseQKPKK"}, "start_location": {"lat": 29.8010254, "lng": -95.4592253}, "travel_mode": "WALKING"}, {"distance": {"text": "102 ft", "value": 31}, "duration": {"text": "1 min", "value": 23}, "end_location": {"lat": 29.8013705, "lng": -95.4592806}, "html_instructions": "Turn <b>right</b> toward <b>W 18th St</b>", "maneuver": "turn-right", "polyline": {"points": "ep{tDjkseQKAK?I@IB"}, "start_location": {"lat": 29.8011512, "lng": -95.4592626}, "travel_mode": "WALKING"}, {"distance": {"text": "240 ft", "value": 73}, "duration": {"text": "1 min", "value": 61}, "end_location": {"lat": 29.8014508, "lng": -95.4585436}, "html_instructions": "Turn <b>right</b> onto <b>W 18th St</b>", "maneuver": "turn-right", "polyline": {"points": "qq{tDnkseQ?Q?aA?M?QAO?OM?"}, "start_location": {"lat": 29.8013705, "lng": -95.4592806}, "travel_mode": "WALKING"}, {"distance": {"text": "440 ft", "value": 134}, "duration": {"text": "2 mins", "value": 127}, "end_location": {"lat": 29.80261729999999, "lng": -95.45858140000001}, "html_instructions": "Turn <b>left</b> onto <b>Mangum Rd</b>", "maneuver": "turn-left", "polyline": {"points": "ar{tDzfseQM@M?mED"}, "start_location": {"lat": 29.8014508, "lng": -95.4585436}, "travel_mode": "WALKING"}, {"distance": {"text": "0.1 mi", "value": 168}, "duration": {"text": "2 mins", "value": 133}, "end_location": {"lat": 29.8021725, "lng": -95.45703209999999}, "html_instructions": "Turn <b>right</b>", "maneuver": "turn-right", "polyline": {"points": "ky{tDbgseQ@[Ae@?g@ASDKP]d@}@Xq@B]"}, "start_location": {"lat": 29.80261729999999, "lng": -95.45858140000001}, "travel_mode": "WALKING"}, {"distance": {"text": "348 ft", "value": 106}, "duration": {"text": "1 min", "value": 80}, "end_location": {"lat": 29.8024852, "lng": -95.4562641}, "html_instructions": "Turn <b>left</b><div style=\"font-size:0.9em\">Partial restricted usage road</div>", "maneuver": "turn-left", "polyline": {"points": "qv{tDl}reQQOIIOMEKKAQUGGEIAE?C?A@C@EBEV_@"}, "start_location": {"lat": 29.8021725, "lng": -95.45703209999999}, "travel_mode": "WALKING"}, {"distance": {"text": "33 ft", "value": 10}, "duration": {"text": "1 min", "value": 8}, "end_location": {"lat": 29.8025494, "lng": -95.456192}, "html_instructions": "Turn <b>left</b><div style=\"font-size:0.9em\">Restricted usage road</div>", "maneuver": "turn-left", "polyline": {"points": "qx{tDrxreQKM"}, "start_location": {"lat": 29.8024852, "lng": -95.4562641}, "travel_mode": "WALKING"}, {"distance": {"text": "0.1 mi", "value": 201}, "duration": {"text": "2 mins", "value": 144}, "end_location": {"lat": 29.8019199, "lng": -95.45428179999999}, "html_instructions": "Turn <b>right</b><div style=\"font-size:0.9em\">Restricted usage road</div><div style=\"font-size:0.9em\">Destination will be on the left</div>", "maneuver": "turn-right", "polyline": {"points": "}x{tDdxreQNWHMJSRa@Ts@R}@Jy@Hy@?G@Q@a@"}, "start_location": {"lat": 29.8025494, "lng": -95.456192}, "travel_mode": "WALKING"}], "travel_mode": "WALKING"}], "traffic_speed_entry": [], "via_waypoint": []}], "overview_polyline": {"points": "grwtDhatdQ`EApGC~KMfEAZ?XlA^|AXhAV~ALzAD`@@PN?n@?b@@|A?~B?`AA@bAM?L?AtHAnL?pLCnZAtDBf@Hb@Rz@FX?bD?nCyACoCHsBBaCBm@@G`@Kr@XAf@?rAA|AEdBChEC@vJdHAzF?T?@xAdJCDBDjEBjKAdAShB@pG@XiC@gC@_G@UCDtD?vACREJAjH?PiAA{AC}CBaB?wF@_BAmE@_BA?`@FlBJ|GBxA@zBz@ApECn@@`@HNFTF^D~B?zBCLjC@lD?rFA~FBdJDn@hFEjGCjBCJj@F`ABnE@~IEt@IZFFVFtACj@Ab@A~A|Ld@pCPv@Dt@pAAr@?tDCnA@dC?`CCjG@r@Fn@PfC`AjAf@d@Xt@h@|CzBTP@FDLTNPL`@^Zd@d@hBc@`AAFSf@mAxBuApCc@|@w@tAM\\QLKH}@nBaBdCo@`AOT^JjCf@J@vB`@z@NnAd@\\Tn@VvAfA~B~AxB~AhAz@m@nAe@~@kA~BmBtDw@|AqFnK}ExJoC~EqI|Pu@tAQTSTQDq@?SIGIWbCGd@UETDE^OdAq@bFOdAOtAc@|Bg@tBu@zBy@|AiApBUtAg@bEGd@Gn@?XKvBIjBOnCi@dK_@pHa@|IUrEWdFIlCQrLErBYfFYhGQfHMtFGHAFGlBElBk@jJBPEtAEfAYvFUxD_@~G]|FgAtSgA`UCl@?z@@bDBzE@~GFfSKpD[`QGrC]xHm@hPI|CEHGjAEf@GFABg@Ja@JOFmB`BeEjDuCbCqAdAwAjAmDxCgB|Ak@f@g@j@oCpDw@bAsA~AsA`CoFnKwE`Jo@pAIP?`@CNS~@Mx@Ch@CpCBhABjEGdCIr@YzAo@zCsCxMoBhJc@lBgAtGe@rDe@rFSxEClAC?Ar@EnHA~G?rIxA@V?Z^AdBAxC?x@?XEAw@B?u@@s@?gCBcBz@?fACN??H?x@?xA?d@JCL@HCFMHo@D}@DOVe@Le@Cc@GOQGYCK@YPOPMDu@DwC?E~DAzD?z@cCPoABoKFcB@sIFaJB{HBiEBkGHcFBk@As@Ks@Wq@_@i@]oAiAu@u@c@a@MRqBzCkCvDg@z@a@L{@vA]b@Sd@w@lAYh@OQKPKKKAU@IB?Q?oAAa@?OM?[@mED@[AmAB_@v@{AXq@B][YUYKAQUMQ?ODKV_@KMXe@^u@Ts@^wBHaABs@"}, "summary": "", "warnings": ["Walking directions are in beta. Use caution \u2013 This route may be missing sidewalks or pedestrian paths."], "waypoint_order": []}, {"bounds": {"northeast": {"lat": 29.8026484, "lng": -95.29882119999999}, "southwest": {"lat": 29.7575968, "lng": -95.4593211}}, "copyrights": "Map data \u00a92022", "legs": [{"arrival_time": {"text": "4:35pm", "time_zone": "America/Chicago", "value": 1642026935}, "departure_time": {"text": "3:02pm", "time_zone": "America/Chicago", "value": 1642021349}, "distance": {"text": "14.1 mi", "value": 22675}, "duration": {"text": "1 hour 33 mins", "value": 5586}, "end_address": "4400 W 18th St, Houston, TX 77092, USA", "end_location": {"lat": 29.8019199, "lng": -95.45428179999999}, "start_address": "400 Boyles St, Houston, TX 77020, USA", "start_location": {"lat": 29.781, "lng": -95.2989276}, "steps": [{"distance": {"text": "0.7 mi", "value": 1077}, "duration": {"text": "14 mins", "value": 816}, "end_location": {"lat": 29.7727217, "lng": -95.3010328}, "html_instructions": "Walk to Lathrop St @ Market St", "polyline": {"points": "grwtDhatdQt@AjC?fCAhCAhCGN@vBClCC\\?`@?dAA`A?Z?XlAJ^R|@XhAV~AHt@Bd@N?^?T@N?P?P?`A@L?X@V?pC?V@"}, "start_location": {"lat": 29.781, "lng": -95.2989276}, "steps": [{"distance": {"text": "0.4 mi", "value": 623}, "duration": {"text": "8 mins", "value": 461}, "end_location": {"lat": 29.7754411, "lng": -95.29882119999999}, "html_instructions": "Head <b>south</b> on <b>Boyles St</b> toward <b>Laredo St</b>", "polyline": {"points": "grwtDhatdQt@AjC?fCAhCAhCGN@vBClCC\\?`@?dAA`A?Z?"}, "start_location": {"lat": 29.781, "lng": -95.2989276}, "travel_mode": "WALKING"}, {"distance": {"text": "0.1 mi", "value": 225}, "duration": {"text": "3 mins", "value": 166}, "end_location": {"lat": 29.7747534, "lng": -95.3009905}, "html_instructions": "Turn <b>right</b> onto <b>East Fwy</b>/<wbr/><b>E Freeway Service Rd</b>", "maneuver": "turn-right", "polyline": {"points": "oovtDr`tdQXlAJ^R|@XhAV~AHt@Bd@N?"}, "start_location": {"lat": 29.7754411, "lng": -95.29882119999999}, "travel_mode": "WALKING"}, {"distance": {"text": "0.1 mi", "value": 229}, "duration": {"text": "3 mins", "value": 189}, "end_location": {"lat": 29.7727217, "lng": -95.3010328}, "html_instructions": "Turn <b>left</b> onto <b>Lathrop St</b>", "maneuver": "turn-left", "polyline": {"points": "ekvtDdntdQ^?T@N?P?P?`A@L?X@V?pC?V@"}, "start_location": {"lat": 29.7747534, "lng": -95.3009905}, "travel_mode": "WALKING"}], "travel_mode": "WALKING"}, {"distance": {"text": "1.1 mi", "value": 1699}, "duration": {"text": "4 mins", "value": 252}, "end_location": {"lat": 29.77535, "lng": -95.31537499999999}, "html_instructions": "Bus towards Denver Harbor TC", "polyline": {"points": "o~utDfntdQ?LWAqC?W?a@?gAAQAQ?M?E?Q?e@AB`@JvADpB?dBAhB?`B?fB?fB?dB?bB?jA?\\AvB?pA?b@?f@An@JfB@JBLD`@@XBT@X@T@B@X?L@N@d@@F@fA?B?P@`B?FBJLj@?lEC~BQb@ATAXGrAE^Ep@CTAVANAZAN?@?f@?h@?p@u@@W@E?m@@G`@?A"}, "start_location": {"lat": 29.772719, "lng": -95.300997}, "transit_details": {"arrival_stop": {"location": {"lat": 29.77535, "lng": -95.31537499999999}, "name": "Fifth Ward/Denver Harbor Transit Center"}, "arrival_time": {"text": "3:21pm", "time_zone": "America/Chicago", "value": 1642022460}, "departure_stop": {"location": {"lat": 29.772719, "lng": -95.300997}, "name": "Lathrop St @ Market St"}, "departure_time": {"text": "3:16pm", "time_zone": "America/Chicago", "value": 1642022208}, "headsign": "Denver Harbor TC", "line": {"agencies": [{"name": "Metropolitan Transit Authority of Harris County", "phone": "1 (713) 635-4000", "url": "http://www.ridemetro.org/"}], "color": "#004080", "name": "Ost - Wayside", "short_name": "28", "text_color": "#ffffff", "url": "https://www.ridemetro.org/MetroPDFs/Schedules/BusSchedules/n028-OST-Wayside.pdf", "vehicle": {"icon": "//maps.gstatic.com/mapfiles/transit/iw2/6/bus2.png", "name": "Bus", "type": "BUS"}}, "num_stops": 2, "trip_short_name": "OSTWAYSIDE"}, "travel_mode": "TRANSIT"}, {"distance": {"text": "3.5 mi", "value": 5652}, "duration": {"text": "13 mins", "value": 750}, "end_location": {"lat": 29.7596482, "lng": -95.3616397}, "html_instructions": "Bus towards Downtown", "polyline": {"points": "}nvtD`hwdQ?@Kr@XAP?T?PA`A?@n@?n@?jAAzA?V?d@?p@?LHB?NB^@P?N?T@T?r@?bA?L@\\?N@~@?B@V?j@@J?P?H@b@?B@Z@H?T?T@z@@T?D@DPb@@f@@`@@ZB`@B\\Fp@B^F^Jr@F\\Nz@Nv@Lh@T~@Pp@FTFTLd@Tt@~@bDFRFRJ\\BD@FDLBJBJ@Db@vAV|@T`A`@rAb@`BNf@@JjA|DhBpGHXDPN^J\\Jh@j@pBj@jB^tAV`Aj@nB^tAFLFRPl@DPDLHZFVH\\FXDXAD@JDXJxAFpABpA?FBrCDH@D@F@F@H?R?Z?^?f@@h@?f@?j@@Z?H?^AP?Z@j@?N?XBx@@^Dv@@T@DAH@VBr@BZDd@H|@DVFd@Lr@Jn@Pt@VhA@B\\tARv@Vx@Rp@Ph@FTd@rAj@dBBFN^Pd@P`@HPJPR\\NVLTR^TZ^f@j@n@f@f@b@\\b@\\JFl@`@B@@@^RPLVNF@TLNFb@Pb@LPH\\H@@D@VFtAV|ARRJt@Ld@JXDB@`AP@?`@F@?^HD@h@Hf@HPBf@BJBv@R@?RFJD@?^N?@RHLHf@Zb@f@x@n@\\VXRfAt@PLJFn@b@hAz@h@^^Zm@nAc@z@S`@y@`B]n@GLCFw@zAQ^KPO\\U`@KPSb@OVYj@KRo@nAs@tAw@zAGJ[l@EJGHcBnDOXs@tACH]l@vB~AVRJHbAt@dAx@~B`BKR"}, "start_location": {"lat": 29.77535, "lng": -95.31537499999999}, "transit_details": {"arrival_stop": {"location": {"lat": 29.7596482, "lng": -95.3616397}, "name": "Fannin St @ Texas Ave"}, "arrival_time": {"text": "3:42pm", "time_zone": "America/Chicago", "value": 1642023750}, "departure_stop": {"location": {"lat": 29.77535, "lng": -95.31537499999999}, "name": "Fifth Ward/Denver Harbor Transit Center"}, "departure_time": {"text": "3:30pm", "time_zone": "America/Chicago", "value": 1642023000}, "headsign": "Downtown", "line": {"agencies": [{"name": "Metropolitan Transit Authority of Harris County", "phone": "1 (713) 635-4000", "url": "http://www.ridemetro.org/"}], "color": "#004080", "name": "Northshore Express", "short_name": "137", "text_color": "#ffffff", "url": "https://www.ridemetro.org/MetroPDFs/Schedules/BusSchedules/n137-Northshore-Express.pdf", "vehicle": {"icon": "//maps.gstatic.com/mapfiles/transit/iw2/6/bus2.png", "name": "Bus", "type": "BUS"}}, "num_stops": 6, "trip_short_name": "NORTHSHO"}, "travel_mode": "TRANSIT"}, {"distance": {"text": "0.3 mi", "value": 509}, "duration": {"text": "6 mins", "value": 384}, "end_location": {"lat": 29.7621626, "lng": -95.36456489999999}, "html_instructions": "Walk to Louisiana St @ Prairie St", "polyline": {"points": "qlstDzh`eQyB_Bm@lAWf@Sb@GNCBIP{@bBGHU`@GLOVqAdCGL}AxCTN"}, "start_location": {"lat": 29.7596125, "lng": -95.36157840000001}, "steps": [{"distance": {"text": "282 ft", "value": 86}, "duration": {"text": "1 min", "value": 61}, "end_location": {"lat": 29.7602218, "lng": -95.3611044}, "html_instructions": "Head <b>northeast</b> on <b>Fannin St</b> toward <b>Prairie St</b>", "polyline": {"points": "qlstDzh`eQyB_B"}, "start_location": {"lat": 29.7596125, "lng": -95.36157840000001}, "travel_mode": "WALKING"}, {"distance": {"text": "0.3 mi", "value": 405}, "duration": {"text": "5 mins", "value": 310}, "end_location": {"lat": 29.7622658, "lng": -95.3644813}, "html_instructions": "Turn <b>left</b> onto <b>Prairie St</b>", "maneuver": "turn-left", "polyline": {"points": "kpstDze`eQm@lAWf@Sb@GNCBIP{@bBGHU`@GLOVqAdCGL}AxC"}, "start_location": {"lat": 29.7602218, "lng": -95.3611044}, "travel_mode": "WALKING"}, {"distance": {"text": "59 ft", "value": 18}, "duration": {"text": "1 min", "value": 13}, "end_location": {"lat": 29.7621626, "lng": -95.36456489999999}, "html_instructions": "Turn <b>left</b> onto <b>Louisiana St</b>", "maneuver": "turn-left", "polyline": {"points": "e}stD~z`eQTN"}, "start_location": {"lat": 29.7622658, "lng": -95.3644813}, "travel_mode": "WALKING"}], "travel_mode": "WALKING"}, {"distance": {"text": "8.1 mi", "value": 13000}, "duration": {"text": "31 mins", "value": 1848}, "end_location": {"lat": 29.801027, "lng": -95.45922999999999}, "html_instructions": "Bus towards SH 249", "polyline": {"points": "k|stDh{`eQGL[UqCqBAAqCqBa@v@k@dAINIJGHA@A@GJGDC@C@C@E?M?C?Q?M?ICIEAAEGC\\SdBGd@E^O`A?BM|@M|@EZOjAALGX?@?@CJALGl@?@A@?BAHAJAHShAETCJEPCHCLGVWdAKXQh@O`@GTGLS^IPS\\AB}@~AGFADABMv@EV?@OfAOnAEXAPGd@Gn@?XGrACb@Cr@Ev@ALEp@AVEv@ALGrAEt@G~@?BGdAATGlACj@ItACb@AT?TAFG`AATCb@GzAGtAMfCANGfA?DKtBAHMfCEbAANALCr@AVAr@Al@?d@CrAAx@Cx@?NCzBAJAz@Cv@GnAQvCEz@EbAM~B?HAp@C|@GjCCj@MtFGHAB?BALCb@Af@?R?TA`@A`@ARGt@AVGp@AXGz@KtBCZ?B?@@D?B@D@FGlACd@A`@GtACZA\\KfBG|@Ez@C`@C\\A`@El@El@Cb@CZCf@Cd@AREp@APIzACXANATALANAHC\\AZATC\\A`@IbBEp@ALCp@GfAG~@G~@Cj@AXCVAL?BCd@AL?NCl@Cd@El@Ab@Ev@ANMxCCXAXAXQtCCl@?z@@dA?|A@d@?~B@d@?N?zA?P?N@d@?b@?X?\\?^?X?N?j@?b@@`@?t@@j@?j@?N@`@?z@@dC?V@h@?RARAr@AJ?NAP?RCZAV?FCxA?XExACpAClACnAAj@CvAC|@?NA`@Ab@GxAAVIhAI|BEf@KnDEv@Cv@EpAGlACz@?DA`@APCvAAPCDABCHC`AAPAF@JC@A@A@A@A@A@?@CBc@FKDG@C?IBC@C@C@C@A@EBMLwAlAc@\\sAhA_Av@MJa@^sBbB_Av@QLq@h@IHKHOLw@p@w@n@]Z_@ZSPGFIFaAz@EBe@b@QRUVY\\q@~@s@`AOPGF?@o@v@?@CB}@hAQPKNYd@c@|@ILg@bAU`@IPA@S`@g@bAw@zAq@rA}AxCkA|Bc@v@IPYh@Uf@IP?`@?DCHI\\I`@I`@CVATARA^?\\Ar@?^@`@@@?b@?@@^@hB?f@?XCjA?D?XCXCZEVId@Ot@Ot@GVUfAAD{@`E?@Mj@?@K^[|AMn@Sx@On@I`@I^[xAGZMn@Mh@Kf@Qx@Qr@_@rBg@`DKl@Gd@CXMdA?BALGj@CXCVCXE`@IfAMzBE|AAr@AXC?Ar@CbDAjCCpF@l@@v@AzG~@@X?V?Z^?r@Ap@?bAAtA?R?d@?XEAw@B?u@@S?_@AcA@cA@w@@k@ZA^@DA`AAN??H?P?f@?j@?l@?d@JCF@D?DABA@CDIDSB[@g@BUBM@AN]FGJY@K?MCUCKCCA?OGQAGAE?E@GDQJOPMD[BY@W?aAAY@c@?AVAzAAb@?f@?L?ZAn@?`B?R?f@sBNO@Q@Y?W?K@wA@y@@K?u@?wA@U?O?}@@I?Y?_@?_@@oA@oD@eABM?A?a@?c@?qA@W?w@?cA@s@?c@@_@?uA@a@?OAY?q@@c@?_@?[@cA@a@?U?G?C?E?]@S?S@]@c@?}@@M?w@@]?mA@_B@W?E?e@Aa@EQEWG[OUM[QIG_@Ui@i@e@_@OQQQOMCCc@a@MR{A|BU\\W`@sBtCg@z@a@L{@vA]b@Sd@w@lAYh@OQ"}, "start_location": {"lat": 29.762139, "lng": -95.364532}, "transit_details": {"arrival_stop": {"location": {"lat": 29.801027, "lng": -95.45922999999999}, "name": "Hempstead Rd @ W 18th St"}, "arrival_time": {"text": "4:25pm", "time_zone": "America/Chicago", "value": 1642026348}, "departure_stop": {"location": {"lat": 29.762139, "lng": -95.364532}, "name": "Louisiana St @ Prairie St"}, "departure_time": {"text": "3:55pm", "time_zone": "America/Chicago", "value": 1642024500}, "headsign": "SH 249", "line": {"agencies": [{"name": "Metropolitan Transit Authority of Harris County", "phone": "1 (713) 635-4000", "url": "http://www.ridemetro.org/"}], "color": "#004080", "name": "Antoine / Washington", "short_name": "85", "text_color": "#ffffff", "url": "https://www.ridemetro.org/MetroPDFs/Schedules/BusSchedules/n085-Antoine-Washington.pdf", "vehicle": {"icon": "//maps.gstatic.com/mapfiles/transit/iw2/6/bus2.png", "name": "Bus", "type": "BUS"}}, "num_stops": 43, "trip_short_name": "ANTOINWAS"}, "travel_mode": "TRANSIT"}, {"distance": {"text": "0.5 mi", "value": 738}, "duration": {"text": "10 mins", "value": 587}, "end_location": {"lat": 29.8019199, "lng": -95.45428179999999}, "html_instructions": "Walk to 4400 W 18th St, Houston, TX 77092, USA", "polyline": {"points": "mo{tDdkseQKPKKKAK?I@IB?Q?aA?M?QAO?OM?M@M?mED@[Ae@?g@ASDKP]d@}@Xq@B]QOIIOMEKKAQUGGEIAE?C?A@C@EBEV_@KMNWHMJSRa@Ts@R}@Jy@Hy@?G@Q@a@"}, "start_location": {"lat": 29.8010254, "lng": -95.4592253}, "steps": [{"distance": {"text": "49 ft", "value": 15}, "duration": {"text": "1 min", "value": 11}, "end_location": {"lat": 29.8011512, "lng": -95.4592626}, "html_instructions": "Head <b>northwest</b>", "polyline": {"points": "mo{tDdkseQKPKK"}, "start_location": {"lat": 29.8010254, "lng": -95.4592253}, "travel_mode": "WALKING"}, {"distance": {"text": "102 ft", "value": 31}, "duration": {"text": "1 min", "value": 23}, "end_location": {"lat": 29.8013705, "lng": -95.4592806}, "html_instructions": "Turn <b>right</b> toward <b>W 18th St</b>", "maneuver": "turn-right", "polyline": {"points": "ep{tDjkseQKAK?I@IB"}, "start_location": {"lat": 29.8011512, "lng": -95.4592626}, "travel_mode": "WALKING"}, {"distance": {"text": "240 ft", "value": 73}, "duration": {"text": "1 min", "value": 61}, "end_location": {"lat": 29.8014508, "lng": -95.4585436}, "html_instructions": "Turn <b>right</b> onto <b>W 18th St</b>", "maneuver": "turn-right", "polyline": {"points": "qq{tDnkseQ?Q?aA?M?QAO?OM?"}, "start_location": {"lat": 29.8013705, "lng": -95.4592806}, "travel_mode": "WALKING"}, {"distance": {"text": "440 ft", "value": 134}, "duration": {"text": "2 mins", "value": 127}, "end_location": {"lat": 29.80261729999999, "lng": -95.45858140000001}, "html_instructions": "Turn <b>left</b> onto <b>Mangum Rd</b>", "maneuver": "turn-left", "polyline": {"points": "ar{tDzfseQM@M?mED"}, "start_location": {"lat": 29.8014508, "lng": -95.4585436}, "travel_mode": "WALKING"}, {"distance": {"text": "0.1 mi", "value": 168}, "duration": {"text": "2 mins", "value": 133}, "end_location": {"lat": 29.8021725, "lng": -95.45703209999999}, "html_instructions": "Turn <b>right</b>", "maneuver": "turn-right", "polyline": {"points": "ky{tDbgseQ@[Ae@?g@ASDKP]d@}@Xq@B]"}, "start_location": {"lat": 29.80261729999999, "lng": -95.45858140000001}, "travel_mode": "WALKING"}, {"distance": {"text": "348 ft", "value": 106}, "duration": {"text": "1 min", "value": 80}, "end_location": {"lat": 29.8024852, "lng": -95.4562641}, "html_instructions": "Turn <b>left</b><div style=\"font-size:0.9em\">Partial restricted usage road</div>", "maneuver": "turn-left", "polyline": {"points": "qv{tDl}reQQOIIOMEKKAQUGGEIAE?C?A@C@EBEV_@"}, "start_location": {"lat": 29.8021725, "lng": -95.45703209999999}, "travel_mode": "WALKING"}, {"distance": {"text": "33 ft", "value": 10}, "duration": {"text": "1 min", "value": 8}, "end_location": {"lat": 29.8025494, "lng": -95.456192}, "html_instructions": "Turn <b>left</b><div style=\"font-size:0.9em\">Restricted usage road</div>", "maneuver": "turn-left", "polyline": {"points": "qx{tDrxreQKM"}, "start_location": {"lat": 29.8024852, "lng": -95.4562641}, "travel_mode": "WALKING"}, {"distance": {"text": "0.1 mi", "value": 201}, "duration": {"text": "2 mins", "value": 144}, "end_location": {"lat": 29.8019199, "lng": -95.45428179999999}, "html_instructions": "Turn <b>right</b><div style=\"font-size:0.9em\">Restricted usage road</div><div style=\"font-size:0.9em\">Destination will be on the left</div>", "maneuver": "turn-right", "polyline": {"points": "}x{tDdxreQNWHMJSRa@Ts@R}@Jy@Hy@?G@Q@a@"}, "start_location": {"lat": 29.8025494, "lng": -95.456192}, "travel_mode": "WALKING"}], "travel_mode": "WALKING"}], "traffic_speed_entry": [], "via_waypoint": []}], "overview_polyline": {"points": "grwtDhatdQ`EApGC~KMfEAZ?XlA^|AXhAV~ALzAtA@vHBV@?E?LWAiD?iBAq@AW?e@AB`@JvADpBAnE?vKCrOVbDH~AJtD@rBBRLj@?lEC~BQb@Cn@MrBMnBCtA?zAmABs@@G^Kt@j@Af@A`A?@n@?zBArB?vA?LHBBn@@`@@~A@~BFrEFlDRh@BhAPlCJ~@RpA^rBb@hBn@bCdB`GdAnDrBtHfEbONj@Z|@v@zCjA`EbApDf@bBd@`Bb@jBB^Fd@RjDBxABrCDHBLB`A@xC@zEJjDB|@FnANbBf@`DhAxEpAlE|AvE|@xB|@|Ah@z@jAvAjAdAn@d@rAx@fAl@hBp@|@TrDj@RJt@L~@PdARdAPhBXr@Fx@R`A\\hAp@b@f@x@n@v@j@tCnBrBzA^Zm@nAw@|AwApCuApC}@bBmFhKsFzK~ErDdEzCKRFKyB_Bm@lAk@jAqAhCu@pAyArC}AxCTNBEGLmDgCsCsBmA|B]f@UT[BU?WCKGEGC\\[jCU`Ba@zCYrBMlAEZ_@tBU`Ac@~Aa@jAm@tA{AhCWxAe@rDQfBGlBGvAOnCUnEk@rKKtBUjFy@pPIhBGzEI~FOnEk@vKMdGQ`HILG|AClBSrCYfF@NBLKrBOpDo@~Kw@bNeAhSYjGUfFUbE@`CBhH?lC@vFD`IBzEEbBQnHWbNI|BK`BOdDQfFUrGGpCEVELEfBQP{@NUHiHbGcFfEyAjAcFhEgA~@w@v@o@t@eB`CgArAaAnA]`@}@bBqAdCuJfRcAtB?f@Mf@SbAEl@EdCFzGCdCGt@O|@}@jEkAtFmBzI_AnEoAhG_AnGWbCQlBWbEGpCAXC?EvEE|JBdBAzG~@@p@?Z^?r@AtBAhDEAw@B@iAAcBB{B@k@ZAd@?pAA?Z?fD^CDEJ]DcAFc@d@aA@YGa@ECOGQAMAMFa@\\MD[Bq@@{A?c@?AVC~BA`C?tB?f@sBNa@Bq@?iDDuHBeJHuA?sLF}B?cDBcA?kABqKH]?gAGi@Mq@]e@Y_@Ui@i@u@q@a@_@g@e@iBpCm@~@sBtCg@z@a@L{@vA]b@Sd@qAvBOQKPKKWASD?sAA_AwFFA}BVi@~@oBB]QOYWEKKAY]GU^o@KMNWTa@Ra@Ts@R}@TsB@Y@a@"}, "summary": "", "warnings": ["Walking directions are in beta. Use caution \u2013 This route may be missing sidewalks or pedestrian paths."], "waypoint_order": []}], "status": "OK"}