{"geocoded_waypoints": [{"geocoder_status": "OK", "place_id": "ChIJc7AEvrfrQIYRPVZpjVlo9x0", "types": ["establishment", "point_of_interest", "primary_school", "school"]}, {"geocoder_status": "OK", "place_id": "ChIJ9_tphxzHQIYRIMyPy_d3VZU", "types": ["establishment", "point_of_interest"]}], "routes": [{"bounds": {"northeast": {"lat": 29.8026478, "lng": -95.45427269999999}, "southwest": {"lat": 29.61853039999999, "lng": -95.48477319999999}}, "copyrights": "Map data \u00a92022 Google", "legs": [{"arrival_time": {"text": "5:05pm", "time_zone": "America/Chicago", "value": 1642028735}, "departure_time": {"text": "3:12pm", "time_zone": "America/Chicago", "value": 1642021929}, "distance": {"text": "18.6 mi", "value": 29893}, "duration": {"text": "1 hour 53 mins", "value": 6806}, "end_address": "4400 W 18th St, Houston, TX 77092, USA", "end_location": {"lat": 29.8019199, "lng": -95.45428179999999}, "start_address": "4900 Simsbrook Dr, Houston, TX 77045, USA", "start_location": {"lat": 29.6199496, "lng": -95.4548494}, "steps": [{"distance": {"text": "0.8 mi", "value": 1219}, "duration": {"text": "15 mins", "value": 890}, "end_location": {"lat": 29.6185317, "lng": -95.4648666}, "html_instructions": "Walk to S Post Oak Rd @ Trafalgar Dr", "polyline": {"points": "ucxsDxoreQ?@AVCh@?fAB~@Hr@Hj@BNj@hBh@dBRt@DNDRF^D^D`@@^Bb@?P?RA`@?RARCXCRCVCRUnACJShAIf@G`@Eb@Cf@Ar@A~@@jA?`@?f@AXCTAPALABCTGb@Kb@GVITA@CFKT[f@TNQTKZI\\?@A??@?@?@?@?@?@?@@@?@CVAH?Dn@Cd@A`@?b@Ax@?LAx@Ab@?N?"}, "start_location": {"lat": 29.6199496, "lng": -95.4548494}, "steps": [{"distance": {"text": "0.6 mi", "value": 937}, "duration": {"text": "11 mins", "value": 684}, "end_location": {"lat": 29.6200972, "lng": -95.46414999999999}, "html_instructions": "Head <b>west</b> on <b>Simsbrook Dr</b> toward <b>Stancliff</b>", "polyline": {"points": "ucxsDxoreQ?@AVCh@?fAB~@Hr@Hj@BNj@hBh@dBRt@DNDRF^D^D`@@^Bb@?P?RA`@?RARCXCRCVCRUnACJShAIf@G`@Eb@Cf@Ar@A~@@jA?`@?f@AXCTAPALABCTGb@Kb@GVITA@CFKT[f@"}, "start_location": {"lat": 29.6199496, "lng": -95.4548494}, "travel_mode": "WALKING"}, {"distance": {"text": "46 ft", "value": 14}, "duration": {"text": "1 min", "value": 11}, "end_location": {"lat": 29.6199929, "lng": -95.4642258}, "html_instructions": "Turn <b>left</b> toward <b>S Post Oak Rd</b>", "maneuver": "turn-left", "polyline": {"points": "sdxsD|iteQTN"}, "start_location": {"lat": 29.6200972, "lng": -95.46414999999999}, "travel_mode": "WALKING"}, {"distance": {"text": "148 ft", "value": 45}, "duration": {"text": "1 min", "value": 36}, "end_location": {"lat": 29.6201875, "lng": -95.4646255}, "html_instructions": "Turn <b>right</b> toward <b>S Post Oak Rd</b>", "maneuver": "turn-right", "polyline": {"points": "}cxsDljteQQTKZI\\"}, "start_location": {"lat": 29.6199929, "lng": -95.4642258}, "travel_mode": "WALKING"}, {"distance": {"text": "36 ft", "value": 11}, "duration": {"text": "1 min", "value": 8}, "end_location": {"lat": 29.6201855, "lng": -95.4647303}, "html_instructions": "Slight <b>left</b> toward <b>S Post Oak Rd</b>", "maneuver": "turn-slight-left", "polyline": {"points": "eexsD|lteQ?@A??@?@?@?@?@?@?@@@?@"}, "start_location": {"lat": 29.6201875, "lng": -95.4646255}, "travel_mode": "WALKING"}, {"distance": {"text": "79 ft", "value": 24}, "duration": {"text": "1 min", "value": 19}, "end_location": {"lat": 29.6202163, "lng": -95.46493190000001}, "html_instructions": "Slight <b>right</b> toward <b>S Post Oak Rd</b>", "maneuver": "turn-slight-right", "polyline": {"points": "eexsDpmteQCVAH?D"}, "start_location": {"lat": 29.6201855, "lng": -95.4647303}, "travel_mode": "WALKING"}, {"distance": {"text": "0.1 mi", "value": 188}, "duration": {"text": "2 mins", "value": 132}, "end_location": {"lat": 29.6185317, "lng": -95.4648666}, "html_instructions": "Turn <b>left</b> onto <b>S Post Oak Rd</b>", "maneuver": "turn-left", "polyline": {"points": "kexsDxnteQn@Cd@A`@?b@Ax@?LAx@Ab@?N?"}, "start_location": {"lat": 29.6202163, "lng": -95.46493190000001}, "travel_mode": "WALKING"}], "travel_mode": "WALKING"}, {"distance": {"text": "15.5 mi", "value": 24995}, "duration": {"text": "1 hour 10 mins", "value": 4216}, "end_location": {"lat": 29.783077, "lng": -95.455467}, "html_instructions": "Bus towards Northwest TC", "polyline": {"points": "yzwsDlnteQ?FO?c@?w@@O@y@?c@@a@?A?c@Bo@@U@u@?k@Ae@AW?c@?c@@c@?cA@C?o@@w@?w@BeA@K?C?kCBO?W?q@?i@?qA@c@@]?a@?W?}A?_A@_@@Y@yABK?O?c@?OAu@EA?g@GYCuASuBs@g@Qy@]_@Sc@UMGMG_@ScA[sBq@w@Oa@Ga@CE?iAGqF@gA?S?yA?gAAcA@s@?mBA[?C?m@@U?y@@_A@sA?E?S@I?U@}@@o@?S?]@A?S?S@}A@kBB_@?q@@Q@i@?g@@Y?_A@aA?k@@a@@G?SAoB?mB?gA?Y@iB?aD@UGWA{@Ac@A_@?q@?G?sB@I?Q@}A@a@@Y?[@g@AG?a@?gA@uB@OCE?M@O?S?y@@g@?I?M?M@A?M?[BS@O?M@G@G@QJgA?_@?kB@i@?u@@kC?s@?o@@M?cA?qABW?yA@sA@kA@]?K?aA@S?_A?q@@eA@g@?Y?K?cA@O?mA?aA?cB@iB@kB@c@?}A@q@@_BBsDDiCHGAm@?i@ASAMAC?C?k@I]E_AMg@IUCaASMCw@S[Gw@Q}Bm@e@Me@MQEEAGCYCSGeAYYQCAsCy@IEs@Wk@SUKqBg@m@KGCSGw@W_@M_@MWGEAQEw@UWIOEUGQMc@U[OKEIE[KWKQGc@QEAsBq@EA_Bi@cA[ECoFeB?Au@W_Bc@eAe@_By@aA[oBOgBBkD@H{@N{@H[[M?AU?A@YAA?_@CMYH_@\\g@?ARw@JMNEHJDNAR[p@[t@KLSHw@F?|CCfA?h@ClAj@@nABDmA@g@?AHkAA?_@@S?oACiA?s@Au@G_@G[EYEc@Iu@M}@GsCRiBLU@gAD_DNyCFA?gA?W@oC@qB@gB?w@?E?e@@wA?]@iAA]?@~@?r@@`A?v@?l@@X?NAfA@tB?^?dA@rD@lA?dD@L?X?Z?lA?d@@dC?\\?h@?F?Z@nB?d@?p@?H?X?B@t@?`@E@_ARS@I@G?O?Y@G?S?{@@}A@o@@Q?wBAKJi@@mDAY?wABE?M?gA@c@?iA?a@@Y?U?c@?mB@u@@Q?a@AcBB{@?kA@q@?Q?sC@iB@o@?Y?wD@gC@[?O?kD@yA@qA@cA?u@@U?q@?s@?MIk@Ae@?Q?w@?eB@S?eA@?V?`ATV@?@?\\G?BA@?@@@?B@T@`@@L?^?ZGb@[b@@VD`A?|@?P@bA@\\@fDCv@@jA?h@@j@?dB?x@@tA@f@?~A?d@?b@?h@?\\?N?t@?b@@d@?ViA?U?mA@I?sA?M@g@?Y?mA@_@?_@?O?G?YAk@@[?Y?s@@Q?u@?[?g@?w@@kC?[@yD@mB@{@?W@qD?Q?cB?cA@kB@q@@wA@O?u@?e@@Q?uD@mA?aA?c@?m@?A?Q?{B?qA@sA@a@?kC@aA?iCDaB@}A?uB?Q?eA@m@?c@?YAO?GAG?C?KAC?A?A?QAs@Cq@Aq@CE?A?YAe@AEAS?A?SA{@@cB?_A@[@cA?mB@oA?iC@w@@M?kA@_@?q@@c@?W@yA?Y@[?Y?k@?uEBoC@O@gA?G@M?yA@o@?m@@I?U@U?{@?sA@e@?Y?oA@S?aA@oA@_@??R@t@?fA?R?Z@N?N@F?L@V?H?HArA@L?J?^?hCiA?I?[?M?}B@c@@Y?I?w@@u@?uA?qA?cA@I?uB@iA?c@?uC@e@?]?K@g@?K?{B@_A?w@?aB@_A?K?g@?K@y@?Y?_A@C?S?A?o@?O@{@?mA@{A@I?uA@c@?e@?c@@[?c@?YAeB@a@?e@@{A?Y?iA@_B@s@@o@?w@@a@?O?U?sB?w@@m@?q@?aC@E?OAm@@Q?eA@eA@c@?iAAm@@mA@S?c@@]?_A?U?kA@G?m@?Y?c@@iA?]?Y@_@?i@?kA@Q?E?M?i@?M?Q?C?Q?]@_B@iA?K?Y@I?ODq@_AKQGKAAO[O]Qs@CEEYCSC_@C_@Aa@?SO?Q?YBWDA?SB[Dk@H_@FSBc@B_@HW@mB?oA@sAB]?y@B]?oABg@@Y?m@@}@AMAG?EA]Ca@EA?EAMAQAa@?gA?eA@o@?U?U?g@@M@I?WBg@F]JSFOFUJYNWROJGBm@b@uBzAmAx@UNABMHq@b@WNSNWRSLMJe@^y@v@ED_@`@WZQRY\\m@z@QXS\\Wd@[h@m@dAKNSX_@f@[^CAA?A?C?A@A?GFIHYVMLOLMJEBUTYX[TOPQPQNMFMFOFODSD[F{@FoAFqAFgBFgADw@BSAoE?kB@}@?OAC?q@CWAI?eAAB_B@]?C?]@A@i@@k@@q@@q@DeALcBDo@FkBBeAFyD?G@_@?i@?S@mC?C?qA?Q?o@?w@?[AqA?W?]AeC?{@?S?w@Aa@AoAEaBAUQ{FIqCEgA_@wKCcACe@Ak@AQGaBAS?MAcB?YAk@?E?[AQ?Y?cB?m@?cAAkA?gA@iB?mA?mA?i@?C?G?]@wB?G?C@{A@i@?[Bg@@Y@Y@UB_@Do@De@A?De@RwB\\aCd@gCRu@Z{@j@cAr@cAtB{BPWH[Fe@kHBQ?i@Sw@CSKISGOB_B?yA?i@BeCX?V?\\A^?\\?@?b@?BXQ^?f@?j@?d@W?"}, "start_location": {"lat": 29.61853099999999, "lng": -95.464874}, "transit_details": {"arrival_stop": {"location": {"lat": 29.783077, "lng": -95.455467}, "name": "Northwest Transit Center - South Platform"}, "arrival_time": {"text": "4:38pm", "time_zone": "America/Chicago", "value": 1642027080}, "departure_stop": {"location": {"lat": 29.61853099999999, "lng": -95.464874}, "name": "S Post Oak Rd @ Trafalgar Dr"}, "departure_time": {"text": "3:27pm", "time_zone": "America/Chicago", "value": 1642022864}, "headsign": "Northwest TC", "line": {"agencies": [{"name": "Metropolitan Transit Authority of Harris County", "phone": "1 (713) 635-4000", "url": "http://www.ridemetro.org/"}], "color": "#004080", "name": "Chimney Rock / S Post Oak", "short_name": "49", "text_color": "#ffffff", "url": "https://www.ridemetro.org/MetroPDFs/Schedules/BusSchedules/n049-Chimney-Rock-S-Post-Oak.pdf", "vehicle": {"icon": "//maps.gstatic.com/mapfiles/transit/iw2/6/bus2.png", "name": "Bus", "type": "BUS"}}, "num_stops": 67, "trip_short_name": "CHIMROCPOS"}, "travel_mode": "TRANSIT"}, {"distance": {"text": "0.2 mi", "value": 263}, "duration": {"text": "3 mins", "value": 192}, "end_location": {"lat": 29.7837801, "lng": -95.4554653}, "html_instructions": "Walk to Northwest Transit Center - North Platform", "polyline": {"points": "_}wtDtqreQDUBODIK@]MMMECOKICKAK@E?U?E?_@@m@?AxAAX?f@"}, "start_location": {"lat": 29.7827161, "lng": -95.4551537}, "steps": [{"distance": {"text": "121 ft", "value": 37}, "duration": {"text": "1 min", "value": 26}, "end_location": {"lat": 29.78264219999999, "lng": -95.4549134}, "html_instructions": "Head <b>east</b>", "polyline": {"points": "_}wtDtqreQDUBODI"}, "start_location": {"lat": 29.7827161, "lng": -95.4551537}, "travel_mode": "WALKING"}, {"distance": {"text": "482 ft", "value": 147}, "duration": {"text": "2 mins", "value": 109}, "end_location": {"lat": 29.7837613, "lng": -95.45468609999999}, "html_instructions": "Sharp <b>left</b> toward <b>Old Katy Rd</b>", "maneuver": "turn-sharp-left", "polyline": {"points": "o|wtDdpreQK@]MMMECOKICKAK@E?U?E?_@@m@?"}, "start_location": {"lat": 29.78264219999999, "lng": -95.4549134}, "travel_mode": "WALKING"}, {"distance": {"text": "259 ft", "value": 79}, "duration": {"text": "1 min", "value": 57}, "end_location": {"lat": 29.7837801, "lng": -95.4554653}, "html_instructions": "Turn <b>left</b> onto <b>Old Katy Rd</b>", "maneuver": "turn-left", "polyline": {"points": "ocxtDxnreQAxAAX?f@"}, "start_location": {"lat": 29.7837613, "lng": -95.45468609999999}, "travel_mode": "WALKING"}], "travel_mode": "WALKING"}, {"distance": {"text": "1.7 mi", "value": 2678}, "duration": {"text": "7 mins", "value": 408}, "end_location": {"lat": 29.801027, "lng": -95.45922999999999}, "html_instructions": "Bus towards SH 249", "polyline": {"points": "w~wtDvwreQRwAF@D?DABA@CDIDSB[@g@BUBM@AN]FGJY@K?MCUCKCCA?OGQAGAE?E@GDQJOPMD[BY@W?aAAY@c@?AVAzAAb@?f@?L?ZAn@?`B?R?f@sBNO@Q@Y?W?K@wA@y@@K?u@?wA@U?O?}@@I?Y?_@?_@@oA@oD@eABM?A?a@?c@?qA@W?w@?cA@s@?c@@_@?uA@a@?OAY?q@@c@?_@?[@cA@a@?U?G?C?E?]@S?S@]@c@?}@@M?w@@]?mA@_B@W?E?e@Aa@EQEWG[OUM[QIG_@Ui@i@e@_@OQQQOMCCc@a@MR{A|BU\\W`@sBtCg@z@a@L{@vA]b@Sd@w@lAYh@OQ"}, "start_location": {"lat": 29.7830001, "lng": -95.4561157}, "transit_details": {"arrival_stop": {"location": {"lat": 29.801027, "lng": -95.45922999999999}, "name": "Hempstead Rd @ W 18th St"}, "arrival_time": {"text": "4:55pm", "time_zone": "America/Chicago", "value": 1642028148}, "departure_stop": {"location": {"lat": 29.7830001, "lng": -95.4561157}, "name": "Northwest Transit Center - North Platform"}, "departure_time": {"text": "4:49pm", "time_zone": "America/Chicago", "value": 1642027740}, "headsign": "SH 249", "line": {"agencies": [{"name": "Metropolitan Transit Authority of Harris County", "phone": "1 (713) 635-4000", "url": "http://www.ridemetro.org/"}], "color": "#004080", "name": "Antoine / Washington", "short_name": "85", "text_color": "#ffffff", "url": "https://www.ridemetro.org/MetroPDFs/Schedules/BusSchedules/n085-Antoine-Washington.pdf", "vehicle": {"icon": "//maps.gstatic.com/mapfiles/transit/iw2/6/bus2.png", "name": "Bus", "type": "BUS"}}, "num_stops": 8, "trip_short_name": "ANTOINWAS"}, "travel_mode": "TRANSIT"}, {"distance": {"text": "0.5 mi", "value": 738}, "duration": {"text": "10 mins", "value": 587}, "end_location": {"lat": 29.8019199, "lng": -95.45428179999999}, "html_instructions": "Walk to 4400 W 18th St, Houston, TX 77092, USA", "polyline": {"points": "mo{tDdkseQKPKKKAK?I@IB?Q?aA?M?QAO?OM?M@M?mED@[Ae@?g@ASDKP]d@}@Xq@B]QOIIOMEKKAQUGGEIAE?C?A@C@EBEV_@KMNWHMJSRa@Ts@R}@Jy@Hy@?G@Q@a@"}, "start_location": {"lat": 29.8010254, "lng": -95.4592253}, "steps": [{"distance": {"text": "49 ft", "value": 15}, "duration": {"text": "1 min", "value": 11}, "end_location": {"lat": 29.8011512, "lng": -95.4592626}, "html_instructions": "Head <b>northwest</b>", "polyline": {"points": "mo{tDdkseQKPKK"}, "start_location": {"lat": 29.8010254, "lng": -95.4592253}, "travel_mode": "WALKING"}, {"distance": {"text": "102 ft", "value": 31}, "duration": {"text": "1 min", "value": 23}, "end_location": {"lat": 29.8013705, "lng": -95.4592806}, "html_instructions": "Turn <b>right</b> toward <b>W 18th St</b>", "maneuver": "turn-right", "polyline": {"points": "ep{tDjkseQKAK?I@IB"}, "start_location": {"lat": 29.8011512, "lng": -95.4592626}, "travel_mode": "WALKING"}, {"distance": {"text": "240 ft", "value": 73}, "duration": {"text": "1 min", "value": 61}, "end_location": {"lat": 29.8014508, "lng": -95.4585436}, "html_instructions": "Turn <b>right</b> onto <b>W 18th St</b>", "maneuver": "turn-right", "polyline": {"points": "qq{tDnkseQ?Q?aA?M?QAO?OM?"}, "start_location": {"lat": 29.8013705, "lng": -95.4592806}, "travel_mode": "WALKING"}, {"distance": {"text": "440 ft", "value": 134}, "duration": {"text": "2 mins", "value": 127}, "end_location": {"lat": 29.80261729999999, "lng": -95.45858140000001}, "html_instructions": "Turn <b>left</b> onto <b>Mangum Rd</b>", "maneuver": "turn-left", "polyline": {"points": "ar{tDzfseQM@M?mED"}, "start_location": {"lat": 29.8014508, "lng": -95.4585436}, "travel_mode": "WALKING"}, {"distance": {"text": "0.1 mi", "value": 168}, "duration": {"text": "2 mins", "value": 133}, "end_location": {"lat": 29.8021725, "lng": -95.45703209999999}, "html_instructions": "Turn <b>right</b>", "maneuver": "turn-right", "polyline": {"points": "ky{tDbgseQ@[Ae@?g@ASDKP]d@}@Xq@B]"}, "start_location": {"lat": 29.80261729999999, "lng": -95.45858140000001}, "travel_mode": "WALKING"}, {"distance": {"text": "348 ft", "value": 106}, "duration": {"text": "1 min", "value": 80}, "end_location": {"lat": 29.8024852, "lng": -95.4562641}, "html_instructions": "Turn <b>left</b><div style=\"font-size:0.9em\">Partial restricted usage road</div>", "maneuver": "turn-left", "polyline": {"points": "qv{tDl}reQQOIIOMEKKAQUGGEIAE?C?A@C@EBEV_@"}, "start_location": {"lat": 29.8021725, "lng": -95.45703209999999}, "travel_mode": "WALKING"}, {"distance": {"text": "33 ft", "value": 10}, "duration": {"text": "1 min", "value": 8}, "end_location": {"lat": 29.8025494, "lng": -95.456192}, "html_instructions": "Turn <b>left</b><div style=\"font-size:0.9em\">Restricted usage road</div>", "maneuver": "turn-left", "polyline": {"points": "qx{tDrxreQKM"}, "start_location": {"lat": 29.8024852, "lng": -95.4562641}, "travel_mode": "WALKING"}, {"distance": {"text": "0.1 mi", "value": 201}, "duration": {"text": "2 mins", "value": 144}, "end_location": {"lat": 29.8019199, "lng": -95.45428179999999}, "html_instructions": "Turn <b>right</b><div style=\"font-size:0.9em\">Restricted usage road</div><div style=\"font-size:0.9em\">Destination will be on the left</div>", "maneuver": "turn-right", "polyline": {"points": "}x{tDdxreQNWHMJSRa@Ts@R}@Jy@Hy@?G@Q@a@"}, "start_location": {"lat": 29.8025494, "lng": -95.456192}, "travel_mode": "WALKING"}], "travel_mode": "WALKING"}], "traffic_speed_entry": [], "via_waypoint": []}], "overview_polyline": {"points": "ucxsDxoreQEjCB~@Hr@Lz@nBtGLr@J`ADhBGbBGj@YbBi@~CIjACrB?nDIx@Kx@Sz@[t@[f@TN]p@I^A??B?B@FEh@zCGdDCN??FO?{A@iA@kBDeABaBAeC?{CByJHgKBsEHoAAyBQuASuBs@aBo@_By@_@ScA[sBq@w@OcAKoAGgL@mHAcB@sEBqBDuIHqIFiB@_I@kG@m@IqDCmIHyC?uB@OCS@eC@g@@mADUBYL}F@eHBqA?iBBwGD{IDiPFsGF}HNu@AoAEmC]mCe@iG{AcBc@a@GyAa@]S}C_A_Bk@gCs@u@OkA_@}Ae@qBk@UGQM_Ae@iAc@oDmAoDkAoFgBuC{@eAe@_By@aA[oBOsGDXwBH[[MUA}@CMYH_@\\i@Rw@JMNEHJDNARw@fBKLSHw@F?|CCpBClAj@@nABDmA@i@FkAs@@yCCiBIyB]u@M}@GsCRgJd@{FHcQFgBA@rBB`EBzUBzI@xH@x@?`@E@sATQ@eA@{EDwBAKJwE?eCBkHBuNF_f@Ns@?MIqAAcE@eA@?V?`ATVB?\\G?HBz@@l@G~@[b@@VD~BDzGAlDB`H@pE@nF{IB}C@iB?}KB_KD_I@wLHgP@sIDkED_E@{F@uACeBGqDKeB?cGBkPHoDBwHBuLHuIDeEB@dDD|B?lC?hCiA?e@?iEBmE@_QDsLD}QHcKBkMFkKBeE@aEBqJBaIDiOFYD}@qAi@gAUy@Im@IuBa@?q@H}ARs@JcALiHFeEFaA@kB?y@Gw@IaE?cC@wALwAf@iAr@gGhEgD~B_BvAe@f@i@n@gAxAyAfCy@tAs@`A[^CAC?G@sBjBu@n@a@b@_@V]Nc@JwANqI\\w@BSA{H@cCEa@AeAAB_B@a@@_@FyDRiDL{CLgH@oEAqIAsFIkGmAy_@KuCCoDCqLBqMBqCFwBPkCBe@RwB\\aCd@gCRu@Z{@j@cAr@cAtB{BPWH[Fe@kHBQ?i@Sw@CSKQc@FiJnBA^?b@?BXQ^?f@?pAW?fA_AHe@DIK@]MMMUOUEm@@mA@CrB?f@zC`CRwAF@JADEJ]DcAFc@P_@Ra@@YGa@ECOGQAMAMFa@\\MD[Bq@@{A?c@?AVC~B?t@A`E?f@sBNa@BuCBsEBwGDeGDoD@{JBgHDyCDmJFgAGi@MwAw@_@Ui@i@u@q@iAeAwCpEsBtCg@z@a@L{@vA]b@Sd@qAvBOQKPKKWASD?sBA_@[@{ED?aAA{@Vi@~@oBB]QOYWEKKAY]GOBOZe@KMNWTa@Ra@Ts@R}@TsBB{@"}, "summary": "", "warnings": ["Walking directions are in beta. Use caution \u2013 This route may be missing sidewalks or pedestrian paths."], "waypoint_order": []}, {"bounds": {"northeast": {"lat": 29.803869, "lng": -95.4031601}, "southwest": {"lat": 29.6190597, "lng": -95.4548494}}, "copyrights": "Map data \u00a92022 Google", "legs": [{"arrival_time": {"text": "5:04pm", "time_zone": "America/Chicago", "value": 1642028697}, "departure_time": {"text": "3:11pm", "time_zone": "America/Chicago", "value": 1642021897}, "distance": {"text": "19.6 mi", "value": 31504}, "duration": {"text": "1 hour 53 mins", "value": 6800}, "end_address": "4400 W 18th St, Houston, TX 77092, USA", "end_location": {"lat": 29.8019199, "lng": -95.45428179999999}, "start_address": "4900 Simsbrook Dr, Houston, TX 77045, USA", "start_location": {"lat": 29.6199496, "lng": -95.4548494}, "steps": [{"distance": {"text": "1.1 mi", "value": 1762}, "duration": {"text": "22 mins", "value": 1316}, "end_location": {"lat": 29.6208416, "lng": -95.4379269}, "html_instructions": "Walk to White Heather Dr @ Simsbrook Dr", "polyline": {"points": "ucxsDxoreQDg@b@eCVcAVmAHe@FaAB]?oAIcBAS?mADa@@EF[FOLa@@CHc@@AJa@Fc@?IBQ?S@I?M?a@I_AG_@Q{@Qk@i@kBMe@W_ACIMo@SkAG[o@mB?QAC?OQ?ISi@sAGQWq@Si@yAmEYoAMk@ESGWYoAQs@I]?CIa@CSACCUC[?S?Q@c@BO@S@MFk@BSRcBHk@NoAz@aEh@_Cn@?"}, "start_location": {"lat": 29.6199496, "lng": -95.4548494}, "steps": [{"distance": {"text": "1.1 mi", "value": 1735}, "duration": {"text": "22 mins", "value": 1296}, "end_location": {"lat": 29.6210819, "lng": -95.43792909999999}, "html_instructions": "Head <b>east</b> on <b>Simsbrook Dr</b> toward <b>Stancliff</b>", "polyline": {"points": "ucxsDxoreQDg@b@eCVcAVmAHe@FaAB]?oAIcBAS?mADa@@EF[FOLa@@CHc@@AJa@Fc@?IBQ?S@I?M?a@I_AG_@Q{@Qk@i@kBMe@W_ACIMo@SkAG[o@mB?QAC?OQ?ISi@sAGQWq@Si@yAmEYoAMk@ESGWYoAQs@I]?CIa@CSACCUC[?S?Q@c@BO@S@MFk@BSRcBHk@NoAz@aEh@_C"}, "start_location": {"lat": 29.6199496, "lng": -95.4548494}, "travel_mode": "WALKING"}, {"distance": {"text": "89 ft", "value": 27}, "duration": {"text": "1 min", "value": 20}, "end_location": {"lat": 29.6208416, "lng": -95.4379269}, "html_instructions": "Turn <b>right</b> onto <b>White Heather Dr</b><div style=\"font-size:0.9em\">Destination will be on the left</div>", "maneuver": "turn-right", "polyline": {"points": "wjxsD`foeQn@?"}, "start_location": {"lat": 29.6210819, "lng": -95.43792909999999}, "travel_mode": "WALKING"}], "travel_mode": "WALKING"}, {"distance": {"text": "7.8 mi", "value": 12550}, "duration": {"text": "27 mins", "value": 1645}, "end_location": {"lat": 29.704328, "lng": -95.40361999999999}, "html_instructions": "Bus towards TMC TC", "polyline": {"points": "gixsDreoeQ?Lo@?}B@sB@_@?{C@wB@]?wB@[?sC@qB@a@?uC@wC@oA?@bB?j@@tG?J@jA?Z@dC@dDBvF?fBB~A?`A@zB?~@?f@?`@[?g@@kABU?sB@{@?sB@a@@M?Q?oED_FBoB@I?aBBsA?cA?}CBiDBs@?iCBw@?gEBsA?iA@wC@iBBO?eA??_B?KAy@C{@Ce@Ea@ASIs@AGGk@CUMq@Oo@Qq@Om@IUMYOa@UPKJA@EDC@GDEBC@QFC@M?uA@Y@k@?e@?o@?w@?m@@kBBK?a@?oC@O?S?[?@`A?xA@~A?dBBtD?lA?R@XiCB}ABm@?wB@Y?cDBcDBqA?{ABuD@oA@kB?}@A]?[?g@As@@GkAEo@IgAIUAGCOCSAKAKAOAIC[?ACWEc@CS?AAIG[Ia@Mc@Oa@O_@GKCGKSMUIOMQKMA?W]KIeAw@ECGEEAEAMAk@_@YO[OWKUGc@K_@GWEYCSAO?OAu@Cw@Ag@CW?ECCCCAEA_AIa@CSAIAgAICA]CWAKAq@Gw@Mi@KYKg@Qa@SYMQMOKq@c@a@[?AKGUQi@a@KIIGg@_@CCKGs@g@_@Yu@k@_As@{AgACA{@o@MIg@_@QMUOWSSOmA{@_@YUU{B_BeAy@YSgBqAeAw@_Am@m@a@s@e@GAY@_BkAq@g@IGsByAYSy@k@sB{Ac@[KYEGMOc@]MIkB{AGEmAcAc@_@c@[g@[{AeAe@a@USg@]SQ_Ao@KIsDcCSOwA_Ao@c@{AgAEEi@c@UQGGGEEEECCAA?WEKIc@][YKISOIG[Wu@m@AA_@YUQAAq@e@eAu@ECo@e@a@[g@_@y@m@k@a@e@]UQgBsAiA{@SKWQCCu@g@KIg@]QMKI_@YUOSO_Am@_Aq@WQg@_@y@m@sAcAECEEs@g@iAw@[Um@c@i@a@g@]YS}@q@AAsCuBGE{AiAMK_CcB{BcBoCoBaBmAkBuA_BkAGESMGAOIw@g@aAq@YQ_As@QMo@c@cAw@MIQM}AiA]Ya@]KIq@e@[QMKWQg@_@_@WQQ{@m@cAo@{@i@MK_@[[UoBwAQMQM{@m@QMWOaAw@[We@_@SO{@o@i@a@AAKISMe@_@IGMIo@g@i@_@SOyAiAOKMK}AiAGEEEIC_@UQMq@g@g@_@MMaC_BcD_CqCoBcBiAUU][DKHQJUJWFOFOFORg@Re@VaAPgA@W?Q@Q{@CICCCECEGCE?I?I?I@GPm@@G@GAGAECEAACAIAG?eDj@C?E?AACAACCCAEAE?K?QfAOLCREHAAG"}, "start_location": {"lat": 29.620842, "lng": -95.437865}, "transit_details": {"arrival_stop": {"location": {"lat": 29.704328, "lng": -95.40361999999999}, "name": "Texas Medical Center Transit Center"}, "arrival_time": {"text": "4:01pm", "time_zone": "America/Chicago", "value": 1642024860}, "departure_stop": {"location": {"lat": 29.620842, "lng": -95.437865}, "name": "White Heather Dr @ Simsbrook Dr"}, "departure_time": {"text": "3:33pm", "time_zone": "America/Chicago", "value": 1642023215}, "headsign": "TMC TC", "line": {"agencies": [{"name": "Metropolitan Transit Authority of Harris County", "phone": "1 (713) 635-4000", "url": "http://www.ridemetro.org/"}], "color": "#004080", "name": "Hiram Clarke", "short_name": "14", "text_color": "#ffffff", "url": "https://www.ridemetro.org/MetroPDFs/Schedules/BusSchedules/n014-Hiram-Clarke.pdf", "vehicle": {"icon": "//maps.gstatic.com/mapfiles/transit/iw2/6/bus2.png", "name": "Bus", "type": "BUS"}}, "num_stops": 35, "trip_short_name": "HIRAM CLARKE"}, "travel_mode": "TRANSIT"}, {"distance": {"text": "7.9 mi", "value": 12693}, "duration": {"text": "34 mins", "value": 2040}, "end_location": {"lat": 29.803613, "lng": -95.41008699999999}, "html_instructions": "Bus towards N Shepherd P&R", "polyline": {"points": "ashtDroheQFj@kAh@QBKAKKCQ@O?i@?A?e@j@Kn@KDAp@Mr@KPHDPDVERC\\AJCJCL@TCLUp@CN?PDPJJLDhAHCp@Mz@Op@Wp@gAhC?@CFIPEJIPEHELWh@QXINOPSNkAl@OH]PE@MFC@MBS@e@@M?o@A]??|B?vA?^@nG?j@?R?P@b@?~@@rAA`A@n@?h@oA?[?_@?WAsBBQ?Q?eD@uB@S?Y?yAA{@@yC@kC@K?gD?cDB_D@}A?oA@_B@c@?cE@w@@}AAAc@?g@AQCYCg@Iq@E[Gc@Km@Os@Me@IUSu@GUw@oCMc@Uw@cBp@IDkAb@kAf@{@^SHy@ZEBSF_@JKBi@LA@SDWDa@FI@a@F]DWBYBQ@o@DA?M@w@@W@M?K?oA?gA?K?sA@uA@K@iB?s@?iD@yB?S?c@@gB?oCBU@eB@e@?]?eA?S?O?U?aA?i@@A?[?A?Y@k@?]?m@?W?iD@c@@aA@eADcAAQ?aA?S@c@?U@y@Ao@AgB?cA@sA?cA@Q?iD@wA?u@@e@?c@?M?_A@]?y@?y@@Y?K?y@@O?s@?y@?eB@cA?y@@O?K?W?I?c@?E?}ABE?q@?gA?]Aa@G[GSCg@AS@M?Y?a@?m@?_A?c@@S?sC@gA@iA?kD?iB?_@?[?Y?q@@gB?{@?Y@qA?eA?I?uD@i@@_A?Q?O?{@?m@?M?g@@y@@g@@Q?[?{@?OGEAGCEEGCECECGEY[OYEKCECGEQ_AuCAEEIQe@IQCEACGIEGEGGIIIEEOKGEQKMEk@Oo@@M?{@?WIgB?KEC?SAYAU?IA]?SAeA?S?g@AcA@EBIFKFA@CBIHCDGHGXQ@aAJa@Da@DC?}AL]D]DK@KEA?A?I?G?M?MAAAA?C?AAE?CAA?OCC?AAM?WA[FE@E@c@HG@YD_@HeAPKBw@TgABW?C?W?k@@_A@K?[@SBe@Dc@@SBa@?eA@[?M?eA@c@?e@?]?_@@Y?k@?M?qCBg@?Q?M@U?e@?M?qCB]?w@@_@?E@W?e@?mB@gA?k@@]?qB@c@@a@CE@e@@m@?S@kA?cA@aCBM?oC@eA@oA@Y?[?O?a@Bm@?U?o@?e@@I?A?A?y@?M@YAS@O?_@@w@@y@?]?M?YAMAMCOEYIIAa@Kc@Ku@QGACAm@MAAOCIAK?OAM?M?A?I?O?S@M@IBc@Jq@P}@Vg@Jk@Ji@Hc@Be@DE?c@Bs@ByABA?oCBYA}B@I?A?q@@K?E?k@?C?O@u@?S?k@@w@@K?a@?O?[@U?U?U?k@@k@?Y@C?I?S?kC@y@@K?W@[?S?A?W?G?U@S?c@?e@@O?E?[?mCBeA@U?Y?S?U@A?S?aA@_@?e@@Q?S?U?s@?C?W?qB@sB@eBBg@?oBBaGBq@@w@?aB@i@@W@_B@yA@aB@Q?qD@U@gB?eB@eBA_A@?K"}, "start_location": {"lat": 29.704328, "lng": -95.40361999999999}, "transit_details": {"arrival_stop": {"location": {"lat": 29.803613, "lng": -95.41008699999999}, "name": "N Shepherd Dr @ W 20th St"}, "arrival_time": {"text": "4:44pm", "time_zone": "America/Chicago", "value": 1642027440}, "departure_stop": {"location": {"lat": 29.704328, "lng": -95.40361999999999}, "name": "Texas Medical Center Transit Center"}, "departure_time": {"text": "4:10pm", "time_zone": "America/Chicago", "value": 1642025400}, "headsign": "N Shepherd P&R", "line": {"agencies": [{"name": "Metropolitan Transit Authority of Harris County", "phone": "1 (713) 635-4000", "url": "http://www.ridemetro.org/"}], "color": "#004080", "name": "Shepherd", "short_name": "27", "text_color": "#ffffff", "url": "https://www.ridemetro.org/MetroPDFs/Schedules/BusSchedules/n027-Shepherd.pdf", "vehicle": {"icon": "//maps.gstatic.com/mapfiles/transit/iw2/6/bus2.png", "name": "Bus", "type": "BUS"}}, "num_stops": 53, "trip_short_name": "SHEPHERD"}, "travel_mode": "TRANSIT"}, {"distance": {"text": "112 ft", "value": 34}, "duration": {"text": "1 min", "value": 34}, "end_location": {"lat": 29.803842, "lng": -95.41002979999999}, "html_instructions": "Walk to W 20th St @ N Shepherd Dr", "polyline": {"points": "q_|tDdxieQ_@@M??Q"}, "start_location": {"lat": 29.8036121, "lng": -95.410111}, "steps": [{"distance": {"text": "69 ft", "value": 21}, "duration": {"text": "1 min", "value": 15}, "end_location": {"lat": 29.8038391, "lng": -95.4101207}, "html_instructions": "Head <b>north</b> on <b>N Shepherd Dr</b> toward <b>W 20th St</b>", "polyline": {"points": "q_|tDdxieQ_@@M?"}, "start_location": {"lat": 29.8036121, "lng": -95.410111}, "travel_mode": "WALKING"}, {"distance": {"text": "43 ft", "value": 13}, "duration": {"text": "1 min", "value": 19}, "end_location": {"lat": 29.803842, "lng": -95.41002979999999}, "html_instructions": "Turn <b>right</b> onto <b>W 20th St</b>", "maneuver": "turn-right", "polyline": {"points": "_a|tDfxieQ?Q"}, "start_location": {"lat": 29.8038391, "lng": -95.4101207}, "travel_mode": "WALKING"}], "travel_mode": "WALKING"}, {"distance": {"text": "2.7 mi", "value": 4367}, "duration": {"text": "10 mins", "value": 582}, "end_location": {"lat": 29.80163, "lng": -95.454342}, "html_instructions": "Bus towards Memorial City", "polyline": {"points": "ea|tDvwieQJ?@V?fA@`ABfE?tABtJ?pB@rA?r@?H?|@?jB?@?j@@h@AL?\\?J@f@?|B?h@?|@?n@?N?|G?J@tE?d@@dC?p@AL@J?V@P@H?B?D@F@HBH@JDPDLDLDHDJDJHLFHFHLL?@TVTVn@v@NRh@h@NPVX^f@BJBFBFf@v@P`@DZDVBT@F?D@F?H?P@P?X?N?F?j@@pAIpB@f@?V?fA?j@?V@h@AjA?h@@~@?b@@^Af@@d@?X?bA?jA?b@@nC?J?d@Aj@?v@?P@dB?jA?bC?`A?\\@dH?`D?dC@fE?jD?T@`F@vB?jD?vC?X?`E@V@zCAb@?fAAX@fB@fA?T@|B?l@A~A?x@?XAzB?`A?dB?l@?P?F?H@^?Z?@?H?@?Z?h@?f@?j@?^?t@@j@BnAAV@|@@fB?bBG?"}, "start_location": {"lat": 29.803869, "lng": -95.410039}, "transit_details": {"arrival_stop": {"location": {"lat": 29.80163, "lng": -95.454342}, "name": "W 18th St @ Northwest Fwy"}, "arrival_time": {"text": "5:03pm", "time_zone": "America/Chicago", "value": 1642028620}, "departure_stop": {"location": {"lat": 29.803869, "lng": -95.410039}, "name": "W 20th St @ N Shepherd Dr"}, "departure_time": {"text": "4:53pm", "time_zone": "America/Chicago", "value": 1642028038}, "headsign": "Memorial City", "line": {"agencies": [{"name": "Metropolitan Transit Authority of Harris County", "phone": "1 (713) 635-4000", "url": "http://www.ridemetro.org/"}], "color": "#004080", "name": "Long Point / Cavalcade", "short_name": "26", "text_color": "#ffffff", "url": "https://www.ridemetro.org/MetroPDFs/Schedules/BusSchedules/n026-Long-Point-Cavalcade.pdf", "vehicle": {"icon": "//maps.gstatic.com/mapfiles/transit/iw2/6/bus2.png", "name": "Bus", "type": "BUS"}}, "num_stops": 14, "trip_short_name": "LONGPOINT"}, "travel_mode": "TRANSIT"}, {"distance": {"text": "322 ft", "value": 98}, "duration": {"text": "1 min", "value": 77}, "end_location": {"lat": 29.8019199, "lng": -95.45428179999999}, "html_instructions": "Walk to 4400 W 18th St, Houston, TX 77092, USA", "polyline": {"points": "es{tDrlreQ?z@YEc@E?G@Q@a@"}, "start_location": {"lat": 29.8016264, "lng": -95.454342}, "steps": [{"distance": {"text": "95 ft", "value": 29}, "duration": {"text": "1 min", "value": 22}, "end_location": {"lat": 29.8016252, "lng": -95.45463819999999}, "html_instructions": "Head <b>west</b> on <b>W 18th St</b>/<wbr/><b>NW Mall</b>", "polyline": {"points": "es{tDrlreQ?z@"}, "start_location": {"lat": 29.8016264, "lng": -95.454342}, "travel_mode": "WALKING"}, {"distance": {"text": "131 ft", "value": 40}, "duration": {"text": "1 min", "value": 33}, "end_location": {"lat": 29.8019405, "lng": -95.4545788}, "html_instructions": "Turn <b>right</b><div style=\"font-size:0.9em\">Restricted usage road</div>", "maneuver": "turn-right", "polyline": {"points": "es{tDnnreQYEc@E"}, "start_location": {"lat": 29.8016252, "lng": -95.45463819999999}, "travel_mode": "WALKING"}, {"distance": {"text": "95 ft", "value": 29}, "duration": {"text": "1 min", "value": 22}, "end_location": {"lat": 29.8019199, "lng": -95.45428179999999}, "html_instructions": "Turn <b>right</b><div style=\"font-size:0.9em\">Restricted usage road</div><div style=\"font-size:0.9em\">Destination will be on the left</div>", "maneuver": "turn-right", "polyline": {"points": "cu{tDbnreQ?G@Q@a@"}, "start_location": {"lat": 29.8019405, "lng": -95.4545788}, "travel_mode": "WALKING"}], "travel_mode": "WALKING"}], "traffic_speed_entry": [], "via_waypoint": []}], "overview_polyline": {"points": "ucxsDxoreQDg@b@eCn@qCHe@FaABmBKwB?mADa@Ha@Tq@XkAJsA@W?a@I_AY{A{@wCe@eBQy@[gBo@mB?QASQ?ISq@eBWq@mBwFg@{By@oDWwAEYCo@FyA`@qDX{BdBaIn@??M?Lo@?qFB{D@iHB}LDgF@@nCBhKFjSD|I?hAcA@aBBoD@uDBiPJwKF}[NyBBeA??_BAeAGaBSqBKaA]aBa@_BWo@Oa@UPMLWPUHQ@aEBaGDmE@o@?@zCDhM@l@gFFcJDgOHwG?cAAs@@GkAOwBK]K{@UiCIe@WeAk@uAq@kAq@u@yAcASCeAo@s@[y@Sw@Mm@EmCG_ACIGICaBMiBOsBOaBYaA]}A{@_BiAaEyCgJ}GsAaAmBuAqCuBmGwEiDwBY@_BkA{@o@{HuFc@[Qa@q@m@yBeByBiBkAw@aCgBqCsBkH}E{DuCk@e@c@KwAkAgDkCsHqFoEeDyB}AqEaD_EqCyC{BgEyCiDeCsSkOuHuF[OgAq@mDeCsCsBiDkCsBuAuCwB_CyAm@g@oDiCgDcCiEeDyGaFcCgBaAm@yAgAoCmBuHoFyB_B][DKTg@b@gAf@mAh@iCB{@eAGIGIM?S@QRu@?OEKWEiDj@GAKOAQ?QfAOLC\\GAGFj@kAh@QBKAKKAa@?k@?e@j@Kt@MdBYPHDPDVEREh@CJCL@TY~@C`@DPJJLDhAHCp@Mz@g@bBgAjC]v@u@zAY`@_B|@aAd@QDy@B}@A]??|B?vB@zH@hC@nFcDA}HD}F?mJDkIB}F@wKDuC?AkASeCM_A[aBs@gCeAsDUw@cBp@uAh@gCfAgBp@wA^wATqBTqAHiBBwF@aBB}C?{IBsJFoH@qD@gHDiCBsA?gC@oH?eNDgUHqCB}CA}@O{@E}A@wRDoLBcNB_D@oCB{@?OGMEYQa@a@Ue@mAuDc@gAS[]a@WQ_@Qk@Oo@@iA?WIgB?OEmAEkCAkB?OJ[VKNGXQ@cBPe@DeDZYEc@AAASC{@GsEx@cAX_BBgCBaBJw@DgB@sC@}B@oIDyIF_GB}D@wOJaIFkDB{FBu@GuA]eBa@iAUw@Ao@@WDuA\\eBb@uATsBLmCFqCBcD?oB@mEDmOJ{NHyEDeMFoSLuRJkE?_A@?K?B_@@M??QE@J?@~AHtU@zM@nJB|W@bABZLp@Vp@^l@x@~@hBtBf@j@^f@BJFNf@v@P`@Jr@D\\@h@@bA@|BIpB@f@?~A?bA?tB@hB@pC?zLBdWDvd@@jKA`HDbIA`F?tK?bEDpE@`HG??z@YEc@E?GBs@"}, "summary": "", "warnings": ["Walking directions are in beta. Use caution \u2013 This route may be missing sidewalks or pedestrian paths."], "waypoint_order": []}, {"bounds": {"northeast": {"lat": 29.8026484, "lng": -95.45427269999999}, "southwest": {"lat": 29.61853039999999, "lng": -95.48477319999999}}, "copyrights": "Map data \u00a92022 Google", "legs": [{"arrival_time": {"text": "5:16pm", "time_zone": "America/Chicago", "value": 1642029399}, "departure_time": {"text": "3:12pm", "time_zone": "America/Chicago", "value": 1642021929}, "distance": {"text": "18.4 mi", "value": 29625}, "duration": {"text": "2 hours 5 mins", "value": 7470}, "end_address": "4400 W 18th St, Houston, TX 77092, USA", "end_location": {"lat": 29.8019199, "lng": -95.45428179999999}, "start_address": "4900 Simsbrook Dr, Houston, TX 77045, USA", "start_location": {"lat": 29.6199496, "lng": -95.4548494}, "steps": [{"distance": {"text": "0.8 mi", "value": 1219}, "duration": {"text": "15 mins", "value": 890}, "end_location": {"lat": 29.6185317, "lng": -95.4648666}, "html_instructions": "Walk to S Post Oak Rd @ Trafalgar Dr", "polyline": {"points": "ucxsDxoreQ?@AVCh@?fAB~@Hr@Hj@BNj@hBh@dBRt@DNDRF^D^D`@@^Bb@?P?RA`@?RARCXCRCVCRUnACJShAIf@G`@Eb@Cf@Ar@A~@@jA?`@?f@AXCTAPALABCTGb@Kb@GVITA@CFKT[f@TNQTKZI\\?@A??@?@?@?@?@?@?@@@?@CVAH?Dn@Cd@A`@?b@Ax@?LAx@Ab@?N?"}, "start_location": {"lat": 29.6199496, "lng": -95.4548494}, "steps": [{"distance": {"text": "0.6 mi", "value": 937}, "duration": {"text": "11 mins", "value": 684}, "end_location": {"lat": 29.6200972, "lng": -95.46414999999999}, "html_instructions": "Head <b>west</b> on <b>Simsbrook Dr</b> toward <b>Stancliff</b>", "polyline": {"points": "ucxsDxoreQ?@AVCh@?fAB~@Hr@Hj@BNj@hBh@dBRt@DNDRF^D^D`@@^Bb@?P?RA`@?RARCXCRCVCRUnACJShAIf@G`@Eb@Cf@Ar@A~@@jA?`@?f@AXCTAPALABCTGb@Kb@GVITA@CFKT[f@"}, "start_location": {"lat": 29.6199496, "lng": -95.4548494}, "travel_mode": "WALKING"}, {"distance": {"text": "46 ft", "value": 14}, "duration": {"text": "1 min", "value": 11}, "end_location": {"lat": 29.6199929, "lng": -95.4642258}, "html_instructions": "Turn <b>left</b> toward <b>S Post Oak Rd</b>", "maneuver": "turn-left", "polyline": {"points": "sdxsD|iteQTN"}, "start_location": {"lat": 29.6200972, "lng": -95.46414999999999}, "travel_mode": "WALKING"}, {"distance": {"text": "148 ft", "value": 45}, "duration": {"text": "1 min", "value": 36}, "end_location": {"lat": 29.6201875, "lng": -95.4646255}, "html_instructions": "Turn <b>right</b> toward <b>S Post Oak Rd</b>", "maneuver": "turn-right", "polyline": {"points": "}cxsDljteQQTKZI\\"}, "start_location": {"lat": 29.6199929, "lng": -95.4642258}, "travel_mode": "WALKING"}, {"distance": {"text": "36 ft", "value": 11}, "duration": {"text": "1 min", "value": 8}, "end_location": {"lat": 29.6201855, "lng": -95.4647303}, "html_instructions": "Slight <b>left</b> toward <b>S Post Oak Rd</b>", "maneuver": "turn-slight-left", "polyline": {"points": "eexsD|lteQ?@A??@?@?@?@?@?@?@@@?@"}, "start_location": {"lat": 29.6201875, "lng": -95.4646255}, "travel_mode": "WALKING"}, {"distance": {"text": "79 ft", "value": 24}, "duration": {"text": "1 min", "value": 19}, "end_location": {"lat": 29.6202163, "lng": -95.46493190000001}, "html_instructions": "Slight <b>right</b> toward <b>S Post Oak Rd</b>", "maneuver": "turn-slight-right", "polyline": {"points": "eexsDpmteQCVAH?D"}, "start_location": {"lat": 29.6201855, "lng": -95.4647303}, "travel_mode": "WALKING"}, {"distance": {"text": "0.1 mi", "value": 188}, "duration": {"text": "2 mins", "value": 132}, "end_location": {"lat": 29.6185317, "lng": -95.4648666}, "html_instructions": "Turn <b>left</b> onto <b>S Post Oak Rd</b>", "maneuver": "turn-left", "polyline": {"points": "kexsDxnteQn@Cd@A`@?b@Ax@?LAx@Ab@?N?"}, "start_location": {"lat": 29.6202163, "lng": -95.46493190000001}, "travel_mode": "WALKING"}], "travel_mode": "WALKING"}, {"distance": {"text": "15.5 mi", "value": 24995}, "duration": {"text": "1 hour 10 mins", "value": 4216}, "end_location": {"lat": 29.783077, "lng": -95.455467}, "html_instructions": "Bus towards Northwest TC", "polyline": {"points": "yzwsDlnteQ?FO?c@?w@@O@y@?c@@a@?A?c@Bo@@U@u@?k@Ae@AW?c@?c@@c@?cA@C?o@@w@?w@BeA@K?C?kCBO?W?q@?i@?qA@c@@]?a@?W?}A?_A@_@@Y@yABK?O?c@?OAu@EA?g@GYCuASuBs@g@Qy@]_@Sc@UMGMG_@ScA[sBq@w@Oa@Ga@CE?iAGqF@gA?S?yA?gAAcA@s@?mBA[?C?m@@U?y@@_A@sA?E?S@I?U@}@@o@?S?]@A?S?S@}A@kBB_@?q@@Q@i@?g@@Y?_A@aA?k@@a@@G?SAoB?mB?gA?Y@iB?aD@UGWA{@Ac@A_@?q@?G?sB@I?Q@}A@a@@Y?[@g@AG?a@?gA@uB@OCE?M@O?S?y@@g@?I?M?M@A?M?[BS@O?M@G@G@QJgA?_@?kB@i@?u@@kC?s@?o@@M?cA?qABW?yA@sA@kA@]?K?aA@S?_A?q@@eA@g@?Y?K?cA@O?mA?aA?cB@iB@kB@c@?}A@q@@_BBsDDiCHGAm@?i@ASAMAC?C?k@I]E_AMg@IUCaASMCw@S[Gw@Q}Bm@e@Me@MQEEAGCYCSGeAYYQCAsCy@IEs@Wk@SUKqBg@m@KGCSGw@W_@M_@MWGEAQEw@UWIOEUGQMc@U[OKEIE[KWKQGc@QEAsBq@EA_Bi@cA[ECoFeB?Au@W_Bc@eAe@_By@aA[oBOgBBkD@H{@N{@H[[M?AU?A@YAA?_@CMYH_@\\g@?ARw@JMNEHJDNAR[p@[t@KLSHw@F?|CCfA?h@ClAj@@nABDmA@g@?AHkAA?_@@S?oACiA?s@Au@G_@G[EYEc@Iu@M}@GsCRiBLU@gAD_DNyCFA?gA?W@oC@qB@gB?w@?E?e@@wA?]@iAA]?@~@?r@@`A?v@?l@@X?NAfA@tB?^?dA@rD@lA?dD@L?X?Z?lA?d@@dC?\\?h@?F?Z@nB?d@?p@?H?X?B@t@?`@E@_ARS@I@G?O?Y@G?S?{@@}A@o@@Q?wBAKJi@@mDAY?wABE?M?gA@c@?iA?a@@Y?U?c@?mB@u@@Q?a@AcBB{@?kA@q@?Q?sC@iB@o@?Y?wD@gC@[?O?kD@yA@qA@cA?u@@U?q@?s@?MIk@Ae@?Q?w@?eB@S?eA@?V?`ATV@?@?\\G?BA@?@@@?B@T@`@@L?^?ZGb@[b@@VD`A?|@?P@bA@\\@fDCv@@jA?h@@j@?dB?x@@tA@f@?~A?d@?b@?h@?\\?N?t@?b@@d@?ViA?U?mA@I?sA?M@g@?Y?mA@_@?_@?O?G?YAk@@[?Y?s@@Q?u@?[?g@?w@@kC?[@yD@mB@{@?W@qD?Q?cB?cA@kB@q@@wA@O?u@?e@@Q?uD@mA?aA?c@?m@?A?Q?{B?qA@sA@a@?kC@aA?iCDaB@}A?uB?Q?eA@m@?c@?YAO?GAG?C?KAC?A?A?QAs@Cq@Aq@CE?A?YAe@AEAS?A?SA{@@cB?_A@[@cA?mB@oA?iC@w@@M?kA@_@?q@@c@?W@yA?Y@[?Y?k@?uEBoC@O@gA?G@M?yA@o@?m@@I?U@U?{@?sA@e@?Y?oA@S?aA@oA@_@??R@t@?fA?R?Z@N?N@F?L@V?H?HArA@L?J?^?hCiA?I?[?M?}B@c@@Y?I?w@@u@?uA?qA?cA@I?uB@iA?c@?uC@e@?]?K@g@?K?{B@_A?w@?aB@_A?K?g@?K@y@?Y?_A@C?S?A?o@?O@{@?mA@{A@I?uA@c@?e@?c@@[?c@?YAeB@a@?e@@{A?Y?iA@_B@s@@o@?w@@a@?O?U?sB?w@@m@?q@?aC@E?OAm@@Q?eA@eA@c@?iAAm@@mA@S?c@@]?_A?U?kA@G?m@?Y?c@@iA?]?Y@_@?i@?kA@Q?E?M?i@?M?Q?C?Q?]@_B@iA?K?Y@I?ODq@_AKQGKAAO[O]Qs@CEEYCSC_@C_@Aa@?SO?Q?YBWDA?SB[Dk@H_@FSBc@B_@HW@mB?oA@sAB]?y@B]?oABg@@Y?m@@}@AMAG?EA]Ca@EA?EAMAQAa@?gA?eA@o@?U?U?g@@M@I?WBg@F]JSFOFUJYNWROJGBm@b@uBzAmAx@UNABMHq@b@WNSNWRSLMJe@^y@v@ED_@`@WZQRY\\m@z@QXS\\Wd@[h@m@dAKNSX_@f@[^CAA?A?C?A@A?GFIHYVMLOLMJEBUTYX[TOPQPQNMFMFOFODSD[F{@FoAFqAFgBFgADw@BSAoE?kB@}@?OAC?q@CWAI?eAAB_B@]?C?]@A@i@@k@@q@@q@DeALcBDo@FkBBeAFyD?G@_@?i@?S@mC?C?qA?Q?o@?w@?[AqA?W?]AeC?{@?S?w@Aa@AoAEaBAUQ{FIqCEgA_@wKCcACe@Ak@AQGaBAS?MAcB?YAk@?E?[AQ?Y?cB?m@?cAAkA?gA@iB?mA?mA?i@?C?G?]@wB?G?C@{A@i@?[Bg@@Y@Y@UB_@Do@De@A?De@RwB\\aCd@gCRu@Z{@j@cAr@cAtB{BPWH[Fe@kHBQ?i@Sw@CSKISGOB_B?yA?i@BeCX?V?\\A^?\\?@?b@?BXQ^?f@?j@?d@W?"}, "start_location": {"lat": 29.61853099999999, "lng": -95.464874}, "transit_details": {"arrival_stop": {"location": {"lat": 29.783077, "lng": -95.455467}, "name": "Northwest Transit Center - South Platform"}, "arrival_time": {"text": "4:38pm", "time_zone": "America/Chicago", "value": 1642027080}, "departure_stop": {"location": {"lat": 29.61853099999999, "lng": -95.464874}, "name": "S Post Oak Rd @ Trafalgar Dr"}, "departure_time": {"text": "3:27pm", "time_zone": "America/Chicago", "value": 1642022864}, "headsign": "Northwest TC", "line": {"agencies": [{"name": "Metropolitan Transit Authority of Harris County", "phone": "1 (713) 635-4000", "url": "http://www.ridemetro.org/"}], "color": "#004080", "name": "Chimney Rock / S Post Oak", "short_name": "49", "text_color": "#ffffff", "url": "https://www.ridemetro.org/MetroPDFs/Schedules/BusSchedules/n049-Chimney-Rock-S-Post-Oak.pdf", "vehicle": {"icon": "//maps.gstatic.com/mapfiles/transit/iw2/6/bus2.png", "name": "Bus", "type": "BUS"}}, "num_stops": 67, "trip_short_name": "CHIMROCPOS"}, "travel_mode": "TRANSIT"}, {"distance": {"text": "1.7 mi", "value": 2673}, "duration": {"text": "7 mins", "value": 412}, "end_location": {"lat": 29.801027, "lng": -95.45922999999999}, "html_instructions": "Bus towards West Belt", "polyline": {"points": "g_xtDtsreQT??`@HDB@F@D?DABA@CDIDSB[@g@BUBM@AN]FGJY@K?MCUCKCCA?OGQAGAE?E@GDQJOPMD[BY@W?aAAY@c@?AVAzAAb@?f@?L?ZAn@?`B?R?f@sBNO@Q@Y?W?K@wA@y@@K?u@?wA@U?O?}@@I?Y?_@?_@@oA@oD@eABM?A?a@?c@?qA@W?w@?cA@s@?c@@_@?uA@a@?OAY?q@@c@?_@?[@cA@a@?U?G?C?E?]@S?S@]@c@?}@@M?w@@]?mA@_B@W?E?e@Aa@EQEWG[OUM[QIG_@Ui@i@e@_@OQQQOMCCc@a@MR{A|BU\\W`@sBtCg@z@a@L{@vA]b@Sd@w@lAYh@OQ"}, "start_location": {"lat": 29.783077, "lng": -95.455467}, "transit_details": {"arrival_stop": {"location": {"lat": 29.801027, "lng": -95.45922999999999}, "name": "Hempstead Rd @ W 18th St"}, "arrival_time": {"text": "5:06pm", "time_zone": "America/Chicago", "value": 1642028812}, "departure_stop": {"location": {"lat": 29.783077, "lng": -95.455467}, "name": "Northwest Transit Center - South Platform"}, "departure_time": {"text": "5:00pm", "time_zone": "America/Chicago", "value": 1642028400}, "headsign": "West Belt", "line": {"agencies": [{"name": "Metropolitan Transit Authority of Harris County", "phone": "1 (713) 635-4000", "url": "http://www.ridemetro.org/"}], "color": "#004080", "name": "Hammerly", "short_name": "58", "text_color": "#ffffff", "url": "https://www.ridemetro.org/MetroPDFs/Schedules/BusSchedules/n058-Hammerly.pdf", "vehicle": {"icon": "//maps.gstatic.com/mapfiles/transit/iw2/6/bus2.png", "name": "Bus", "type": "BUS"}}, "num_stops": 8, "trip_short_name": "HAMMERLY"}, "travel_mode": "TRANSIT"}, {"distance": {"text": "0.5 mi", "value": 738}, "duration": {"text": "10 mins", "value": 587}, "end_location": {"lat": 29.8019199, "lng": -95.45428179999999}, "html_instructions": "Walk to 4400 W 18th St, Houston, TX 77092, USA", "polyline": {"points": "mo{tDdkseQKPKKKAK?I@IB?Q?aA?M?QAO?OM?M@M?mED@[Ae@?g@ASDKP]d@}@Xq@B]QOIIOMEKKAQUGGEIAE?C?A@C@EBEV_@KMNWHMJSRa@Ts@R}@Jy@Hy@?G@Q@a@"}, "start_location": {"lat": 29.8010254, "lng": -95.4592253}, "steps": [{"distance": {"text": "49 ft", "value": 15}, "duration": {"text": "1 min", "value": 11}, "end_location": {"lat": 29.8011512, "lng": -95.4592626}, "html_instructions": "Head <b>northwest</b>", "polyline": {"points": "mo{tDdkseQKPKK"}, "start_location": {"lat": 29.8010254, "lng": -95.4592253}, "travel_mode": "WALKING"}, {"distance": {"text": "102 ft", "value": 31}, "duration": {"text": "1 min", "value": 23}, "end_location": {"lat": 29.8013705, "lng": -95.4592806}, "html_instructions": "Turn <b>right</b> toward <b>W 18th St</b>", "maneuver": "turn-right", "polyline": {"points": "ep{tDjkseQKAK?I@IB"}, "start_location": {"lat": 29.8011512, "lng": -95.4592626}, "travel_mode": "WALKING"}, {"distance": {"text": "240 ft", "value": 73}, "duration": {"text": "1 min", "value": 61}, "end_location": {"lat": 29.8014508, "lng": -95.4585436}, "html_instructions": "Turn <b>right</b> onto <b>W 18th St</b>", "maneuver": "turn-right", "polyline": {"points": "qq{tDnkseQ?Q?aA?M?QAO?OM?"}, "start_location": {"lat": 29.8013705, "lng": -95.4592806}, "travel_mode": "WALKING"}, {"distance": {"text": "440 ft", "value": 134}, "duration": {"text": "2 mins", "value": 127}, "end_location": {"lat": 29.80261729999999, "lng": -95.45858140000001}, "html_instructions": "Turn <b>left</b> onto <b>Mangum Rd</b>", "maneuver": "turn-left", "polyline": {"points": "ar{tDzfseQM@M?mED"}, "start_location": {"lat": 29.8014508, "lng": -95.4585436}, "travel_mode": "WALKING"}, {"distance": {"text": "0.1 mi", "value": 168}, "duration": {"text": "2 mins", "value": 133}, "end_location": {"lat": 29.8021725, "lng": -95.45703209999999}, "html_instructions": "Turn <b>right</b>", "maneuver": "turn-right", "polyline": {"points": "ky{tDbgseQ@[Ae@?g@ASDKP]d@}@Xq@B]"}, "start_location": {"lat": 29.80261729999999, "lng": -95.45858140000001}, "travel_mode": "WALKING"}, {"distance": {"text": "348 ft", "value": 106}, "duration": {"text": "1 min", "value": 80}, "end_location": {"lat": 29.8024852, "lng": -95.4562641}, "html_instructions": "Turn <b>left</b><div style=\"font-size:0.9em\">Partial restricted usage road</div>", "maneuver": "turn-left", "polyline": {"points": "qv{tDl}reQQOIIOMEKKAQUGGEIAE?C?A@C@EBEV_@"}, "start_location": {"lat": 29.8021725, "lng": -95.45703209999999}, "travel_mode": "WALKING"}, {"distance": {"text": "33 ft", "value": 10}, "duration": {"text": "1 min", "value": 8}, "end_location": {"lat": 29.8025494, "lng": -95.456192}, "html_instructions": "Turn <b>left</b><div style=\"font-size:0.9em\">Restricted usage road</div>", "maneuver": "turn-left", "polyline": {"points": "qx{tDrxreQKM"}, "start_location": {"lat": 29.8024852, "lng": -95.4562641}, "travel_mode": "WALKING"}, {"distance": {"text": "0.1 mi", "value": 201}, "duration": {"text": "2 mins", "value": 144}, "end_location": {"lat": 29.8019199, "lng": -95.45428179999999}, "html_instructions": "Turn <b>right</b><div style=\"font-size:0.9em\">Restricted usage road</div><div style=\"font-size:0.9em\">Destination will be on the left</div>", "maneuver": "turn-right", "polyline": {"points": "}x{tDdxreQNWHMJSRa@Ts@R}@Jy@Hy@?G@Q@a@"}, "start_location": {"lat": 29.8025494, "lng": -95.456192}, "travel_mode": "WALKING"}], "travel_mode": "WALKING"}], "traffic_speed_entry": [], "via_waypoint": []}], "overview_polyline": {"points": "ucxsDxoreQEjCB~@Hr@Lz@nBtGLr@J`ADhBGbBGj@YbBi@~CIjACrB?nDIx@Kx@Sz@[t@[f@TN]p@I^A??B?B@FEh@zCGdDCN??FO?{A@iA@kBDeABaBAeC?{CByJHgKBsEHoAAyBQuASuBs@aBo@_By@_@ScA[sBq@w@OcAKoAGgL@mHAcB@sEBqBDuIHqIFiB@_I@kG@m@IqDCmIHyC?uB@OCS@eC@g@@mADUBYL}F@eHBqA?iBBwGD{IDiPFsGF}HNu@AoAEmC]mCe@iG{AcBc@a@GyAa@]S}C_A_Bk@gCs@u@OkA_@}Ae@qBk@UGQM_Ae@iAc@oDmAoDkAoFgBuC{@eAe@_By@aA[oBOsGDXwBH[[MUA}@CMYH_@\\i@Rw@JMNEHJDNARw@fBKLSHw@F?|CCpBClAj@@nABDmA@i@FkAs@@yCCiBIyB]u@M}@GsCRgJd@{FHcQFgBA@rBB`EBzUBzI@xH@x@?`@E@sATQ@eA@{EDwBAKJwE?eCBkHBuNF_f@Ns@?MIqAAcE@eA@?V?`ATVB?\\G?HBz@@l@G~@[b@@VD~BDzGAlDB`H@pE@nF{IB}C@iB?}KB_KD_I@wLHgP@sIDkED_E@{F@uACeBGqDKeB?cGBkPHoDBwHBuLHuIDeEB@dDD|B?lC?hCiA?e@?iEBmE@_QDsLD}QHcKBkMFkKBeE@aEBqJBaIDiOFYD}@qAi@gAUy@Im@IuBa@?q@H}ARs@JcALiHFeEFaA@kB?y@Gw@IaE?cC@wALwAf@iAr@gGhEgD~B_BvAe@f@i@n@gAxAyAfCy@tAs@`A[^CAC?G@sBjBu@n@a@b@_@V]Nc@JwANqI\\w@BSA{H@cCEa@AeAAB_B@a@@_@FyDRiDL{CLgH@oEAqIAsFIkGmAy_@KuCCoDCqLBqMBqCFwBPkCBe@RwB\\aCd@gCRu@Z{@j@cAr@cAtB{BPWH[Fe@kHBQ?i@Sw@CSKQc@FiJnBA^?b@?BXQ^?f@?pAW?T??`@HDJBJADEJ]DcAFc@d@aA@YGa@ECOGQAMAMFa@\\MD[Bq@@{A?c@?AVC~BA`C?tB?f@sBNa@Bq@?iDDsD@gNJ{HBmEB}B?gFBkABmCBcGD]?gAGi@Mq@]e@Y_@Ui@i@u@q@a@_@g@e@iBpCm@~@sBtCg@z@a@L{@vA]b@Sd@qAvBOQKPKKWASD?sAA_AwFFA}BVi@~@oBB]QOYWEKKAY]GU^o@KMNWTa@Ra@Ts@R}@TsB@Y@a@"}, "summary": "", "warnings": ["Walking directions are in beta. Use caution \u2013 This route may be missing sidewalks or pedestrian paths."], "waypoint_order": []}, {"bounds": {"northeast": {"lat": 29.804135, "lng": -95.3870031}, "southwest": {"lat": 29.6190597, "lng": -95.4548494}}, "copyrights": "Map data \u00a92022 Google", "legs": [{"arrival_time": {"text": "5:19pm", "time_zone": "America/Chicago", "value": 1642029597}, "departure_time": {"text": "3:26pm", "time_zone": "America/Chicago", "value": 1642022797}, "distance": {"text": "20.7 mi", "value": 33319}, "duration": {"text": "1 hour 53 mins", "value": 6800}, "end_address": "4400 W 18th St, Houston, TX 77092, USA", "end_location": {"lat": 29.8019199, "lng": -95.45428179999999}, "start_address": "4900 Simsbrook Dr, Houston, TX 77045, USA", "start_location": {"lat": 29.6199496, "lng": -95.4548494}, "steps": [{"distance": {"text": "1.1 mi", "value": 1762}, "duration": {"text": "22 mins", "value": 1316}, "end_location": {"lat": 29.6208416, "lng": -95.4379269}, "html_instructions": "Walk to White Heather Dr @ Simsbrook Dr", "polyline": {"points": "ucxsDxoreQDg@b@eCVcAVmAHe@FaAB]?oAIcBAS?mADa@@EF[FOLa@@CHc@@AJa@Fc@?IBQ?S@I?M?a@I_AG_@Q{@Qk@i@kBMe@W_ACIMo@SkAG[o@mB?QAC?OQ?ISi@sAGQWq@Si@yAmEYoAMk@ESGWYoAQs@I]?CIa@CSACCUC[?S?Q@c@BO@S@MFk@BSRcBHk@NoAz@aEh@_Cn@?"}, "start_location": {"lat": 29.6199496, "lng": -95.4548494}, "steps": [{"distance": {"text": "1.1 mi", "value": 1735}, "duration": {"text": "22 mins", "value": 1296}, "end_location": {"lat": 29.6210819, "lng": -95.43792909999999}, "html_instructions": "Head <b>east</b> on <b>Simsbrook Dr</b> toward <b>Stancliff</b>", "polyline": {"points": "ucxsDxoreQDg@b@eCVcAVmAHe@FaAB]?oAIcBAS?mADa@@EF[FOLa@@CHc@@AJa@Fc@?IBQ?S@I?M?a@I_AG_@Q{@Qk@i@kBMe@W_ACIMo@SkAG[o@mB?QAC?OQ?ISi@sAGQWq@Si@yAmEYoAMk@ESGWYoAQs@I]?CIa@CSACCUC[?S?Q@c@BO@S@MFk@BSRcBHk@NoAz@aEh@_C"}, "start_location": {"lat": 29.6199496, "lng": -95.4548494}, "travel_mode": "WALKING"}, {"distance": {"text": "89 ft", "value": 27}, "duration": {"text": "1 min", "value": 20}, "end_location": {"lat": 29.6208416, "lng": -95.4379269}, "html_instructions": "Turn <b>right</b> onto <b>White Heather Dr</b><div style=\"font-size:0.9em\">Destination will be on the left</div>", "maneuver": "turn-right", "polyline": {"points": "wjxsD`foeQn@?"}, "start_location": {"lat": 29.6210819, "lng": -95.43792909999999}, "travel_mode": "WALKING"}], "travel_mode": "WALKING"}, {"distance": {"text": "7.8 mi", "value": 12550}, "duration": {"text": "27 mins", "value": 1645}, "end_location": {"lat": 29.704328, "lng": -95.40361999999999}, "html_instructions": "Bus towards TMC TC", "polyline": {"points": "gixsDreoeQ?Lo@?}B@sB@_@?{C@wB@]?wB@[?sC@qB@a@?uC@wC@oA?@bB?j@@tG?J@jA?Z@dC@dDBvF?fBB~A?`A@zB?~@?f@?`@[?g@@kABU?sB@{@?sB@a@@M?Q?oED_FBoB@I?aBBsA?cA?}CBiDBs@?iCBw@?gEBsA?iA@wC@iBBO?eA??_B?KAy@C{@Ce@Ea@ASIs@AGGk@CUMq@Oo@Qq@Om@IUMYOa@UPKJA@EDC@GDEBC@QFC@M?uA@Y@k@?e@?o@?w@?m@@kBBK?a@?oC@O?S?[?@`A?xA@~A?dBBtD?lA?R@XiCB}ABm@?wB@Y?cDBcDBqA?{ABuD@oA@kB?}@A]?[?g@As@@GkAEo@IgAIUAGCOCSAKAKAOAIC[?ACWEc@CS?AAIG[Ia@Mc@Oa@O_@GKCGKSMUIOMQKMA?W]KIeAw@ECGEEAEAMAk@_@YO[OWKUGc@K_@GWEYCSAO?OAu@Cw@Ag@CW?ECCCCAEA_AIa@CSAIAgAICA]CWAKAq@Gw@Mi@KYKg@Qa@SYMQMOKq@c@a@[?AKGUQi@a@KIIGg@_@CCKGs@g@_@Yu@k@_As@{AgACA{@o@MIg@_@QMUOWSSOmA{@_@YUU{B_BeAy@YSgBqAeAw@_Am@m@a@s@e@GAY@_BkAq@g@IGsByAYSy@k@sB{Ac@[KYEGMOc@]MIkB{AGEmAcAc@_@c@[g@[{AeAe@a@USg@]SQ_Ao@KIsDcCSOwA_Ao@c@{AgAEEi@c@UQGGGEEEECCAA?WEKIc@][YKISOIG[Wu@m@AA_@YUQAAq@e@eAu@ECo@e@a@[g@_@y@m@k@a@e@]UQgBsAiA{@SKWQCCu@g@KIg@]QMKI_@YUOSO_Am@_Aq@WQg@_@y@m@sAcAECEEs@g@iAw@[Um@c@i@a@g@]YS}@q@AAsCuBGE{AiAMK_CcB{BcBoCoBaBmAkBuA_BkAGESMGAOIw@g@aAq@YQ_As@QMo@c@cAw@MIQM}AiA]Ya@]KIq@e@[QMKWQg@_@_@WQQ{@m@cAo@{@i@MK_@[[UoBwAQMQM{@m@QMWOaAw@[We@_@SO{@o@i@a@AAKISMe@_@IGMIo@g@i@_@SOyAiAOKMK}AiAGEEEIC_@UQMq@g@g@_@MMaC_BcD_CqCoBcBiAUU][DKHQJUJWFOFOFORg@Re@VaAPgA@W?Q@Q{@CICCCECEGCE?I?I?I@GPm@@G@GAGAECEAACAIAG?eDj@C?E?AACAACCCAEAE?K?QfAOLCREHAAG"}, "start_location": {"lat": 29.620842, "lng": -95.437865}, "transit_details": {"arrival_stop": {"location": {"lat": 29.704328, "lng": -95.40361999999999}, "name": "Texas Medical Center Transit Center"}, "arrival_time": {"text": "4:16pm", "time_zone": "America/Chicago", "value": 1642025760}, "departure_stop": {"location": {"lat": 29.620842, "lng": -95.437865}, "name": "White Heather Dr @ Simsbrook Dr"}, "departure_time": {"text": "3:48pm", "time_zone": "America/Chicago", "value": 1642024115}, "headsign": "TMC TC", "line": {"agencies": [{"name": "Metropolitan Transit Authority of Harris County", "phone": "1 (713) 635-4000", "url": "http://www.ridemetro.org/"}], "color": "#004080", "name": "Hiram Clarke", "short_name": "14", "text_color": "#ffffff", "url": "https://www.ridemetro.org/MetroPDFs/Schedules/BusSchedules/n014-Hiram-Clarke.pdf", "vehicle": {"icon": "//maps.gstatic.com/mapfiles/transit/iw2/6/bus2.png", "name": "Bus", "type": "BUS"}}, "num_stops": 35, "trip_short_name": "HIRAM CLARKE"}, "travel_mode": "TRANSIT"}, {"distance": {"text": "7.7 mi", "value": 12332}, "duration": {"text": "33 mins", "value": 1971}, "end_location": {"lat": 29.803849, "lng": -95.387502}, "html_instructions": "Bus towards Greenspoint TC", "polyline": {"points": "ashtDroheQKcA@?`@Ib@GXEBAB@B@@@FF@B@D@D?R?DC^ANKd@Y`AGT?D?H?@?F@H@FBFBFDDDBFBH@B?`AF?PAVQfAW`ASd@Sf@GNGNGNKVGLCFIPa@UQMMOMKKIIIqAgAyBaBa@[EAAAs@g@[Y]Uo@e@kA{@gBiACAEAMAkBqAk@_@c@[GEa@[o@g@_@[iA{@iAy@[YSSmBsAg@_@c@[ECi@a@_@WwAcAaBmAYSECMI_Am@o@c@{AiAkBsAcBoAWQYSkA{@MKm@c@_@YQOUQaAs@CAgBqAi@_@UQ_@W[Ws@i@w@k@eAw@oEcDiBsAECGEECg@]IG]YOMWUcFqDk@a@}AiAWQy@m@]Yo@e@MICCCCEEGG[[?IAIAEAECIEGCGCGQOECCAKEICICKAE?EAK@CBEDEFCFCH?@?@?@?@OPGDE@I?YF]?iA?aB?g@?e@?W?}@@Y?s@?C?c@?c@@M?c@?S@K?kA?sA?qC@M?m@@oB@Y?}@@A?Q?u@?m@?GECCS?]?e@?Q@G?M?C?G?[?M?I@GAO?]@KJG?E?q@?e@@[?Q?O?I?S?cB?G?g@?i@?S?_@?e@?o@@E?]@aA?w@@o@?Q@eC@Q?qB?w@?wB@k@@Q?}@?kB@oC@Y@i@?_B?a@?_A?_@?k@?e@?[?i@?eCBGESCWAaABc@?O?o@?U?M?[?c@Ba@BK@M@C@G@SDIBe@Nu@Rc@L[JKDMFKDaAPi@DG@Q@U@s@BiA@q@@W@iB?aA@M?e@?]@_A@K?wA@o@@cA@_A?qBBU@uCBu@@g@?c@?c@?_@?c@@cC@e@@yA?a@?_@@_@?yA@]@cA?C@e@@c@@o@BW@K?S@Y?i@DA?Y@Q@I@G@QBG@e@DU@g@@m@@a@?C?mABaB?Y@[?]?W?gAAS?c@?W?_@AWCC?M?C?WAc@@c@?c@GQC[?I?Q?Q?a@BQ@?@Q?A?A?Q@EAA?E?U?A?KAW?e@AqBG_@Ca@AO?o@Cm@?[?u@AoEBQ?]?O?cACYCYA]C_@GUEg@Gg@MA?]KOEu@UQCiBk@s@WSG_@OKEA?aBm@a@OEC[KEAAAYGOEQEA?SEKCGAOCKA_@EkBEk@Ai@?a@?sB@W?QASCQAQCAAi@IQEMCICOG_@OAAMGMG[QMGOKEEIIUOc@_@CCUQACOOu@q@ECq@q@AASSw@u@?AYYUS_@_@WUu@s@IIA??AIGEEKKCAGEGCIGQIQK]OAAYKEAOGWIYGc@IQCQCQAQAE?]CG?M?iAD}@H_@Hq@PgAZSFa@NEBG@GDIBMDC@E@K@Y@Q@Q?K?A?A?A@CBCDU?aB?}CB[?uDBkB@[?K?Q?Q?aA@y@?{@?qA@{A?K?e@@kA@i@@[?gA?g@@E?Y?E?a@?yA@S?m@?Y?uB@S@q@?_@BE?Q?M@w@?MAi@?k@?c@?O?_A@I?M@o@@mB?Y@S?wB@o@@w@?O?Q?}A?k@@i@@}@?c@@y@?wA@mC@Q?oA@Y?U@sB?W@qB?c@@I?yA@m@?cA?W@gB?_@?w@?sA@wA@Q?}@@sAIc@HFa@D]B]@QH?"}, "start_location": {"lat": 29.704328, "lng": -95.40361999999999}, "transit_details": {"arrival_stop": {"location": {"lat": 29.803849, "lng": -95.387502}, "name": "W Cavalcade St @ N Main St"}, "arrival_time": {"text": "4:52pm", "time_zone": "America/Chicago", "value": 1642027971}, "departure_stop": {"location": {"lat": 29.704328, "lng": -95.40361999999999}, "name": "Texas Medical Center Transit Center"}, "departure_time": {"text": "4:20pm", "time_zone": "America/Chicago", "value": 1642026000}, "headsign": "Greenspoint TC", "line": {"agencies": [{"name": "Metropolitan Transit Authority of Harris County", "phone": "1 (713) 635-4000", "url": "http://www.ridemetro.org/"}], "color": "#004080", "name": "Airline / Montrose", "short_name": "56", "text_color": "#ffffff", "url": "https://www.ridemetro.org/MetroPDFs/Schedules/BusSchedules/n056-Airline-Montrose.pdf", "vehicle": {"icon": "//maps.gstatic.com/mapfiles/transit/iw2/6/bus2.png", "name": "Bus", "type": "BUS"}}, "num_stops": 45, "trip_short_name": "AIRLMONT"}, "travel_mode": "TRANSIT"}, {"distance": {"text": "256 ft", "value": 78}, "duration": {"text": "1 min", "value": 77}, "end_location": {"lat": 29.8040987, "lng": -95.3879358}, "html_instructions": "Walk to W Cavalcade St @ N Main St", "polyline": {"points": "ca|tDzjeeQARC\\E\\EROBC?O@DO?A"}, "start_location": {"lat": 29.8038626, "lng": -95.38750189999999}, "steps": [{"distance": {"text": "180 ft", "value": 55}, "duration": {"text": "1 min", "value": 40}, "end_location": {"lat": 29.8040284, "lng": -95.388019}, "html_instructions": "Head <b>west</b> on <b>W Cavalcade St</b> toward <b>N Main St</b>", "polyline": {"points": "ca|tDzjeeQARC\\E\\EROB"}, "start_location": {"lat": 29.8038626, "lng": -95.38750189999999}, "travel_mode": "WALKING"}, {"distance": {"text": "36 ft", "value": 11}, "duration": {"text": "1 min", "value": 18}, "end_location": {"lat": 29.8041286, "lng": -95.38803279999999}, "html_instructions": "Turn <b>right</b> onto <b>N Main St</b>", "maneuver": "turn-right", "polyline": {"points": "eb|tDbneeQC?O@"}, "start_location": {"lat": 29.8040284, "lng": -95.388019}, "travel_mode": "WALKING"}, {"distance": {"text": "39 ft", "value": 12}, "duration": {"text": "1 min", "value": 19}, "end_location": {"lat": 29.8040987, "lng": -95.3879358}, "html_instructions": "Turn <b>right</b> onto <b>W Cavalcade St</b>", "maneuver": "turn-right", "polyline": {"points": "yb|tDdneeQDO?A"}, "start_location": {"lat": 29.8041286, "lng": -95.38803279999999}, "travel_mode": "WALKING"}], "travel_mode": "WALKING"}, {"distance": {"text": "4.0 mi", "value": 6499}, "duration": {"text": "14 mins", "value": 864}, "end_location": {"lat": 29.80163, "lng": -95.454342}, "html_instructions": "Bus towards Memorial City", "polyline": {"points": "wb|tDpmeeQJBA@ETC\\Af@?P?P?LA`@@\\BpA?^@j@?H@tA?n@?b@@b@?X?P?V@`A?v@@dA?V?vA@T?lB@jB@tA?XB|E?~A@zB@nB?V?V@t@?L?R?L@R?N?f@?h@@|@?\\?d@?b@@n@?pA@|B?d@?`@@t@?T?pA@v@@rA?v@@bD@~@?nA@H?tB@^@dC?P?j@@x@?x@?t@@P?dA@|A?\\?^@dC@zB?xA?N@V?fA@`ABfE?tABtJ?pB@rA?r@?H?|@?jB?@?j@@h@AL?\\?J@f@?|B?h@?|@?n@?N?|G?J@tE?d@@dC?p@AL@J?V@P@H?B?D@F@HBH@JDPDLDLDHDJDJHLFHFHLL?@TVTVn@v@NRh@h@NPVX^f@BJBFBFf@v@P`@DZDVBT@F?D@F?H?P@P?X?N?F?j@@pAIpB@f@?V?fA?j@?V@h@AjA?h@@~@?b@@^Af@@d@?X?bA?jA?b@@nC?J?d@Aj@?v@?P@dB?jA?bC?`A?\\@dH?`D?dC@fE?jD?T@`F@vB?jD?vC?X?`E@V@zCAb@?fAAX@fB@fA?T@|B?l@A~A?x@?XAzB?`A?dB?l@?P?F?H@^?Z?@?H?@?Z?h@?f@?j@?^?t@@j@BnAAV@|@@fB?bBG?"}, "start_location": {"lat": 29.804119, "lng": -95.38793299999999}, "transit_details": {"arrival_stop": {"location": {"lat": 29.80163, "lng": -95.454342}, "name": "W 18th St @ Northwest Fwy"}, "arrival_time": {"text": "5:18pm", "time_zone": "America/Chicago", "value": 1642029520}, "departure_stop": {"location": {"lat": 29.804119, "lng": -95.38793299999999}, "name": "W Cavalcade St @ N Main St"}, "departure_time": {"text": "5:04pm", "time_zone": "America/Chicago", "value": 1642028656}, "headsign": "Memorial City", "line": {"agencies": [{"name": "Metropolitan Transit Authority of Harris County", "phone": "1 (713) 635-4000", "url": "http://www.ridemetro.org/"}], "color": "#004080", "name": "Long Point / Cavalcade", "short_name": "26", "text_color": "#ffffff", "url": "https://www.ridemetro.org/MetroPDFs/Schedules/BusSchedules/n026-Long-Point-Cavalcade.pdf", "vehicle": {"icon": "//maps.gstatic.com/mapfiles/transit/iw2/6/bus2.png", "name": "Bus", "type": "BUS"}}, "num_stops": 24, "trip_short_name": "LONGPOINT"}, "travel_mode": "TRANSIT"}, {"distance": {"text": "322 ft", "value": 98}, "duration": {"text": "1 min", "value": 77}, "end_location": {"lat": 29.8019199, "lng": -95.45428179999999}, "html_instructions": "Walk to 4400 W 18th St, Houston, TX 77092, USA", "polyline": {"points": "es{tDrlreQ?z@YEc@E?G@Q@a@"}, "start_location": {"lat": 29.8016264, "lng": -95.454342}, "steps": [{"distance": {"text": "95 ft", "value": 29}, "duration": {"text": "1 min", "value": 22}, "end_location": {"lat": 29.8016252, "lng": -95.45463819999999}, "html_instructions": "Head <b>west</b> on <b>W 18th St</b>/<wbr/><b>NW Mall</b>", "polyline": {"points": "es{tDrlreQ?z@"}, "start_location": {"lat": 29.8016264, "lng": -95.454342}, "travel_mode": "WALKING"}, {"distance": {"text": "131 ft", "value": 40}, "duration": {"text": "1 min", "value": 33}, "end_location": {"lat": 29.8019405, "lng": -95.4545788}, "html_instructions": "Turn <b>right</b><div style=\"font-size:0.9em\">Restricted usage road</div>", "maneuver": "turn-right", "polyline": {"points": "es{tDnnreQYEc@E"}, "start_location": {"lat": 29.8016252, "lng": -95.45463819999999}, "travel_mode": "WALKING"}, {"distance": {"text": "95 ft", "value": 29}, "duration": {"text": "1 min", "value": 22}, "end_location": {"lat": 29.8019199, "lng": -95.45428179999999}, "html_instructions": "Turn <b>right</b><div style=\"font-size:0.9em\">Restricted usage road</div><div style=\"font-size:0.9em\">Destination will be on the left</div>", "maneuver": "turn-right", "polyline": {"points": "cu{tDbnreQ?G@Q@a@"}, "start_location": {"lat": 29.8019405, "lng": -95.4545788}, "travel_mode": "WALKING"}], "travel_mode": "WALKING"}], "traffic_speed_entry": [], "via_waypoint": []}], "overview_polyline": {"points": "ucxsDxoreQh@mDn@qCHe@FaABmBKwB?mADa@Ha@Tq@XkAJsA@WIaBY{A{@wCw@_D[gBo@mB?QASQ?ISq@eBWq@mBwFg@{By@oDWwAEYCo@FyA`@qDX{BdBaIn@??M?Lo@?qFB{D@iHB}LDgF@@nCBhKFjSD|I?hAcA@qGDuDBiPJwKF}[NyBBeA??_BAeAGaBSqBKaA]aBy@oCOa@UPMLWPUHQ@aEBaGDmE@o@?@zCDhM@l@gFFcJDgOHwG?cAAs@@GkAOwBK]K{@UiCa@kBk@uAq@kAq@u@yAcASCeAo@s@[y@SeBSmCG_ACIGkBQiBOsBOaBYaA]}A{@_BiAaEyCgJ}GsImGmGwEiDwBY@_BkA{@o@{HuFc@[Qa@kDsCyBiBmE_DqCsBkH}E{DuCk@e@c@KwAkAgDkCsHqFoEeDyB}AqEaD_EqCyC{BqJ_HsSkOuHuFcBaAmDeCsCsBiDkCsBuAuCwB_CyAm@g@oDiCgDcCiEeDyGaFcCgBaAm@ySeO][DKTg@b@gAf@mAh@iCB{@eAGIGIM?STgA?OEKWEiDj@GAKOAQ?QfAOLC\\GMkAb@IdAMNNBd@En@Kd@a@vA?NBZRXPDdAF?PS~Ak@fB[v@c@dAMXs@c@g@e@wFoEwAeAaGaEICMAkBqAoA{@i@a@cFyDo@m@uCsBsByAyEiDyEeDaGiEuG}EsXgSeO{KeAw@MM[[?ICOEOIOUW_@Oa@GK@IHMZOVMFc@FqF?uC@qEBuPFwB?KIq@?mA@u@?a@?]@KJM?eC@qC?iF@e`@PyJ?oDB[ImC@oB?_BJi@L{C|@YLmAVyAJgLJ}ZV}MHyFL_BFu@HkBJaDDmI?}BGgA@u@KiA?aBF{EKaCIoI@cCCqBQgB[uBk@qE{AqCcAgBg@w@OcEOwE@iAKkAU{@]eAi@u@k@}DqDuDqDaB{Ak@[kAi@gA[yAS}@EwAD}ARoDdA_@Nc@JiABE@GHwB?{MHkA?cNF}FBuD@{EF}A@gCAsHFuLFg]NyMD}@@sAIc@HFa@H{@@QH?CRIz@EROBS@DQF@GVEdAArAFzDBzGPhf@Xbu@Prb@Fnd@@lU@pEBv@F`@Rx@Zn@\\b@|DpEb@r@FNf@v@P`@Jr@Fj@@fA@tCGxC?~A?xDBlD@vLDjv@BnZ@pG?`HA~L@xC?hDDpE@jEG??z@YEc@E?GBs@"}, "summary": "", "warnings": ["Walking directions are in beta. Use caution \u2013 This route may be missing sidewalks or pedestrian paths."], "waypoint_order": []}], "status": "OK"}