{"geocoded_waypoints": [{"geocoder_status": "OK", "place_id": "ChIJ0R1PujjCQIYRe3RoTtjJuyw", "types": ["establishment", "point_of_interest", "school"]}, {"geocoder_status": "OK", "place_id": "ChIJ9_tphxzHQIYRIMyPy_d3VZU", "types": ["establishment", "point_of_interest"]}], "routes": [{"bounds": {"northeast": {"lat": 29.803817, "lng": -95.45426839999999}, "southwest": {"lat": 29.7052583, "lng": -95.50118599999999}}, "copyrights": "Map data \u00a92022", "legs": [{"arrival_time": {"text": "4:51pm", "time_zone": "America/Chicago", "value": 1642027884}, "departure_time": {"text": "3:36pm", "time_zone": "America/Chicago", "value": 1642023414}, "distance": {"text": "10.9 mi", "value": 17484}, "duration": {"text": "1 hour 15 mins", "value": 4470}, "end_address": "4400 W 18th St, Houston, TX 77092, USA", "end_location": {"lat": 29.8019199, "lng": -95.45428179999999}, "start_address": "6501 Bellaire Blvd, Houston, TX 77074, USA", "start_location": {"lat": 29.7052786, "lng": -95.4977198}, "steps": [{"distance": {"text": "0.3 mi", "value": 471}, "duration": {"text": "6 mins", "value": 365}, "end_location": {"lat": 29.7052678, "lng": -95.4929247}, "html_instructions": "Walk to Hillcroft Ave @ Bellaire Blvd", "polyline": {"points": "_yhtDv{zeQ?F?Q?G?eAAOAoE?cBA_B?aB?kA?aCEMAeA?O@]?OLA"}, "start_location": {"lat": 29.7052786, "lng": -95.4977198}, "steps": [{"distance": {"text": "0.3 mi", "value": 460}, "duration": {"text": "6 mins", "value": 347}, "end_location": {"lat": 29.705335, "lng": -95.4929265}, "html_instructions": "Head <b>east</b> on <b>Bellaire Blvd</b> toward <b>Rookin St</b>", "polyline": {"points": "_yhtDv{zeQ?F?Q?G?eAAOAoE?cBA_B?aB?kA?aCEMAeA?O@]?O"}, "start_location": {"lat": 29.7052786, "lng": -95.4977198}, "travel_mode": "WALKING"}, {"distance": {"text": "36 ft", "value": 11}, "duration": {"text": "1 min", "value": 18}, "end_location": {"lat": 29.7052678, "lng": -95.4929247}, "html_instructions": "Turn <b>right</b> onto <b>Hillcroft Ave</b>", "maneuver": "turn-right", "polyline": {"points": "kyhtDx}yeQLA"}, "start_location": {"lat": 29.705335, "lng": -95.4929265}, "travel_mode": "WALKING"}], "travel_mode": "WALKING"}, {"distance": {"text": "8.1 mi", "value": 12989}, "duration": {"text": "41 mins", "value": 2460}, "end_location": {"lat": 29.783077, "lng": -95.455467}, "html_instructions": "Bus towards Northwest TC", "polyline": {"points": "{xhtDn}yeQ?PU?_@@{AAsA@oBBU@O?UAm@A_A@eA?e@@M?M?c@@u@@C?G?MAi@AM@yA@q@@C?]BoALYFSDu@PeA^EBs@\\_@ROJSLIFQLIFa@\\UTmAxAs@x@]\\KLQR?@ONCD_@h@WZe@l@KNSTUXQPMNMPWXOTIJ_@b@iArAKNQRKLg@l@_@\\YVWVc@j@IJIJQRMPKJABQRABA?A@GHEFCBWZ[\\SV[^q@x@MN_@X[PMHULSJYJUFkAVMDUDQDs@FY@S@uAD_C?mABaA?mA?mBB_A?S?A?g@?cDBaB?M?Y@{A?c@?gA@a@@c@?qA?u@?i@?o@@m@?wA@mA@o@?A?s@@w@?_B@kBB_A?q@@_@?eA@i@?]?m@@[?a@?s@@aA@aAAeABS?y@@i@Ag@AG?QAu@CKAKA_@GMCSEKCk@IKCUAIAKAKAI?a@EMAGCC?KAO?MAa@?S?{@@C?i@@cA?_@@m@?a@?eB?}@?I?WAgA@Y@aAA{ABcA?I?sC@]?kA@_@?E?C?K?yABo@?MAkCBw@@g@?a@?YA]?M?i@@]?O@q@?I?m@?gA@{BBiE?iBB{A@eE?}ADG?yABW?WA_@@a@?sA?kA?gBAk@@sA@]@y@@o@?k@?GIAAC?MEGAEAMEICSIKEGEQK[Oa@m@CC[e@IMS[?AEIEIKWWy@WsAe@aCUoAES_@qBGYKk@o@mDQ}@GUCOY{AScAI]y@qE]gBY{A]kBUgAG_@i@uCk@{CKg@ACGe@G[Gi@?CGo@AOASc@iFC_@WuCG}@CUC[AWW{CEc@Ku@I[GSISIQOYQW[c@iAmAwAiBc@i@{@{@QSm@o@gAsACE_@c@SYyAaBi@k@IKs@w@s@y@KM]a@WYq@_AKQGKAAO[O]Qs@CEEYCSC_@C_@Aa@?S?Q?y@Ay@?uA?ICcEAcD?]AaFC}DCY@Y@O?S@G?G@IB[Fc@F[Nk@JYLa@FQNc@Ja@He@Ho@B]B_@@S@Y?Y?g@?Y?aB@W@SFw@F_@?AH_@Tu@Tg@b@w@LW@?Pc@FQJUFUHWBMFYBS@E@G@Q?IBS?Q@M?OAq@?i@?]AoAAwB?AAY?KAEA]?CAICOE[Kc@Ma@CGGOGQEGIOEISYUYCCYYa@g@QS?AOQIMMYA?Wk@I[IYIc@?CEWCUCQCe@KyAI{@CQEQEOKYUs@Ue@}AiDUi@KW_@y@QLSBY@c@?u@@m@@eCB}DDsCAK?U?}B@_A@yA@wEBeBBU?e@AW?cDBI?K?k@?U@?o@?WAO?qAA_@?UY@oA?]?A?A?G?G?SAEAWAO?Y?c@?c@@gA@a@?kB@c@@aB@m@@}@?kB?c@??RiA?eBDcB?kA@sA@A??@gA?gFDkHBQ?i@Sw@CSKISGOB_B?yA?i@BeCX?V?\\A^?\\?@?b@?BXQ^?f@?j@?d@W?"}, "start_location": {"lat": 29.70526, "lng": -95.492881}, "transit_details": {"arrival_stop": {"location": {"lat": 29.783077, "lng": -95.455467}, "name": "Northwest Transit Center - South Platform"}, "arrival_time": {"text": "4:24pm", "time_zone": "America/Chicago", "value": 1642026240}, "departure_stop": {"location": {"lat": 29.70526, "lng": -95.492881}, "name": "Hillcroft Ave @ Bellaire Blvd"}, "departure_time": {"text": "3:43pm", "time_zone": "America/Chicago", "value": 1642023780}, "headsign": "Northwest TC", "line": {"agencies": [{"name": "Metropolitan Transit Authority of Harris County", "phone": "1 (713) 635-4000", "url": "http://www.ridemetro.org/"}], "color": "#004080", "name": "Hillcroft", "short_name": "47", "text_color": "#ffffff", "url": "https://www.ridemetro.org/MetroPDFs/Schedules/BusSchedules/n047-Hillcroft.pdf", "vehicle": {"icon": "//maps.gstatic.com/mapfiles/transit/iw2/6/bus2.png", "name": "Bus", "type": "BUS"}}, "num_stops": 38, "trip_short_name": "HILLCROFT"}, "travel_mode": "TRANSIT"}, {"distance": {"text": "0.2 mi", "value": 263}, "duration": {"text": "3 mins", "value": 192}, "end_location": {"lat": 29.7837801, "lng": -95.4554653}, "html_instructions": "Walk to Northwest Transit Center - North Platform", "polyline": {"points": "_}wtDtqreQDUBODIK@]MMMECOKICKAK@E?U?E?_@@m@?AxAAX?f@"}, "start_location": {"lat": 29.7827161, "lng": -95.4551537}, "steps": [{"distance": {"text": "121 ft", "value": 37}, "duration": {"text": "1 min", "value": 26}, "end_location": {"lat": 29.78264219999999, "lng": -95.4549134}, "html_instructions": "Head <b>east</b>", "polyline": {"points": "_}wtDtqreQDUBODI"}, "start_location": {"lat": 29.7827161, "lng": -95.4551537}, "travel_mode": "WALKING"}, {"distance": {"text": "482 ft", "value": 147}, "duration": {"text": "2 mins", "value": 109}, "end_location": {"lat": 29.7837613, "lng": -95.45468609999999}, "html_instructions": "Sharp <b>left</b> toward <b>Old Katy Rd</b>", "maneuver": "turn-sharp-left", "polyline": {"points": "o|wtDdpreQK@]MMMECOKICKAK@E?U?E?_@@m@?"}, "start_location": {"lat": 29.78264219999999, "lng": -95.4549134}, "travel_mode": "WALKING"}, {"distance": {"text": "259 ft", "value": 79}, "duration": {"text": "1 min", "value": 57}, "end_location": {"lat": 29.7837801, "lng": -95.4554653}, "html_instructions": "Turn <b>left</b> onto <b>Old Katy Rd</b>", "maneuver": "turn-left", "polyline": {"points": "ocxtDxnreQAxAAX?f@"}, "start_location": {"lat": 29.7837613, "lng": -95.45468609999999}, "travel_mode": "WALKING"}], "travel_mode": "WALKING"}, {"distance": {"text": "2.0 mi", "value": 3143}, "duration": {"text": "9 mins", "value": 523}, "end_location": {"lat": 29.803817, "lng": -95.458625}, "html_instructions": "Bus towards Dacoma Shuttle", "polyline": {"points": "w~wtDvwreQRwAF@D?DABA@CDIDSB[@g@BUBM@AN]FGJY@K?MCUCKCCA?OGQAGAE?E@GDQJOPMD[BY@W?aAAY@c@?AVAzAAb@?f@?L?ZAn@?`B?R?f@sBNO@Q@Y?W?K@wA@y@@K?u@?wA@U?O?}@@I?Y?_@?_@@oA@oD@eABM?A?a@?c@?qA@W?w@?cA@s@?c@@_@?uA@a@?OAY?q@@c@?_@?[@cA@a@?U?G?C?E?]@S?S@]@c@?}@@M?w@@]?mA@_B@W?E?e@Aa@EQEWG[OUM[QIG_@Ui@i@e@_@OQQQOMCCc@a@MR{A|BU\\W`@sBtCg@z@a@L{@vA]b@Sd@w@lAYh@OVk@r@Yj@EsB?]@aAAU?a@[@uEDaA@gAD_A@e@??I"}, "start_location": {"lat": 29.7830001, "lng": -95.4561157}, "transit_details": {"arrival_stop": {"location": {"lat": 29.803817, "lng": -95.458625}, "name": "Mangum Rd @ W 20th St"}, "arrival_time": {"text": "4:43pm", "time_zone": "America/Chicago", "value": 1642027423}, "departure_stop": {"location": {"lat": 29.7830001, "lng": -95.4561157}, "name": "Northwest Transit Center - North Platform"}, "departure_time": {"text": "4:35pm", "time_zone": "America/Chicago", "value": 1642026900}, "headsign": "Dacoma Shuttle", "line": {"agencies": [{"name": "Metropolitan Transit Authority of Harris County", "phone": "1 (713) 635-4000", "url": "http://www.ridemetro.org/"}], "color": "#004080", "name": "Dacoma", "short_name": "89", "text_color": "#ffffff", "url": "https://www.ridemetro.org/MetroPDFs/Schedules/BusSchedules/n089-Dacoma.pdf", "vehicle": {"icon": "//maps.gstatic.com/mapfiles/transit/iw2/6/bus2.png", "name": "Bus", "type": "BUS"}}, "num_stops": 9, "trip_short_name": "DACOMA"}, "travel_mode": "TRANSIT"}, {"distance": {"text": "0.4 mi", "value": 618}, "duration": {"text": "8 mins", "value": 461}, "end_location": {"lat": 29.8019199, "lng": -95.45428179999999}, "html_instructions": "Walk to 4400 W 18th St, Houston, TX 77092, USA", "polyline": {"points": "{`|tDlgseQd@A~@AdACbAA@[Ae@?g@ASDKP]d@}@Xq@B]QOIIOMEKKAQUGGEIAE?C?A@C@EBEV_@KMNWHMJSRa@Ts@R}@Jy@Hy@?G@Q@a@"}, "start_location": {"lat": 29.8038169, "lng": -95.458628}, "steps": [{"distance": {"text": "436 ft", "value": 133}, "duration": {"text": "2 mins", "value": 96}, "end_location": {"lat": 29.80261729999999, "lng": -95.45858140000001}, "html_instructions": "Head <b>south</b> on <b>Mangum Rd</b>", "polyline": {"points": "{`|tDlgseQd@A~@AdACbAA"}, "start_location": {"lat": 29.8038169, "lng": -95.458628}, "travel_mode": "WALKING"}, {"distance": {"text": "0.1 mi", "value": 168}, "duration": {"text": "2 mins", "value": 133}, "end_location": {"lat": 29.8021725, "lng": -95.45703209999999}, "html_instructions": "Turn <b>left</b>", "maneuver": "turn-left", "polyline": {"points": "ky{tDbgseQ@[Ae@?g@ASDKP]d@}@Xq@B]"}, "start_location": {"lat": 29.80261729999999, "lng": -95.45858140000001}, "travel_mode": "WALKING"}, {"distance": {"text": "348 ft", "value": 106}, "duration": {"text": "1 min", "value": 80}, "end_location": {"lat": 29.8024852, "lng": -95.4562641}, "html_instructions": "Turn <b>left</b><div style=\"font-size:0.9em\">Partial restricted usage road</div>", "maneuver": "turn-left", "polyline": {"points": "qv{tDl}reQQOIIOMEKKAQUGGEIAE?C?A@C@EBEV_@"}, "start_location": {"lat": 29.8021725, "lng": -95.45703209999999}, "travel_mode": "WALKING"}, {"distance": {"text": "33 ft", "value": 10}, "duration": {"text": "1 min", "value": 8}, "end_location": {"lat": 29.8025494, "lng": -95.456192}, "html_instructions": "Turn <b>left</b><div style=\"font-size:0.9em\">Restricted usage road</div>", "maneuver": "turn-left", "polyline": {"points": "qx{tDrxreQKM"}, "start_location": {"lat": 29.8024852, "lng": -95.4562641}, "travel_mode": "WALKING"}, {"distance": {"text": "0.1 mi", "value": 201}, "duration": {"text": "2 mins", "value": 144}, "end_location": {"lat": 29.8019199, "lng": -95.45428179999999}, "html_instructions": "Turn <b>right</b><div style=\"font-size:0.9em\">Restricted usage road</div><div style=\"font-size:0.9em\">Destination will be on the left</div>", "maneuver": "turn-right", "polyline": {"points": "}x{tDdxreQNWHMJSRa@Ts@R}@Jy@Hy@?G@Q@a@"}, "start_location": {"lat": 29.8025494, "lng": -95.456192}, "travel_mode": "WALKING"}], "travel_mode": "WALKING"}], "traffic_speed_entry": [], "via_waypoint": []}], "overview_polyline": {"points": "_yhtDv{zeQ?F?Q?mAEcL?mD?aCEMAuA@m@LA@G?PU?{B?cEDe@@cACyDBkBBmAAmDFiBTiAVkAb@sAp@_An@aAz@kD~De@j@iBbCiC~CgCzCs@z@y@t@oAzAm@t@aAjA}BnCm@h@i@Zi@Xo@RaCh@mAHiBF}IB_OFoLDy[PgKFmA@qAC{AGgDg@gBQkAC}BBsD@eEAaBB}C@_G@yGBmGDoB?ePFeEDeE?}ADaBBo@AaF@sC?qBBiB@k@?GIEAUGq@UaAg@kAeB_@q@c@qA}@uEcAoFqC{NcG{[]mBQmBsA{P]_EUqAQg@Yk@m@{@aDwD_BeB_AcA_CwCaEqEuBcCgA_B_@y@Uy@Im@G_AAu@?kAE}IGaRAs@@c@Fu@N_AZeAp@yBRuAF}@BoBBgDNwAHa@Tu@Tg@p@oAf@kA\\uAHs@D}@GmJCs@WyAa@kAi@{@uA_Bk@u@OYa@gAYyAWgDMmAKa@a@mAsBoEa@aA_@y@QLm@DyA@sDD}DDsCAa@?}DBmLHkF@w@?U@?o@Ag@AqB?UY@mB?S?aAE}LH{F@?RiA?iED_DBA@mRHi@Sw@CSKISGOB_B?cCBeCX?t@AbB?BXQ^?rA?d@W?fA_ADUHYK@]MSQYOs@?e@@m@?AxAA`AzC`CRwAL@HCFMHo@D}@DOVe@Le@Cc@GOQGYCK@YPOPMDu@DwC?E~DAzD?z@cCPoABoKFcB@sIFaJB{HBiEBkGHcFBk@As@Ks@Wq@_@i@]oAiAu@u@c@a@MRqBzCkCvDg@z@a@L{@vA]b@Sd@w@lAi@`Ak@r@Yj@EqC?wA?a@[@wGFgCFe@??Id@?dCEbAA@[AmAB_@v@{AXq@B][YUYKAQUMQAIFQV_@KMXe@^u@Ts@^wBHaABs@"}, "summary": "", "warnings": ["Walking directions are in beta. Use caution \u2013 This route may be missing sidewalks or pedestrian paths."], "waypoint_order": []}, {"bounds": {"northeast": {"lat": 29.8026444, "lng": -95.45426839999999}, "southwest": {"lat": 29.7052583, "lng": -95.50118599999999}}, "copyrights": "Map data \u00a92022", "legs": [{"arrival_time": {"text": "4:49pm", "time_zone": "America/Chicago", "value": 1642027775}, "departure_time": {"text": "3:36pm", "time_zone": "America/Chicago", "value": 1642023414}, "distance": {"text": "10.6 mi", "value": 17139}, "duration": {"text": "1 hour 13 mins", "value": 4361}, "end_address": "4400 W 18th St, Houston, TX 77092, USA", "end_location": {"lat": 29.8019199, "lng": -95.45428179999999}, "start_address": "6501 Bellaire Blvd, Houston, TX 77074, USA", "start_location": {"lat": 29.7052786, "lng": -95.4977198}, "steps": [{"distance": {"text": "0.3 mi", "value": 471}, "duration": {"text": "6 mins", "value": 365}, "end_location": {"lat": 29.7052678, "lng": -95.4929247}, "html_instructions": "Walk to Hillcroft Ave @ Bellaire Blvd", "polyline": {"points": "_yhtDv{zeQ?F?Q?G?eAAOAoE?cBA_B?aB?kA?aCEMAeA?O@]?OLA"}, "start_location": {"lat": 29.7052786, "lng": -95.4977198}, "steps": [{"distance": {"text": "0.3 mi", "value": 460}, "duration": {"text": "6 mins", "value": 347}, "end_location": {"lat": 29.705335, "lng": -95.4929265}, "html_instructions": "Head <b>east</b> on <b>Bellaire Blvd</b> toward <b>Rookin St</b>", "polyline": {"points": "_yhtDv{zeQ?F?Q?G?eAAOAoE?cBA_B?aB?kA?aCEMAeA?O@]?O"}, "start_location": {"lat": 29.7052786, "lng": -95.4977198}, "travel_mode": "WALKING"}, {"distance": {"text": "36 ft", "value": 11}, "duration": {"text": "1 min", "value": 18}, "end_location": {"lat": 29.7052678, "lng": -95.4929247}, "html_instructions": "Turn <b>right</b> onto <b>Hillcroft Ave</b>", "maneuver": "turn-right", "polyline": {"points": "kyhtDx}yeQLA"}, "start_location": {"lat": 29.705335, "lng": -95.4929265}, "travel_mode": "WALKING"}], "travel_mode": "WALKING"}, {"distance": {"text": "8.1 mi", "value": 12989}, "duration": {"text": "41 mins", "value": 2460}, "end_location": {"lat": 29.783077, "lng": -95.455467}, "html_instructions": "Bus towards Northwest TC", "polyline": {"points": "{xhtDn}yeQ?PU?_@@{AAsA@oBBU@O?UAm@A_A@eA?e@@M?M?c@@u@@C?G?MAi@AM@yA@q@@C?]BoALYFSDu@PeA^EBs@\\_@ROJSLIFQLIFa@\\UTmAxAs@x@]\\KLQR?@ONCD_@h@WZe@l@KNSTUXQPMNMPWXOTIJ_@b@iArAKNQRKLg@l@_@\\YVWVc@j@IJIJQRMPKJABQRABA?A@GHEFCBWZ[\\SV[^q@x@MN_@X[PMHULSJYJUFkAVMDUDQDs@FY@S@uAD_C?mABaA?mA?mBB_A?S?A?g@?cDBaB?M?Y@{A?c@?gA@a@@c@?qA?u@?i@?o@@m@?wA@mA@o@?A?s@@w@?_B@kBB_A?q@@_@?eA@i@?]?m@@[?a@?s@@aA@aAAeABS?y@@i@Ag@AG?QAu@CKAKA_@GMCSEKCk@IKCUAIAKAKAI?a@EMAGCC?KAO?MAa@?S?{@@C?i@@cA?_@@m@?a@?eB?}@?I?WAgA@Y@aAA{ABcA?I?sC@]?kA@_@?E?C?K?yABo@?MAkCBw@@g@?a@?YA]?M?i@@]?O@q@?I?m@?gA@{BBiE?iBB{A@eE?}ADG?yABW?WA_@@a@?sA?kA?gBAk@@sA@]@y@@o@?k@?GIAAC?MEGAEAMEICSIKEGEQK[Oa@m@CC[e@IMS[?AEIEIKWWy@WsAe@aCUoAES_@qBGYKk@o@mDQ}@GUCOY{AScAI]y@qE]gBY{A]kBUgAG_@i@uCk@{CKg@ACGe@G[Gi@?CGo@AOASc@iFC_@WuCG}@CUC[AWW{CEc@Ku@I[GSISIQOYQW[c@iAmAwAiBc@i@{@{@QSm@o@gAsACE_@c@SYyAaBi@k@IKs@w@s@y@KM]a@WYq@_AKQGKAAO[O]Qs@CEEYCSC_@C_@Aa@?S?Q?y@Ay@?uA?ICcEAcD?]AaFC}DCY@Y@O?S@G?G@IB[Fc@F[Nk@JYLa@FQNc@Ja@He@Ho@B]B_@@S@Y?Y?g@?Y?aB@W@SFw@F_@?AH_@Tu@Tg@b@w@LW@?Pc@FQJUFUHWBMFYBS@E@G@Q?IBS?Q@M?OAq@?i@?]AoAAwB?AAY?KAEA]?CAICOE[Kc@Ma@CGGOGQEGIOEISYUYCCYYa@g@QS?AOQIMMYA?Wk@I[IYIc@?CEWCUCQCe@KyAI{@CQEQEOKYUs@Ue@}AiDUi@KW_@y@QLSBY@c@?u@@m@@eCB}DDsCAK?U?}B@_A@yA@wEBeBBU?e@AW?cDBI?K?k@?U@?o@?WAO?qAA_@?UY@oA?]?A?A?G?G?SAEAWAO?Y?c@?c@@gA@a@?kB@c@@aB@m@@}@?kB?c@??RiA?eBDcB?kA@sA@A??@gA?gFDkHBQ?i@Sw@CSKISGOB_B?yA?i@BeCX?V?\\A^?\\?@?b@?BXQ^?f@?j@?d@W?"}, "start_location": {"lat": 29.70526, "lng": -95.492881}, "transit_details": {"arrival_stop": {"location": {"lat": 29.783077, "lng": -95.455467}, "name": "Northwest Transit Center - South Platform"}, "arrival_time": {"text": "4:24pm", "time_zone": "America/Chicago", "value": 1642026240}, "departure_stop": {"location": {"lat": 29.70526, "lng": -95.492881}, "name": "Hillcroft Ave @ Bellaire Blvd"}, "departure_time": {"text": "3:43pm", "time_zone": "America/Chicago", "value": 1642023780}, "headsign": "Northwest TC", "line": {"agencies": [{"name": "Metropolitan Transit Authority of Harris County", "phone": "1 (713) 635-4000", "url": "http://www.ridemetro.org/"}], "color": "#004080", "name": "Hillcroft", "short_name": "47", "text_color": "#ffffff", "url": "https://www.ridemetro.org/MetroPDFs/Schedules/BusSchedules/n047-Hillcroft.pdf", "vehicle": {"icon": "//maps.gstatic.com/mapfiles/transit/iw2/6/bus2.png", "name": "Bus", "type": "BUS"}}, "num_stops": 38, "trip_short_name": "HILLCROFT"}, "travel_mode": "TRANSIT"}, {"distance": {"text": "0.2 mi", "value": 263}, "duration": {"text": "3 mins", "value": 192}, "end_location": {"lat": 29.7837801, "lng": -95.4554653}, "html_instructions": "Walk to Northwest Transit Center - North Platform", "polyline": {"points": "_}wtDtqreQDUBODIK@]MMMECOKICKAK@E?U?E?_@@m@?AxAAX?f@"}, "start_location": {"lat": 29.7827161, "lng": -95.4551537}, "steps": [{"distance": {"text": "121 ft", "value": 37}, "duration": {"text": "1 min", "value": 26}, "end_location": {"lat": 29.78264219999999, "lng": -95.4549134}, "html_instructions": "Head <b>east</b>", "polyline": {"points": "_}wtDtqreQDUBODI"}, "start_location": {"lat": 29.7827161, "lng": -95.4551537}, "travel_mode": "WALKING"}, {"distance": {"text": "482 ft", "value": 147}, "duration": {"text": "2 mins", "value": 109}, "end_location": {"lat": 29.7837613, "lng": -95.45468609999999}, "html_instructions": "Sharp <b>left</b> toward <b>Old Katy Rd</b>", "maneuver": "turn-sharp-left", "polyline": {"points": "o|wtDdpreQK@]MMMECOKICKAK@E?U?E?_@@m@?"}, "start_location": {"lat": 29.78264219999999, "lng": -95.4549134}, "travel_mode": "WALKING"}, {"distance": {"text": "259 ft", "value": 79}, "duration": {"text": "1 min", "value": 57}, "end_location": {"lat": 29.7837801, "lng": -95.4554653}, "html_instructions": "Turn <b>left</b> onto <b>Old Katy Rd</b>", "maneuver": "turn-left", "polyline": {"points": "ocxtDxnreQAxAAX?f@"}, "start_location": {"lat": 29.7837613, "lng": -95.45468609999999}, "travel_mode": "WALKING"}], "travel_mode": "WALKING"}, {"distance": {"text": "1.7 mi", "value": 2678}, "duration": {"text": "7 mins", "value": 408}, "end_location": {"lat": 29.801027, "lng": -95.45922999999999}, "html_instructions": "Bus towards Greenspoint TC", "polyline": {"points": "w~wtDvwreQRwAF@D?DABA@CDIDSB[@g@BUBM@AN]FGJY@K?MCUCKCCA?OGQAGAE?E@GDQJOPMD[BY@W?aAAY@c@?AVAzAAb@?f@?L?ZAn@?`B?R?f@sBNO@Q@Y?W?K@wA@y@@K?u@?wA@U?O?}@@I?Y?_@?_@@oA@oD@eABM?A?a@?c@?qA@W?w@?cA@s@?c@@_@?uA@a@?OAY?q@@c@?_@?[@cA@a@?U?G?C?E?]@S?S@]@c@?}@@M?w@@]?mA@_B@W?E?e@Aa@EQEWG[OUM[QIG_@Ui@i@e@_@OQQQOMCCc@a@MR{A|BU\\W`@sBtCg@z@a@L{@vA]b@Sd@w@lAYh@OQ"}, "start_location": {"lat": 29.7830001, "lng": -95.4561157}, "transit_details": {"arrival_stop": {"location": {"lat": 29.801027, "lng": -95.45922999999999}, "name": "Hempstead Rd @ W 18th St"}, "arrival_time": {"text": "4:39pm", "time_zone": "America/Chicago", "value": 1642027188}, "departure_stop": {"location": {"lat": 29.7830001, "lng": -95.4561157}, "name": "Northwest Transit Center - North Platform"}, "departure_time": {"text": "4:33pm", "time_zone": "America/Chicago", "value": 1642026780}, "headsign": "Greenspoint TC", "line": {"agencies": [{"name": "Metropolitan Transit Authority of Harris County", "phone": "1 (713) 635-4000", "url": "http://www.ridemetro.org/"}], "color": "#004080", "name": "Antoine / Washington", "short_name": "85", "text_color": "#ffffff", "url": "https://www.ridemetro.org/MetroPDFs/Schedules/BusSchedules/n085-Antoine-Washington.pdf", "vehicle": {"icon": "//maps.gstatic.com/mapfiles/transit/iw2/6/bus2.png", "name": "Bus", "type": "BUS"}}, "num_stops": 8, "trip_short_name": "ANTOINWAS"}, "travel_mode": "TRANSIT"}, {"distance": {"text": "0.5 mi", "value": 738}, "duration": {"text": "10 mins", "value": 587}, "end_location": {"lat": 29.8019199, "lng": -95.45428179999999}, "html_instructions": "Walk to 4400 W 18th St, Houston, TX 77092, USA", "polyline": {"points": "mo{tDdkseQKPKKKAK?I@IB?Q?aA?M?QAO?OM?M@M?mED@[Ae@?g@ASDKP]d@}@Xq@B]QOIIOMEKKAQUGGEIAE?C?A@C@EBEV_@KMNWHMJSRa@Ts@R}@Jy@Hy@?G@Q@a@"}, "start_location": {"lat": 29.8010254, "lng": -95.4592253}, "steps": [{"distance": {"text": "49 ft", "value": 15}, "duration": {"text": "1 min", "value": 11}, "end_location": {"lat": 29.8011512, "lng": -95.4592626}, "html_instructions": "Head <b>northwest</b>", "polyline": {"points": "mo{tDdkseQKPKK"}, "start_location": {"lat": 29.8010254, "lng": -95.4592253}, "travel_mode": "WALKING"}, {"distance": {"text": "102 ft", "value": 31}, "duration": {"text": "1 min", "value": 23}, "end_location": {"lat": 29.8013705, "lng": -95.4592806}, "html_instructions": "Turn <b>right</b> toward <b>W 18th St</b>", "maneuver": "turn-right", "polyline": {"points": "ep{tDjkseQKAK?I@IB"}, "start_location": {"lat": 29.8011512, "lng": -95.4592626}, "travel_mode": "WALKING"}, {"distance": {"text": "240 ft", "value": 73}, "duration": {"text": "1 min", "value": 61}, "end_location": {"lat": 29.8014508, "lng": -95.4585436}, "html_instructions": "Turn <b>right</b> onto <b>W 18th St</b>", "maneuver": "turn-right", "polyline": {"points": "qq{tDnkseQ?Q?aA?M?QAO?OM?"}, "start_location": {"lat": 29.8013705, "lng": -95.4592806}, "travel_mode": "WALKING"}, {"distance": {"text": "440 ft", "value": 134}, "duration": {"text": "2 mins", "value": 127}, "end_location": {"lat": 29.80261729999999, "lng": -95.45858140000001}, "html_instructions": "Turn <b>left</b> onto <b>Mangum Rd</b>", "maneuver": "turn-left", "polyline": {"points": "ar{tDzfseQM@M?mED"}, "start_location": {"lat": 29.8014508, "lng": -95.4585436}, "travel_mode": "WALKING"}, {"distance": {"text": "0.1 mi", "value": 168}, "duration": {"text": "2 mins", "value": 133}, "end_location": {"lat": 29.8021725, "lng": -95.45703209999999}, "html_instructions": "Turn <b>right</b>", "maneuver": "turn-right", "polyline": {"points": "ky{tDbgseQ@[Ae@?g@ASDKP]d@}@Xq@B]"}, "start_location": {"lat": 29.80261729999999, "lng": -95.45858140000001}, "travel_mode": "WALKING"}, {"distance": {"text": "348 ft", "value": 106}, "duration": {"text": "1 min", "value": 80}, "end_location": {"lat": 29.8024852, "lng": -95.4562641}, "html_instructions": "Turn <b>left</b><div style=\"font-size:0.9em\">Partial restricted usage road</div>", "maneuver": "turn-left", "polyline": {"points": "qv{tDl}reQQOIIOMEKKAQUGGEIAE?C?A@C@EBEV_@"}, "start_location": {"lat": 29.8021725, "lng": -95.45703209999999}, "travel_mode": "WALKING"}, {"distance": {"text": "33 ft", "value": 10}, "duration": {"text": "1 min", "value": 8}, "end_location": {"lat": 29.8025494, "lng": -95.456192}, "html_instructions": "Turn <b>left</b><div style=\"font-size:0.9em\">Restricted usage road</div>", "maneuver": "turn-left", "polyline": {"points": "qx{tDrxreQKM"}, "start_location": {"lat": 29.8024852, "lng": -95.4562641}, "travel_mode": "WALKING"}, {"distance": {"text": "0.1 mi", "value": 201}, "duration": {"text": "2 mins", "value": 144}, "end_location": {"lat": 29.8019199, "lng": -95.45428179999999}, "html_instructions": "Turn <b>right</b><div style=\"font-size:0.9em\">Restricted usage road</div><div style=\"font-size:0.9em\">Destination will be on the left</div>", "maneuver": "turn-right", "polyline": {"points": "}x{tDdxreQNWHMJSRa@Ts@R}@Jy@Hy@?G@Q@a@"}, "start_location": {"lat": 29.8025494, "lng": -95.456192}, "travel_mode": "WALKING"}], "travel_mode": "WALKING"}], "traffic_speed_entry": [], "via_waypoint": []}], "overview_polyline": {"points": "_yhtDv{zeQ?F?Q?mAEcL?mD?aCEMAuA@m@LA@G?PU?{B?cEDe@@cACyDBkBBmAAmDFiBTiAVkAb@sAp@_An@aAz@kD~De@j@iBbCiC~CgCzCs@z@y@t@oAzAm@t@aAjA}BnCm@h@i@Zi@Xo@RaCh@mAHiBF}IB_OFoLDy[PgKFmA@qAC{AGgDg@gBQkAC}BBsD@eEAaBB}C@_G@yGBmGDoB?ePFeEDeE?}ADaBBo@AaF@sC?qBBiB@k@?GIEAUGq@UaAg@kAeB_@q@c@qA}@uEcAoFqC{NcG{[]mBQmBsA{P]_EUqAQg@Yk@m@{@aDwD_BeB_AcA_CwCaEqEuBcCgA_B_@y@Uy@Im@G_AAu@?kAE}IGaRAs@@c@Fu@N_AZeAp@yBRuAF}@BoBBgDNwAHa@Tu@Tg@p@oAf@kA\\uAHs@D}@GmJCs@WyAa@kAi@{@uA_Bk@u@OYa@gAYyAWgDMmAKa@a@mAsBoEa@aA_@y@QLm@DyA@sDD}DDsCAa@?}DBmLHkF@w@?U@?o@Ag@AqB?UY@mB?S?aAE}LH{F@?RiA?iED_DBA@mRHi@Sw@CSKISGOB_B?cCBeCX?t@AbB?BXQ^?rA?d@W?fA_ADUHYK@]MSQYOs@?e@@m@?AxAA`AzC`CRwAL@HCFMHo@D}@DOVe@Le@Cc@GOQGYCK@YPOPMDu@DwC?E~DAzD?z@cCPoABoKFcB@sIFaJB{HBiEBkGHcFBk@As@Ks@Wq@_@i@]oAiAu@u@c@a@MRqBzCkCvDg@z@a@L{@vA]b@Sd@w@lAYh@OQKPKKKAU@IB?Q?oAAa@?OM?[@mED@[AmAB_@v@{AXq@B][YUYKAQUMQ?ODKV_@KMXe@^u@Ts@^wBHaABs@"}, "summary": "", "warnings": ["Walking directions are in beta. Use caution \u2013 This route may be missing sidewalks or pedestrian paths."], "waypoint_order": []}, {"bounds": {"northeast": {"lat": 29.803205, "lng": -95.4519566}, "southwest": {"lat": 29.703893, "lng": -95.54482619999999}}, "copyrights": "Map data \u00a92022", "legs": [{"arrival_time": {"text": "4:49pm", "time_zone": "America/Chicago", "value": 1642027767}, "departure_time": {"text": "3:24pm", "time_zone": "America/Chicago", "value": 1642022677}, "distance": {"text": "14.7 mi", "value": 23645}, "duration": {"text": "1 hour 25 mins", "value": 5090}, "end_address": "4400 W 18th St, Houston, TX 77092, USA", "end_location": {"lat": 29.8019199, "lng": -95.45428179999999}, "start_address": "6501 Bellaire Blvd, Houston, TX 77074, USA", "start_location": {"lat": 29.7050985, "lng": -95.5011358}, "steps": [{"distance": {"text": "367 ft", "value": 112}, "duration": {"text": "2 mins", "value": 100}, "end_location": {"lat": 29.7055095, "lng": -95.5004553}, "html_instructions": "Walk to Bellaire Blvd @ Tarnef Dr", "polyline": {"points": "{whtDbq{eQY?O?W@M?AwB?M?C"}, "start_location": {"lat": 29.7050985, "lng": -95.5011358}, "steps": [{"distance": {"text": "135 ft", "value": 41}, "duration": {"text": "1 min", "value": 39}, "end_location": {"lat": 29.7055035, "lng": -95.50114599999999}, "html_instructions": "Head <b>north</b> on <b>Tarnef Dr</b> toward <b>Bellaire Blvd</b>", "polyline": {"points": "{whtDbq{eQY?O?W@M?"}, "start_location": {"lat": 29.7050985, "lng": -95.5011358}, "travel_mode": "WALKING"}, {"distance": {"text": "233 ft", "value": 71}, "duration": {"text": "1 min", "value": 61}, "end_location": {"lat": 29.7055095, "lng": -95.5004553}, "html_instructions": "Turn <b>right</b> onto <b>Bellaire Blvd</b>", "maneuver": "turn-right", "polyline": {"points": "kzhtDdq{eQAwB?M?C"}, "start_location": {"lat": 29.7055035, "lng": -95.50114599999999}, "travel_mode": "WALKING"}], "travel_mode": "WALKING"}, {"distance": {"text": "2.2 mi", "value": 3497}, "duration": {"text": "10 mins", "value": 590}, "end_location": {"lat": 29.705185, "lng": -95.535994}, "html_instructions": "Bus towards Mission Bend TC", "polyline": {"points": "szhtDzl{eQLA?D?L?~B@vA?h@?f@@b@@f@Dv@?JDh@Bd@Fn@J~@BVDXHl@BPHf@DTFRFXLj@Jf@Lb@DNJ\\L`@J\\@DBDBLHZFV@FDPDPJ`@@JBHDTH\\Ht@Fb@Db@BZDf@BX?DBP@T@VBj@Bp@?D@Z@b@?bAAv@?LExBGv@Cb@ANKbAGb@K~@CLG`@G`@Kh@Od@?@K^KX?@Oj@Kd@I\\GX_@rBSdACLGd@OfBE`@AXGr@AZEp@Ad@?ZC`A?^?~@@\\?b@?T?dB@d@?fB@rB?TB`B?T@h@@hAAX?jA?lA?N?r@?H?b@?r@@nD@z@?T?^?P@^?R?\\@n@AZ?hA@p@?~A?D?b@?B@bC?l@BlD@nJ?V?rABn@@\\?nA@pC@`B?tC?`@?d@?X?dA?j@?R?n@?`A@lA?fAQ?"}, "start_location": {"lat": 29.705543, "lng": -95.500456}, "transit_details": {"arrival_stop": {"location": {"lat": 29.705185, "lng": -95.535994}, "name": "Bellaire Blvd @ Redding Rd"}, "arrival_time": {"text": "3:36pm", "time_zone": "America/Chicago", "value": 1642023367}, "departure_stop": {"location": {"lat": 29.705543, "lng": -95.500456}, "name": "Bellaire Blvd @ Tarnef Dr"}, "departure_time": {"text": "3:26pm", "time_zone": "America/Chicago", "value": 1642022777}, "headsign": "Mission Bend TC", "line": {"agencies": [{"name": "Metropolitan Transit Authority of Harris County", "phone": "1 (713) 635-4000", "url": "http://www.ridemetro.org/"}], "color": "#004080", "name": "Bellaire", "short_name": "2", "text_color": "#ffffff", "url": "https://www.ridemetro.org/MetroPDFs/Schedules/BusSchedules/n002-Bellaire.pdf", "vehicle": {"icon": "//maps.gstatic.com/mapfiles/transit/iw2/6/bus2.png", "name": "Bus", "type": "BUS"}}, "num_stops": 13, "trip_short_name": "BELLAIRE"}, "travel_mode": "TRANSIT"}, {"distance": {"text": "0.1 mi", "value": 240}, "duration": {"text": "3 mins", "value": 198}, "end_location": {"lat": 29.7046225, "lng": -95.53788870000001}, "html_instructions": "Walk to S Gessner Rd @ Bellaire Blvd", "polyline": {"points": "cxhtD|jbfQ?V?P@hD?vB@n@L@TAL?p@?"}, "start_location": {"lat": 29.7051398, "lng": -95.5359938}, "steps": [{"distance": {"text": "0.1 mi", "value": 188}, "duration": {"text": "2 mins", "value": 140}, "end_location": {"lat": 29.7050523, "lng": -95.5378955}, "html_instructions": "Head <b>west</b> on <b>Bellaire Blvd</b> toward <b>Redding Rd</b>", "polyline": {"points": "cxhtD|jbfQ?V?P@hD?vB@n@L@"}, "start_location": {"lat": 29.7051398, "lng": -95.5359938}, "travel_mode": "WALKING"}, {"distance": {"text": "171 ft", "value": 52}, "duration": {"text": "1 min", "value": 58}, "end_location": {"lat": 29.7046225, "lng": -95.53788870000001}, "html_instructions": "Turn <b>left</b> onto <b>S Gessner Rd</b>", "maneuver": "turn-left", "polyline": {"points": "qwhtDzvbfQTAL?p@?"}, "start_location": {"lat": 29.7050523, "lng": -95.5378955}, "travel_mode": "WALKING"}], "travel_mode": "WALKING"}, {"distance": {"text": "5.6 mi", "value": 8948}, "duration": {"text": "28 mins", "value": 1680}, "end_location": {"lat": 29.782613, "lng": -95.543797}, "html_instructions": "Bus towards Hempstead Hwy", "polyline": {"points": "{thtDrvbfQ?Lw@?e@@MA_@@W?W@U@A?e@By@HC?UDGBwAVcAXqA`@iAT]FOBWDQB[DE?W@Y@M?Y@aCBy@?c@@g@@sA?G?G?_@?o@?g@?U?sB@o@@k@?a@?{@@a@?{A@m@?_C@i@?gC@M?eA@w@?[?uBBkA@A?S?cA@QAyA@kA?}A@M@wAB[?U?O?yA@iB@yA@Y?S?[@eA@Y?s@?g@?W?gDA{BAyAAwA@m@?S@mC@sCBc@BUA_A@a@?_@@}C?kB?{@@]?wCBoA?kA@uA?wABs@BS?u@?iB@oBBY?SAcBBa@?Y@eAAMA_@Ck@Eq@O]IYE_@G[EI?UCWA[CKAE?WAQAa@Cw@?K?_@CUCMCUEWEc@IOGi@Qi@O_@KA?e@Gm@G_ACe@?A?aA@U@G?_A?E?a@@wA?eD@_@?wA@sB@c@?O?I?oB@M?aEBkEBsB?[?eA@_@CqEBQAoDFWBe@DYDa@Hk@Pg@Tg@XA?g@\\C@{@l@WPcAr@]TIBWRmAx@e@`@CB_@^ABMLUXY\\QTSXYf@S\\GHS^eAnBEHWj@MNKLMP?@U\\[d@Wb@a@f@i@h@IH[VaAp@q@`@E@k@XQFKBa@NQFODOD[Fq@Nw@DkAF{@@cBE[EO?GAQ?K?Y?gA@{B?kABm@Aq@?qBBaB@mACeAGc@Gk@IiAWm@MaAOwAMgAGs@?}@?qA?Q?iD?sCBS?oF?oC?U?_B?iA@oCBU?gD?yABkA@yA?u@@W?mA?oA?sC@W?qD?A?c@?mADi@Ac@@A?M?m@Ac@?c@?OA]?c@Ac@?]?k@?y@?[?G?c@?e@AE?sAEu@EA?aAKkASc@GOC{@MICWCWCWCWC_@C@S"}, "start_location": {"lat": 29.704623, "lng": -95.537855}, "transit_details": {"arrival_stop": {"location": {"lat": 29.782613, "lng": -95.543797}, "name": "Gessner Rd @ Katy Fwy"}, "arrival_time": {"text": "4:16pm", "time_zone": "America/Chicago", "value": 1642025760}, "departure_stop": {"location": {"lat": 29.704623, "lng": -95.537855}, "name": "S Gessner Rd @ Bellaire Blvd"}, "departure_time": {"text": "3:48pm", "time_zone": "America/Chicago", "value": 1642024080}, "headsign": "Hempstead Hwy", "line": {"agencies": [{"name": "Metropolitan Transit Authority of Harris County", "phone": "1 (713) 635-4000", "url": "http://www.ridemetro.org/"}], "color": "#004080", "name": "Gessner", "short_name": "46", "text_color": "#ffffff", "url": "https://www.ridemetro.org/MetroPDFs/Schedules/BusSchedules/n046-Gessner.pdf", "vehicle": {"icon": "//maps.gstatic.com/mapfiles/transit/iw2/6/bus2.png", "name": "Bus", "type": "BUS"}}, "num_stops": 29, "trip_short_name": "GESSNER"}, "travel_mode": "TRANSIT"}, {"distance": {"text": "6.5 mi", "value": 10474}, "duration": {"text": "25 mins", "value": 1522}, "end_location": {"lat": 29.80140099999999, "lng": -95.45297}, "html_instructions": "Bus towards Kashmere TC", "polyline": {"points": "i|wtDv{cfQARSAk@ASAOAg@?[AA?}@@_@Aw@?u@AC?i@?aA?QAaADA?g@D{@Da@DO@Y@S@A?w@BM@Y@S@U@SBYBI@OBA?QBUDE@k@L_@LIBSF]FYFC?c@DSB]Ba@@s@@c@?gABw@?W?[@_@?U?S?E?o@@m@AeB@S?y@@gA@c@?c@@k@?m@@oA@E?W?s@@BeB?g@?oB@Q?qA?Y?]?eB?q@@mA@}BA]?_A?a@LoA@KDWBY@Y?wAAy@?K?o@Ac@?Q?sA?_@Ec@?AO}@ACEWY}AUmA?AESCQUiA[kBMq@EUCK[gBQgAGc@EYIe@G[G]Qw@Ia@UqAQ}@]sBSeASeACSMm@AGG[Ki@G_@Ki@G_@A?Ko@o@mDMo@_@wBMs@Ie@Qq@YsAACGU_@yAAEGUM_@Om@EUOm@EQMe@Oo@EQCOIYEQK_@COEMCMGUAICMGSEQMk@Sy@QuACOEc@Ge@C]CKE_@Eg@COE_@O{AQ}Aa@uDCUc@eEE]UqBKkAGc@MqAOwA_@sDGm@@I?K?IEoAMw@Gy@Ee@CUE]Ie@GUGUGSKUKWEKKU_@o@q@mA_@k@QWKQe@e@_@YCAWQMI[SCCQKUMGGGGWWWa@AASc@Sk@ACEQGUE]EY?EAM?GCs@?YIsBGaBAi@Cg@?_@?C?[B}B?[?mB@a@@gB@y@?WB}F?qA@qB?K?M?oA?YAq@?S?wC?aAAsF@sA?WA}D?c@?MAi@?e@COAW?i@Ay@?Y@k@?S@SES?G@]@I?[@_@?I?[@a@?]@E?m@@e@@y@?O?Y@o@@sB@g@?I@_B?s@@W?a@?Y@aA?S@i@?e@@}@@eA?g@@s@?s@?M?K?Y?U?U?GAK?GAI?E@Q?c@?K?E?A?C?A?A@C?E?Y@U?o@@uA@k@?a@?_@@[?Q?c@?O?]?e@@S?[?U?SAa@@S?y@?GAo@?_@?Q?S@_@?[@_A?[?oAAk@?O?Q?Q?[?c@?S?I@y@?G?Q?i@AuA?_A?aA?I?gAAw@?W?s@?U?U?m@?i@?o@Ag@?I?{A?O?q@?e@?eB?{A?UA]?kHAeI?EAY?kG?IAiC?s@?_BAoC?g@?qC?_CAoA?eA?M?s@AuC?Q?c@?e@?G?Q?I?oA?q@?i@?O?a@?c@?OAK?G?IAICGCECCEC?AKIEEOO`@o@FKt@gAb@q@HM`A{Ah@w@dA_Bh@y@@]EsB?]@g@?YAU?a@AyE?I?IAgA?uAAuC?o@@W?uC?W?]AuAAi@?iA?_B?AH?"}, "start_location": {"lat": 29.782613, "lng": -95.543797}, "transit_details": {"arrival_stop": {"location": {"lat": 29.80140099999999, "lng": -95.45297}, "name": "W 18th St @ Northwest Fwy"}, "arrival_time": {"text": "4:44pm", "time_zone": "America/Chicago", "value": 1642027462}, "departure_stop": {"location": {"lat": 29.782613, "lng": -95.543797}, "name": "Gessner Rd @ Katy Fwy"}, "departure_time": {"text": "4:19pm", "time_zone": "America/Chicago", "value": 1642025940}, "headsign": "Kashmere TC", "line": {"agencies": [{"name": "Metropolitan Transit Authority of Harris County", "phone": "1 (713) 635-4000", "url": "http://www.ridemetro.org/"}], "color": "#004080", "name": "Long Point / Cavalcade", "short_name": "26", "text_color": "#ffffff", "url": "https://www.ridemetro.org/MetroPDFs/Schedules/BusSchedules/n026-Long-Point-Cavalcade.pdf", "vehicle": {"icon": "//maps.gstatic.com/mapfiles/transit/iw2/6/bus2.png", "name": "Bus", "type": "BUS"}}, "num_stops": 42, "trip_short_name": "LONGPOINT"}, "travel_mode": "TRANSIT"}, {"distance": {"text": "0.2 mi", "value": 374}, "duration": {"text": "5 mins", "value": 304}, "end_location": {"lat": 29.8019199, "lng": -95.45428179999999}, "html_instructions": "Walk to 4400 W 18th St, Houston, TX 77092, USA", "polyline": {"points": "{q{tD`dreQ@]?g@@mACu@MDSFMD?j@?h@BnAAV@|@@hBYDe@F@D@R@f@?D"}, "start_location": {"lat": 29.8014155, "lng": -95.4529697}, "steps": [{"distance": {"text": "328 ft", "value": 100}, "duration": {"text": "1 min", "value": 78}, "end_location": {"lat": 29.8014885, "lng": -95.45198769999999}, "html_instructions": "Head <b>east</b> on <b>W 18th St</b>/<wbr/><b>NW Mall</b> toward <b>W Loop S Fwy</b><div style=\"font-size:0.9em\">Pass by Burger King (on the right in 279&nbsp;ft)</div>", "polyline": {"points": "{q{tD`dreQ@]?g@@mACu@MD"}, "start_location": {"lat": 29.8014155, "lng": -95.4529697}, "travel_mode": "WALKING"}, {"distance": {"text": "0.1 mi", "value": 198}, "duration": {"text": "3 mins", "value": 165}, "end_location": {"lat": 29.8016283, "lng": -95.4538499}, "html_instructions": "Cross the road", "polyline": {"points": "ir{tD|}qeQSFMD?j@?h@BnAAV@|@@hB"}, "start_location": {"lat": 29.8014885, "lng": -95.45198769999999}, "travel_mode": "WALKING"}, {"distance": {"text": "131 ft", "value": 40}, "duration": {"text": "1 min", "value": 34}, "end_location": {"lat": 29.80194599999999, "lng": -95.4539156}, "html_instructions": "Turn <b>right</b><div style=\"font-size:0.9em\">Restricted usage road</div>", "maneuver": "turn-right", "polyline": {"points": "es{tDpireQYDe@F"}, "start_location": {"lat": 29.8016283, "lng": -95.4538499}, "travel_mode": "WALKING"}, {"distance": {"text": "118 ft", "value": 36}, "duration": {"text": "1 min", "value": 27}, "end_location": {"lat": 29.8019199, "lng": -95.45428179999999}, "html_instructions": "Turn <b>left</b><div style=\"font-size:0.9em\">Restricted usage road</div><div style=\"font-size:0.9em\">Destination will be on the right</div>", "maneuver": "turn-left", "polyline": {"points": "eu{tD~ireQ@D@R@f@?D"}, "start_location": {"lat": 29.80194599999999, "lng": -95.4539156}, "travel_mode": "WALKING"}], "travel_mode": "WALKING"}], "traffic_speed_entry": [], "via_waypoint": []}], "overview_polyline": {"points": "{whtDbq{eQoA@AeC?CE?LA?D?lCBlELtCZlDRxA^jBl@fCf@bBf@rBVlA`@zCXnEFvBAzBEfCKzAMrA_@rCSjAOf@Wz@m@hC_AlF_@vEGlAA`AC`B@|A@dEFvN@nNDdG?vC?lCFnU?jBDlABxM?fD?pD@tCQ?H??h@@`H@n@L@b@Ap@??E?Lw@?s@?w@@uAF}@H]HwAVcAXqA`@iATm@Ji@HsAHcFDgDB_C?aMFgODwED{F@iMJ_JDuKEgHDwDFuA?kI@aIDmHHcHDsD@_B?m@Ek@Eq@Ow@OeAMuAKqAGcA?u@G_BYy@YiA[g@GmBK_CBeND}TJoC?eBAcF@gEJ_AJmAZoAn@i@\\{CtBmCfBkAhAoAzAiAhByAnC]t@g@p@q@bAy@jAs@r@}AhAw@b@}@`@oA`@k@Lq@Nw@DkAF{@@_CKu@AiHD_BAsEDmACeAGoAQwBe@yC]{BGoC?cJBuN?wKD_SHoF?}CDyFEwFAiCKcAK{Dm@qAOw@G@SAR_ACc@CcC?oGEgG\\aBFwAJm@H[FkAZuAZyALmIHaIBwIFs@@BeB?wC@{CBcJA}A?a@LoAFc@Ds@AmEAiDWgBqBaLs@{DYkBO_Ak@sCyAiIoA_HaCyMw@oDq@kC}AkGu@}CS}@a@eBUeBUsBUwBsCgXeAaKGm@@I?UEoAMw@M_BIs@Q{@Oi@Wm@Qa@qA}Bq@cAq@w@iAw@gAq@OOo@y@k@uAMg@Kw@EoASyGCgBDiHHuSAqUAgGGwB?iD@g@E[DcB@eBHaJNsUAsB?aBBqBDeH@sE?aAAoA@aB?gH?uGCiTMmqAAmDM[WUOO`@o@|@sAxCsEnByCCqC?uBEsR@cFCiHHAA]@uBCu@MDa@L?tADnG_ALBX@l@"}, "summary": "", "warnings": ["Walking directions are in beta. Use caution \u2013 This route may be missing sidewalks or pedestrian paths."], "waypoint_order": []}, {"bounds": {"northeast": {"lat": 29.803869, "lng": -95.4082861}, "southwest": {"lat": 29.7050985, "lng": -95.5011399}}, "copyrights": "Map data \u00a92022", "legs": [{"arrival_time": {"text": "4:49pm", "time_zone": "America/Chicago", "value": 1642027797}, "departure_time": {"text": "3:17pm", "time_zone": "America/Chicago", "value": 1642022237}, "distance": {"text": "15.2 mi", "value": 24536}, "duration": {"text": "1 hour 33 mins", "value": 5560}, "end_address": "4400 W 18th St, Houston, TX 77092, USA", "end_location": {"lat": 29.8019199, "lng": -95.45428179999999}, "start_address": "6501 Bellaire Blvd, Houston, TX 77074, USA", "start_location": {"lat": 29.7050985, "lng": -95.5011358}, "steps": [{"distance": {"text": "194 ft", "value": 59}, "duration": {"text": "1 min", "value": 43}, "end_location": {"lat": 29.705239, "lng": -95.5007711}, "html_instructions": "Walk to Bellaire Blvd @ Tarnef Dr", "polyline": {"points": "{whtDbq{eQY?AiA"}, "start_location": {"lat": 29.7050985, "lng": -95.5011358}, "steps": [{"distance": {"text": "62 ft", "value": 19}, "duration": {"text": "1 min", "value": 14}, "end_location": {"lat": 29.7052344, "lng": -95.5011399}, "html_instructions": "Head <b>north</b> on <b>Tarnef Dr</b> toward <b>Bellaire Blvd</b>", "polyline": {"points": "{whtDbq{eQY?"}, "start_location": {"lat": 29.7050985, "lng": -95.5011358}, "travel_mode": "WALKING"}, {"distance": {"text": "131 ft", "value": 40}, "duration": {"text": "1 min", "value": 29}, "end_location": {"lat": 29.705239, "lng": -95.5007711}, "html_instructions": "Turn <b>right</b> onto <b>Bellaire Blvd</b><div style=\"font-size:0.9em\">Destination will be on the right</div>", "maneuver": "turn-right", "polyline": {"points": "uxhtDbq{eQAiA"}, "start_location": {"lat": 29.7052344, "lng": -95.5011399}, "travel_mode": "WALKING"}], "travel_mode": "WALKING"}, {"distance": {"text": "5.3 mi", "value": 8597}, "duration": {"text": "24 mins", "value": 1457}, "end_location": {"lat": 29.70607099999999, "lng": -95.41219199999999}, "html_instructions": "Bus towards TMC TC", "polyline": {"points": "uxhtDxn{eQG?CeD?g@?gA?cBAw@AoDAQ?_@?m@AwEAcBA_B@aB?kAA_CCMAYAu@Bm@AqAA}C?s@Ao@AiA@U?O?}BAk@?y@A}@?SAaABYAeC?s@?s@?g@?YAY?{@AmA?c@AgAAqA?k@?]?}@?YAyE?k@Aq@?K?c@?Y?U?o@?m@?a@AgA?}@A}@@}ACkE?c@AsA?S?eA?sB?qACmB?e@?Q?o@?W?c@Ak@?[?AAwA@UAk@?oC?_B?AAs@AsA?gA?U?i@?qA?q@?m@?q@?kA?Q?iAC{B?k@@IM_@OYCMAu@EmA\\G\\U@w@@]AoB?[AgAC}MA}AA_@?G?oAE}@GaAIgAAWCyE?kAA{@AeAA_A?y@?A?E?A?g@?A?E?A?_A@y@?SAqAAaA?oAA_A?iA@sA?o@?}@?i@Ao@AcDA}C?aA?i@?KAEAcD?q@?cB?W?o@?i@C}B?O?IA_CAwB?e@?_@?yA?aAA}@?I?e@?WAi@AoCA_A?K?yA?a@?wB?qCCmB?W?GAy@?c@?mA?Y?a@?_ACsA?g@?_A?qA?O?G?aB?E?c@AgB?yA?YAoC?[?s@AwDAsA?y@?}@AoC?kA?W?[?SA]A{B?kE?gB?Y?u@?g@AgCAwA?O?cA?S?yBAwB?e@?a@?o@?cBAcBAgB?eB?c@?eC?Q?sD?y@?_@?c@?{@A]?yBCeG?yA?EASA_C@iAAU?eB@[Ae@?y@AiECoH?{@?[?_A?W?]AeE?WAU?kA?oAJ?"}, "start_location": {"lat": 29.705234, "lng": -95.500771}, "transit_details": {"arrival_stop": {"location": {"lat": 29.70607099999999, "lng": -95.41219199999999}, "name": "Holcombe Blvd @ Greenbriar Dr"}, "arrival_time": {"text": "3:42pm", "time_zone": "America/Chicago", "value": 1642023738}, "departure_stop": {"location": {"lat": 29.705234, "lng": -95.500771}, "name": "Bellaire Blvd @ Tarnef Dr"}, "departure_time": {"text": "3:18pm", "time_zone": "America/Chicago", "value": 1642022281}, "headsign": "TMC TC", "line": {"agencies": [{"name": "Metropolitan Transit Authority of Harris County", "phone": "1 (713) 635-4000", "url": "http://www.ridemetro.org/"}], "color": "#004080", "name": "Bellaire", "short_name": "2", "text_color": "#ffffff", "url": "https://www.ridemetro.org/MetroPDFs/Schedules/BusSchedules/n002-Bellaire.pdf", "vehicle": {"icon": "//maps.gstatic.com/mapfiles/transit/iw2/6/bus2.png", "name": "Bus", "type": "BUS"}}, "num_stops": 30, "trip_short_name": "BELLAIRE"}, "travel_mode": "TRANSIT"}, {"distance": {"text": "246 ft", "value": 75}, "duration": {"text": "1 min", "value": 74}, "end_location": {"lat": 29.70630959999999, "lng": -95.4123718}, "html_instructions": "Walk to Holcombe Blvd @ Greenbriar Dr", "polyline": {"points": "a~htDdejeQ?fAMAO?M??a@"}, "start_location": {"lat": 29.7060936, "lng": -95.4121923}, "steps": [{"distance": {"text": "125 ft", "value": 38}, "duration": {"text": "1 min", "value": 27}, "end_location": {"lat": 29.706163, "lng": -95.412545}, "html_instructions": "Head <b>west</b> on <b>W Holcombe Blvd</b> toward <b>Greenbriar Dr</b>", "polyline": {"points": "a~htDdejeQ?fAMA"}, "start_location": {"lat": 29.7060936, "lng": -95.4121923}, "travel_mode": "WALKING"}, {"distance": {"text": "52 ft", "value": 16}, "duration": {"text": "1 min", "value": 22}, "end_location": {"lat": 29.7063085, "lng": -95.41254409999999}, "html_instructions": "Turn <b>right</b> onto <b>Greenbriar Dr</b>", "maneuver": "turn-right", "polyline": {"points": "o~htDjgjeQO?M?"}, "start_location": {"lat": 29.706163, "lng": -95.412545}, "travel_mode": "WALKING"}, {"distance": {"text": "69 ft", "value": 21}, "duration": {"text": "1 min", "value": 25}, "end_location": {"lat": 29.70630959999999, "lng": -95.4123718}, "html_instructions": "Turn <b>right</b> onto <b>W Holcombe Blvd</b>", "maneuver": "turn-right", "polyline": {"points": "m_itDjgjeQ?a@"}, "start_location": {"lat": 29.7063085, "lng": -95.41254409999999}, "travel_mode": "WALKING"}], "travel_mode": "WALKING"}, {"distance": {"text": "7.0 mi", "value": 11306}, "duration": {"text": "30 mins", "value": 1782}, "end_location": {"lat": 29.803613, "lng": -95.41008699999999}, "html_instructions": "Bus towards N Shepherd P&R", "polyline": {"points": "s_itDjfjeQL??h@oA?[?_@?WAsBBQ?Q?eD@uB@S?Y?yAA{@@yC@kC@K?gD?cDB_D@}A?oA@_B@c@?cE@w@@}AAAc@?g@AQCYCg@Iq@E[Gc@Km@Os@Me@IUSu@GUw@oCMc@Uw@cBp@IDkAb@kAf@{@^SHy@ZEBSF_@JKBi@LA@SDWDa@FI@a@F]DWBYBQ@o@DA?M@w@@W@M?K?oA?gA?K?sA@uA@K@iB?s@?iD@yB?S?c@@gB?oCBU@eB@e@?]?eA?S?O?U?aA?i@@A?[?A?Y@k@?]?m@?W?iD@c@@aA@eADcAAQ?aA?S@c@?U@y@Ao@AgB?cA@sA?cA@Q?iD@wA?u@@e@?c@?M?_A@]?y@?y@@Y?K?y@@O?s@?y@?eB@cA?y@@O?K?W?I?c@?E?}ABE?q@?gA?]Aa@G[GSCg@AS@M?Y?a@?m@?_A?c@@S?sC@gA@iA?kD?iB?_@?[?Y?q@@gB?{@?Y@qA?eA?I?uD@i@@_A?Q?O?{@?m@?M?g@@y@@g@@Q?[?{@?OGEAGCEEGCECECGEY[OYEKCECGEQ_AuCAEEIQe@IQCEACGIEGEGGIIIEEOKGEQKMEk@Oo@@M?{@?WIgB?KEC?SAYAU?IA]?SAeA?S?g@AcA@EBIFKFA@CBIHCDGHGXQ@aAJa@Da@DC?}AL]D]DK@KEA?A?I?G?M?MAAAA?C?AAE?CAA?OCC?AAM?WA[FE@E@c@HG@YD_@HeAPKBw@TgABW?C?W?k@@_A@K?[@SBe@Dc@@SBa@?eA@[?M?eA@c@?e@?]?_@@Y?k@?M?qCBg@?Q?M@U?e@?M?qCB]?w@@_@?E@W?e@?mB@gA?k@@]?qB@c@@a@CE@e@@m@?S@kA?cA@aCBM?oC@eA@oA@Y?[?O?a@Bm@?U?o@?e@@I?A?A?y@?M@YAS@O?_@@w@@y@?]?M?YAMAMCOEYIIAa@Kc@Ku@QGACAm@MAAOCIAK?OAM?M?A?I?O?S@M@IBc@Jq@P}@Vg@Jk@Ji@Hc@Be@DE?c@Bs@ByABA?oCBYA}B@I?A?q@@K?E?k@?C?O@u@?S?k@@w@@K?a@?O?[@U?U?U?k@@k@?Y@C?I?S?kC@y@@K?W@[?S?A?W?G?U@S?c@?e@@O?E?[?mCBeA@U?Y?S?U@A?S?aA@_@?e@@Q?S?U?s@?C?W?qB@sB@eBBg@?oBBaGBq@@w@?aB@i@@W@_B@yA@aB@Q?qD@U@gB?eB@eBA_A@?K"}, "start_location": {"lat": 29.7063417, "lng": -95.41237609999999}, "transit_details": {"arrival_stop": {"location": {"lat": 29.803613, "lng": -95.41008699999999}, "name": "N Shepherd Dr @ W 20th St"}, "arrival_time": {"text": "4:29pm", "time_zone": "America/Chicago", "value": 1642026540}, "departure_stop": {"location": {"lat": 29.7063417, "lng": -95.41237609999999}, "name": "Holcombe Blvd @ Greenbriar Dr"}, "departure_time": {"text": "3:59pm", "time_zone": "America/Chicago", "value": 1642024758}, "headsign": "N Shepherd P&R", "line": {"agencies": [{"name": "Metropolitan Transit Authority of Harris County", "phone": "1 (713) 635-4000", "url": "http://www.ridemetro.org/"}], "color": "#004080", "name": "Shepherd", "short_name": "27", "text_color": "#ffffff", "url": "https://www.ridemetro.org/MetroPDFs/Schedules/BusSchedules/n027-Shepherd.pdf", "vehicle": {"icon": "//maps.gstatic.com/mapfiles/transit/iw2/6/bus2.png", "name": "Bus", "type": "BUS"}}, "num_stops": 48, "trip_short_name": "SHEPHERD"}, "travel_mode": "TRANSIT"}, {"distance": {"text": "112 ft", "value": 34}, "duration": {"text": "1 min", "value": 34}, "end_location": {"lat": 29.803842, "lng": -95.41002979999999}, "html_instructions": "Walk to W 20th St @ N Shepherd Dr", "polyline": {"points": "q_|tDdxieQ_@@M??Q"}, "start_location": {"lat": 29.8036121, "lng": -95.410111}, "steps": [{"distance": {"text": "69 ft", "value": 21}, "duration": {"text": "1 min", "value": 15}, "end_location": {"lat": 29.8038391, "lng": -95.4101207}, "html_instructions": "Head <b>north</b> on <b>N Shepherd Dr</b> toward <b>W 20th St</b>", "polyline": {"points": "q_|tDdxieQ_@@M?"}, "start_location": {"lat": 29.8036121, "lng": -95.410111}, "travel_mode": "WALKING"}, {"distance": {"text": "43 ft", "value": 13}, "duration": {"text": "1 min", "value": 19}, "end_location": {"lat": 29.803842, "lng": -95.41002979999999}, "html_instructions": "Turn <b>right</b> onto <b>W 20th St</b>", "maneuver": "turn-right", "polyline": {"points": "_a|tDfxieQ?Q"}, "start_location": {"lat": 29.8038391, "lng": -95.4101207}, "travel_mode": "WALKING"}], "travel_mode": "WALKING"}, {"distance": {"text": "2.7 mi", "value": 4367}, "duration": {"text": "10 mins", "value": 582}, "end_location": {"lat": 29.80163, "lng": -95.454342}, "html_instructions": "Bus towards Memorial City", "polyline": {"points": "ea|tDvwieQJ?@V?fA@`ABfE?tABtJ?pB@rA?r@?H?|@?jB?@?j@@h@AL?\\?J@f@?|B?h@?|@?n@?N?|G?J@tE?d@@dC?p@AL@J?V@P@H?B?D@F@HBH@JDPDLDLDHDJDJHLFHFHLL?@TVTVn@v@NRh@h@NPVX^f@BJBFBFf@v@P`@DZDVBT@F?D@F?H?P@P?X?N?F?j@@pAIpB@f@?V?fA?j@?V@h@AjA?h@@~@?b@@^Af@@d@?X?bA?jA?b@@nC?J?d@Aj@?v@?P@dB?jA?bC?`A?\\@dH?`D?dC@fE?jD?T@`F@vB?jD?vC?X?`E@V@zCAb@?fAAX@fB@fA?T@|B?l@A~A?x@?XAzB?`A?dB?l@?P?F?H@^?Z?@?H?@?Z?h@?f@?j@?^?t@@j@BnAAV@|@@fB?bBG?"}, "start_location": {"lat": 29.803869, "lng": -95.410039}, "transit_details": {"arrival_stop": {"location": {"lat": 29.80163, "lng": -95.454342}, "name": "W 18th St @ Northwest Fwy"}, "arrival_time": {"text": "4:48pm", "time_zone": "America/Chicago", "value": 1642027720}, "departure_stop": {"location": {"lat": 29.803869, "lng": -95.410039}, "name": "W 20th St @ N Shepherd Dr"}, "departure_time": {"text": "4:38pm", "time_zone": "America/Chicago", "value": 1642027138}, "headsign": "Memorial City", "line": {"agencies": [{"name": "Metropolitan Transit Authority of Harris County", "phone": "1 (713) 635-4000", "url": "http://www.ridemetro.org/"}], "color": "#004080", "name": "Long Point / Cavalcade", "short_name": "26", "text_color": "#ffffff", "url": "https://www.ridemetro.org/MetroPDFs/Schedules/BusSchedules/n026-Long-Point-Cavalcade.pdf", "vehicle": {"icon": "//maps.gstatic.com/mapfiles/transit/iw2/6/bus2.png", "name": "Bus", "type": "BUS"}}, "num_stops": 14, "trip_short_name": "LONGPOINT"}, "travel_mode": "TRANSIT"}, {"distance": {"text": "322 ft", "value": 98}, "duration": {"text": "1 min", "value": 77}, "end_location": {"lat": 29.8019199, "lng": -95.45428179999999}, "html_instructions": "Walk to 4400 W 18th St, Houston, TX 77092, USA", "polyline": {"points": "es{tDrlreQ?z@YEc@E?G@Q@a@"}, "start_location": {"lat": 29.8016264, "lng": -95.454342}, "steps": [{"distance": {"text": "95 ft", "value": 29}, "duration": {"text": "1 min", "value": 22}, "end_location": {"lat": 29.8016252, "lng": -95.45463819999999}, "html_instructions": "Head <b>west</b> on <b>W 18th St</b>/<wbr/><b>NW Mall</b>", "polyline": {"points": "es{tDrlreQ?z@"}, "start_location": {"lat": 29.8016264, "lng": -95.454342}, "travel_mode": "WALKING"}, {"distance": {"text": "131 ft", "value": 40}, "duration": {"text": "1 min", "value": 33}, "end_location": {"lat": 29.8019405, "lng": -95.4545788}, "html_instructions": "Turn <b>right</b><div style=\"font-size:0.9em\">Restricted usage road</div>", "maneuver": "turn-right", "polyline": {"points": "es{tDnnreQYEc@E"}, "start_location": {"lat": 29.8016252, "lng": -95.45463819999999}, "travel_mode": "WALKING"}, {"distance": {"text": "95 ft", "value": 29}, "duration": {"text": "1 min", "value": 22}, "end_location": {"lat": 29.8019199, "lng": -95.45428179999999}, "html_instructions": "Turn <b>right</b><div style=\"font-size:0.9em\">Restricted usage road</div><div style=\"font-size:0.9em\">Destination will be on the left</div>", "maneuver": "turn-right", "polyline": {"points": "cu{tDbnreQ?G@Q@a@"}, "start_location": {"lat": 29.8019405, "lng": -95.4545788}, "travel_mode": "WALKING"}], "travel_mode": "WALKING"}], "traffic_speed_entry": [], "via_waypoint": []}], "overview_polyline": {"points": "{whtDbq{eQY?AiAE?CyJKcV@mDA_CCMCoABm@AqAAqECyB@e@AiDCmE@_D?gBAwCEkGCeNAyIK}`@AiLCeF?{E?yECgD@IM_@Sg@GcC\\G\\UBuAGqTCuEM_CK_BGgLAsD@oCEcH@kGE{KCoMGoOCkJIw_@CmKEwSCoNEmUG{b@EkWCsF@aFGiWCqG?{CJ?C??fAMA]??a@E@L??h@kB?w@A}HD}F?mJDkIB}F@wKDuC?AkASeCM_A[aBs@gCeAsDUw@cBp@uAh@gCfAgBp@wA^wATqBTqAHiBBwF@aBB}C?{IBsJFoH@qD@gHDiCBsA?gC@oH?eNDaIDeKBqCB}CA}@O{@E}A@wRDs[F_D@oCB{@?OGMEYQa@a@Ue@mAuDc@gAS[]a@WQ_@Qk@Oo@@iA?WIgB?OEmAEkCAkB?OJ[VKNGXQ@cBPe@DeDZYEc@AAASC{@GsEx@cAX_BBgCBaBJw@DgB@sC@}B@oIDyIF_GB}D@wOJaIFgLFu@GuA]eBa@iAUw@Ao@@WDuA\\eBb@uATsBLmCFqCBcD?oB@mEDgFBeMHuPLeMFoSLuRJkE?_A@?K?B_@@M??QE@J?@~AHtU@zM@nJB|W@bABZLp@Vp@^l@x@~@hBtBf@j@^f@BJFNf@v@P`@Jr@D\\@h@@bA@|BIpB@f@?~A?bA?tB@hB@pC?zLBdWDvd@@jKA`HDbIA`F?tK?bEDpE@`HG??z@YEc@E?GBs@"}, "summary": "", "warnings": ["Walking directions are in beta. Use caution \u2013 This route may be missing sidewalks or pedestrian paths."], "waypoint_order": []}], "status": "OK"}