{"geocoded_waypoints": [{"geocoder_status": "OK", "place_id": "ChIJfYmSsy3AQIYRneWKWS8zXYY", "types": ["establishment", "point_of_interest", "primary_school", "school"]}, {"geocoder_status": "OK", "place_id": "ChIJ9_tphxzHQIYRIMyPy_d3VZU", "types": ["establishment", "point_of_interest"]}], "routes": [{"bounds": {"northeast": {"lat": 29.803869, "lng": -95.4031601}, "southwest": {"lat": 29.6875116, "lng": -95.45463819999999}}, "copyrights": "Map data \u00a92022", "legs": [{"arrival_time": {"text": "4:49pm", "time_zone": "America/Chicago", "value": 1642027797}, "departure_time": {"text": "3:29pm", "time_zone": "America/Chicago", "value": 1642022977}, "distance": {"text": "13.3 mi", "value": 21342}, "duration": {"text": "1 hour 20 mins", "value": 4820}, "end_address": "4400 W 18th St, Houston, TX 77092, USA", "end_location": {"lat": 29.8019199, "lng": -95.45428179999999}, "start_address": "3617 Norris Dr, Houston, TX 77025, USA", "start_location": {"lat": 29.6875116, "lng": -95.4323331}, "steps": [{"distance": {"text": "0.3 mi", "value": 494}, "duration": {"text": "6 mins", "value": 364}, "end_location": {"lat": 29.6904827, "lng": -95.430611}, "html_instructions": "Walk to Braeswood Blvd @ Bevlyn Dr", "polyline": {"points": "}ietD`cneQ?E?OAc@?WIMUC?eA?QG?qA@OHOGO?cBA_DByC@?[?Q?OAO?SCc@A]"}, "start_location": {"lat": 29.6875116, "lng": -95.4323331}, "steps": [{"distance": {"text": "217 ft", "value": 66}, "duration": {"text": "1 min", "value": 47}, "end_location": {"lat": 29.6876809, "lng": -95.43183119999999}, "html_instructions": "Head <b>east</b> toward <b>Norris Dr</b>", "polyline": {"points": "}ietD`cneQ?E?OAc@?WIMUC"}, "start_location": {"lat": 29.6875116, "lng": -95.4323331}, "travel_mode": "WALKING"}, {"distance": {"text": "125 ft", "value": 38}, "duration": {"text": "1 min", "value": 28}, "end_location": {"lat": 29.6877201, "lng": -95.43139359999999}, "html_instructions": "Turn <b>right</b> onto <b>Norris Dr</b>", "maneuver": "turn-right", "polyline": {"points": "_ketD|_neQ?eA?QG?"}, "start_location": {"lat": 29.6876809, "lng": -95.43183119999999}, "travel_mode": "WALKING"}, {"distance": {"text": "0.2 mi", "value": 307}, "duration": {"text": "4 mins", "value": 225}, "end_location": {"lat": 29.6904448, "lng": -95.4314266}, "html_instructions": "Turn <b>left</b> onto <b>Timberside Dr</b>", "maneuver": "turn-left", "polyline": {"points": "gketDd}meQqA@OHOGO?cBA_DByC@"}, "start_location": {"lat": 29.6877201, "lng": -95.43139359999999}, "travel_mode": "WALKING"}, {"distance": {"text": "272 ft", "value": 83}, "duration": {"text": "1 min", "value": 64}, "end_location": {"lat": 29.6904827, "lng": -95.430611}, "html_instructions": "Turn <b>right</b> onto <b>S Braeswood Blvd</b><div style=\"font-size:0.9em\">Destination will be on the right</div>", "maneuver": "turn-right", "polyline": {"points": "g|etDl}meQ?[?Q?OAO?SCc@A]"}, "start_location": {"lat": 29.6904448, "lng": -95.4314266}, "travel_mode": "WALKING"}], "travel_mode": "WALKING"}, {"distance": {"text": "2.3 mi", "value": 3656}, "duration": {"text": "8 mins", "value": 474}, "end_location": {"lat": 29.704328, "lng": -95.40361999999999}, "html_instructions": "Bus towards TMC TC", "polyline": {"points": "m|etDfxmeQI@AYMcAKq@K_@I]KWQe@O]MSU]Y_@]]GEMMOKo@_@QISKa@Ma@IAAMAWEQC[CC?EAU?a@ASAUESC_@I_@K[KYK[OGEGCIGGEa@[u@i@QOMKg@_@OOeA}@QOi@m@MSKMMYISEIEMAGCGEQCGE[EUEe@AKAYAW?U?I@WFgAB_@F]Fa@Py@Ha@Vs@JYbAuBN]HUFSJ[Jk@Ho@D_@@Y@[?i@Ck@E[?EEYOk@?AM]CGMYIOSWEGg@g@_@]{@u@MMKIYWY[W]GOI[MHAMASKWISCIMe@Mq@G]C]AEAWAOCuCA[@u@?aA?SBOLqADg@Hy@@CTiBBO\\mCBWaAw@[We@_@SO{@o@i@a@AAKISMe@_@IGMIo@g@i@_@SOyAiAOKMK}AiAGEEEIC_@UQMq@g@g@_@MMaC_BcD_CqCoBcBiAUU][DKHQJUJWFOFOFORg@Re@VaAPgA@W?Q@Q{@CICCCECEGCE?I?I?I@GPm@@G@GAGAECEAACAIAG?_ANM}@"}, "start_location": {"lat": 29.690471, "lng": -95.43060299999999}, "transit_details": {"arrival_stop": {"location": {"lat": 29.704328, "lng": -95.40361999999999}, "name": "Texas Medical Center Transit Center"}, "arrival_time": {"text": "3:44pm", "time_zone": "America/Chicago", "value": 1642023840}, "departure_stop": {"location": {"lat": 29.690471, "lng": -95.43060299999999}, "name": "Braeswood Blvd @ Bevlyn Dr"}, "departure_time": {"text": "3:36pm", "time_zone": "America/Chicago", "value": 1642023366}, "headsign": "TMC TC", "line": {"agencies": [{"name": "Metropolitan Transit Authority of Harris County", "phone": "1 (713) 635-4000", "url": "http://www.ridemetro.org/"}], "color": "#004080", "name": "Braeswood", "short_name": "68", "text_color": "#ffffff", "url": "https://www.ridemetro.org/MetroPDFs/Schedules/BusSchedules/n068-Braeswood.pdf", "vehicle": {"icon": "//maps.gstatic.com/mapfiles/transit/iw2/6/bus2.png", "name": "Bus", "type": "BUS"}}, "num_stops": 11, "trip_short_name": "BRAESWOOD"}, "travel_mode": "TRANSIT"}, {"distance": {"text": "7.9 mi", "value": 12693}, "duration": {"text": "34 mins", "value": 2040}, "end_location": {"lat": 29.803613, "lng": -95.41008699999999}, "html_instructions": "Bus towards N Shepherd P&R", "polyline": {"points": "ashtDroheQFj@kAh@QBKAKKCQ@O?i@?A?e@j@Kn@KDAp@Mr@KPHDPDVERC\\AJCJCL@TCLUp@CN?PDPJJLDhAHCp@Mz@Op@Wp@gAhC?@CFIPEJIPEHELWh@QXINOPSNkAl@OH]PE@MFC@MBS@e@@M?o@A]??|B?vA?^@nG?j@?R?P@b@?~@@rAA`A@n@?h@oA?[?_@?WAsBBQ?Q?eD@uB@S?Y?yAA{@@yC@kC@K?gD?cDB_D@}A?oA@_B@c@?cE@w@@}AAAc@?g@AQCYCg@Iq@E[Gc@Km@Os@Me@IUSu@GUw@oCMc@Uw@cBp@IDkAb@kAf@{@^SHy@ZEBSF_@JKBi@LA@SDWDa@FI@a@F]DWBYBQ@o@DA?M@w@@W@M?K?oA?gA?K?sA@uA@K@iB?s@?iD@yB?S?c@@gB?oCBU@eB@e@?]?eA?S?O?U?aA?i@@A?[?A?Y@k@?]?m@?W?iD@c@@aA@eADcAAQ?aA?S@c@?U@y@Ao@AgB?cA@sA?cA@Q?iD@wA?u@@e@?c@?M?_A@]?y@?y@@Y?K?y@@O?s@?y@?eB@cA?y@@O?K?W?I?c@?E?}ABE?q@?gA?]Aa@G[GSCg@AS@M?Y?a@?m@?_A?c@@S?sC@gA@iA?kD?iB?_@?[?Y?q@@gB?{@?Y@qA?eA?I?uD@i@@_A?Q?O?{@?m@?M?g@@y@@g@@Q?[?{@?OGEAGCEEGCECECGEY[OYEKCECGEQ_AuCAEEIQe@IQCEACGIEGEGGIIIEEOKGEQKMEk@Oo@@M?{@?WIgB?KEC?SAYAU?IA]?SAeA?S?g@AcA@EBIFKFA@CBIHCDGHGXQ@aAJa@Da@DC?}AL]D]DK@KEA?A?I?G?M?MAAAA?C?AAE?CAA?OCC?AAM?WA[FE@E@c@HG@YD_@HeAPKBw@TgABW?C?W?k@@_A@K?[@SBe@Dc@@SBa@?eA@[?M?eA@c@?e@?]?_@@Y?k@?M?qCBg@?Q?M@U?e@?M?qCB]?w@@_@?E@W?e@?mB@gA?k@@]?qB@c@@a@CE@e@@m@?S@kA?cA@aCBM?oC@eA@oA@Y?[?O?a@Bm@?U?o@?e@@I?A?A?y@?M@YAS@O?_@@w@@y@?]?M?YAMAMCOEYIIAa@Kc@Ku@QGACAm@MAAOCIAK?OAM?M?A?I?O?S@M@IBc@Jq@P}@Vg@Jk@Ji@Hc@Be@DE?c@Bs@ByABA?oCBYA}B@I?A?q@@K?E?k@?C?O@u@?S?k@@w@@K?a@?O?[@U?U?U?k@@k@?Y@C?I?S?kC@y@@K?W@[?S?A?W?G?U@S?c@?e@@O?E?[?mCBeA@U?Y?S?U@A?S?aA@_@?e@@Q?S?U?s@?C?W?qB@sB@eBBg@?oBBaGBq@@w@?aB@i@@W@_B@yA@aB@Q?qD@U@gB?eB@eBA_A@?K"}, "start_location": {"lat": 29.704328, "lng": -95.40361999999999}, "transit_details": {"arrival_stop": {"location": {"lat": 29.803613, "lng": -95.41008699999999}, "name": "N Shepherd Dr @ W 20th St"}, "arrival_time": {"text": "4:29pm", "time_zone": "America/Chicago", "value": 1642026540}, "departure_stop": {"location": {"lat": 29.704328, "lng": -95.40361999999999}, "name": "Texas Medical Center Transit Center"}, "departure_time": {"text": "3:55pm", "time_zone": "America/Chicago", "value": 1642024500}, "headsign": "N Shepherd P&R", "line": {"agencies": [{"name": "Metropolitan Transit Authority of Harris County", "phone": "1 (713) 635-4000", "url": "http://www.ridemetro.org/"}], "color": "#004080", "name": "Shepherd", "short_name": "27", "text_color": "#ffffff", "url": "https://www.ridemetro.org/MetroPDFs/Schedules/BusSchedules/n027-Shepherd.pdf", "vehicle": {"icon": "//maps.gstatic.com/mapfiles/transit/iw2/6/bus2.png", "name": "Bus", "type": "BUS"}}, "num_stops": 53, "trip_short_name": "SHEPHERD"}, "travel_mode": "TRANSIT"}, {"distance": {"text": "112 ft", "value": 34}, "duration": {"text": "1 min", "value": 34}, "end_location": {"lat": 29.803842, "lng": -95.41002979999999}, "html_instructions": "Walk to W 20th St @ N Shepherd Dr", "polyline": {"points": "q_|tDdxieQ_@@M??Q"}, "start_location": {"lat": 29.8036121, "lng": -95.410111}, "steps": [{"distance": {"text": "69 ft", "value": 21}, "duration": {"text": "1 min", "value": 15}, "end_location": {"lat": 29.8038391, "lng": -95.4101207}, "html_instructions": "Head <b>north</b> on <b>N Shepherd Dr</b> toward <b>W 20th St</b>", "polyline": {"points": "q_|tDdxieQ_@@M?"}, "start_location": {"lat": 29.8036121, "lng": -95.410111}, "travel_mode": "WALKING"}, {"distance": {"text": "43 ft", "value": 13}, "duration": {"text": "1 min", "value": 19}, "end_location": {"lat": 29.803842, "lng": -95.41002979999999}, "html_instructions": "Turn <b>right</b> onto <b>W 20th St</b>", "maneuver": "turn-right", "polyline": {"points": "_a|tDfxieQ?Q"}, "start_location": {"lat": 29.8038391, "lng": -95.4101207}, "travel_mode": "WALKING"}], "travel_mode": "WALKING"}, {"distance": {"text": "2.7 mi", "value": 4367}, "duration": {"text": "10 mins", "value": 582}, "end_location": {"lat": 29.80163, "lng": -95.454342}, "html_instructions": "Bus towards Memorial City", "polyline": {"points": "ea|tDvwieQJ?@V?fA@`ABfE?tABtJ?pB@rA?r@?H?|@?jB?@?j@@h@AL?\\?J@f@?|B?h@?|@?n@?N?|G?J@tE?d@@dC?p@AL@J?V@P@H?B?D@F@HBH@JDPDLDLDHDJDJHLFHFHLL?@TVTVn@v@NRh@h@NPVX^f@BJBFBFf@v@P`@DZDVBT@F?D@F?H?P@P?X?N?F?j@@pAIpB@f@?V?fA?j@?V@h@AjA?h@@~@?b@@^Af@@d@?X?bA?jA?b@@nC?J?d@Aj@?v@?P@dB?jA?bC?`A?\\@dH?`D?dC@fE?jD?T@`F@vB?jD?vC?X?`E@V@zCAb@?fAAX@fB@fA?T@|B?l@A~A?x@?XAzB?`A?dB?l@?P?F?H@^?Z?@?H?@?Z?h@?f@?j@?^?t@@j@BnAAV@|@@fB?bBG?"}, "start_location": {"lat": 29.803869, "lng": -95.410039}, "transit_details": {"arrival_stop": {"location": {"lat": 29.80163, "lng": -95.454342}, "name": "W 18th St @ Northwest Fwy"}, "arrival_time": {"text": "4:48pm", "time_zone": "America/Chicago", "value": 1642027720}, "departure_stop": {"location": {"lat": 29.803869, "lng": -95.410039}, "name": "W 20th St @ N Shepherd Dr"}, "departure_time": {"text": "4:38pm", "time_zone": "America/Chicago", "value": 1642027138}, "headsign": "Memorial City", "line": {"agencies": [{"name": "Metropolitan Transit Authority of Harris County", "phone": "1 (713) 635-4000", "url": "http://www.ridemetro.org/"}], "color": "#004080", "name": "Long Point / Cavalcade", "short_name": "26", "text_color": "#ffffff", "url": "https://www.ridemetro.org/MetroPDFs/Schedules/BusSchedules/n026-Long-Point-Cavalcade.pdf", "vehicle": {"icon": "//maps.gstatic.com/mapfiles/transit/iw2/6/bus2.png", "name": "Bus", "type": "BUS"}}, "num_stops": 14, "trip_short_name": "LONGPOINT"}, "travel_mode": "TRANSIT"}, {"distance": {"text": "322 ft", "value": 98}, "duration": {"text": "1 min", "value": 77}, "end_location": {"lat": 29.8019199, "lng": -95.45428179999999}, "html_instructions": "Walk to 4400 W 18th St, Houston, TX 77092, USA", "polyline": {"points": "es{tDrlreQ?z@YEc@E?G@Q@a@"}, "start_location": {"lat": 29.8016264, "lng": -95.454342}, "steps": [{"distance": {"text": "95 ft", "value": 29}, "duration": {"text": "1 min", "value": 22}, "end_location": {"lat": 29.8016252, "lng": -95.45463819999999}, "html_instructions": "Head <b>west</b> on <b>W 18th St</b>/<wbr/><b>NW Mall</b>", "polyline": {"points": "es{tDrlreQ?z@"}, "start_location": {"lat": 29.8016264, "lng": -95.454342}, "travel_mode": "WALKING"}, {"distance": {"text": "131 ft", "value": 40}, "duration": {"text": "1 min", "value": 33}, "end_location": {"lat": 29.8019405, "lng": -95.4545788}, "html_instructions": "Turn <b>right</b><div style=\"font-size:0.9em\">Restricted usage road</div>", "maneuver": "turn-right", "polyline": {"points": "es{tDnnreQYEc@E"}, "start_location": {"lat": 29.8016252, "lng": -95.45463819999999}, "travel_mode": "WALKING"}, {"distance": {"text": "95 ft", "value": 29}, "duration": {"text": "1 min", "value": 22}, "end_location": {"lat": 29.8019199, "lng": -95.45428179999999}, "html_instructions": "Turn <b>right</b><div style=\"font-size:0.9em\">Restricted usage road</div><div style=\"font-size:0.9em\">Destination will be on the left</div>", "maneuver": "turn-right", "polyline": {"points": "cu{tDbnreQ?G@Q@a@"}, "start_location": {"lat": 29.8019405, "lng": -95.4545788}, "travel_mode": "WALKING"}], "travel_mode": "WALKING"}], "traffic_speed_entry": [], "via_waypoint": []}], "overview_polyline": {"points": "}ietD`cneQAqAIMUC?wAyA@OHOGsBAyHDAmACw@?_@I@AYYuBU}@]}@]q@o@}@e@c@]YaAi@u@YiASw@IkACi@I_AUu@Wc@U{@m@}BeBuAmA{@}@Ya@Wm@Qg@UkAKcBH_CJ}@X{A`@uAnAoCXs@Ro@T{AFy@@eAIgAUmAi@oAY_@gAeAoBeBq@y@Qk@MHAMASKWM][wAK{@C]EwF?uAPaBf@oE`@}CBWaAw@[Wy@o@sB}AqA_AkIiGaAm@yAgAoCmBuHoFyB_B][DKTg@b@gAf@mAh@iCB{@eAGIGIM?S@QRu@?OEKWE_ANM}@Fj@kAh@]@KKCQ@y@?g@rCg@r@KPHJh@Ip@EVCL@TCLY`ADb@JJLDhAHCp@]lB_BzDSf@m@rA[h@c@`@_CjAQHa@DaC?BzR@dG?h@oA?{@?oD@iIBuC?eHBsD?cIDqHB{FB}AAAc@Ay@GaAc@_D]yA]kAcBaGuKlEiBd@oATaBR}AJkBDoD?_HDkJ@qHFoF@eE@wJDgCFuAAoCBuGAsIB}JB}JDeF@}EB_AIo@KcB?sD@kSBeZF{CDwA?UI[QMIY[OYIQIYyAkEWe@]c@o@c@y@U}@@{@?WIgB?KEWAo@AaCC{@AcA@EBUNEDMNOb@wCX}CXK@KEC?Q?[AAAA?QCc@EWA[FKBeBZqATw@TgAB[?cA@kA@o@D_CJuDBmJDaID}JFoC@eAAmBD_RJ{BBuB@iC@oDBu@CeEaAcAUs@Ci@?a@Bm@NoBh@sAVyBRwAF{ABqHB{DBsKHyMHwQJie@Z{HDsJ@?K?Bm@@?QE@J?@V@hCB|GDnR?vH@vRBpNBd@Hf@Vv@\\n@`CtCx@z@v@`AFRj@~@V|@Hl@B^@lA?r@@pAIpB@~@?rB@`AAtB@jD@nE@`MBda@BzO?~OBrDAjB@~E@jDAxCA|H@xC@|GDlG?bBG??z@}@K@Y@a@"}, "summary": "", "warnings": ["Walking directions are in beta. Use caution \u2013 This route may be missing sidewalks or pedestrian paths."], "waypoint_order": []}, {"bounds": {"northeast": {"lat": 29.8026478, "lng": -95.4063745}, "southwest": {"lat": 29.6875116, "lng": -95.4593211}}, "copyrights": "Map data \u00a92022", "legs": [{"arrival_time": {"text": "4:55pm", "time_zone": "America/Chicago", "value": 1642028139}, "departure_time": {"text": "3:29pm", "time_zone": "America/Chicago", "value": 1642022977}, "distance": {"text": "12.4 mi", "value": 20035}, "duration": {"text": "1 hour 26 mins", "value": 5162}, "end_address": "4400 W 18th St, Houston, TX 77092, USA", "end_location": {"lat": 29.8019199, "lng": -95.45428179999999}, "start_address": "3617 Norris Dr, Houston, TX 77025, USA", "start_location": {"lat": 29.6875116, "lng": -95.4323331}, "steps": [{"distance": {"text": "0.3 mi", "value": 494}, "duration": {"text": "6 mins", "value": 364}, "end_location": {"lat": 29.6904827, "lng": -95.430611}, "html_instructions": "Walk to Braeswood Blvd @ Bevlyn Dr", "polyline": {"points": "}ietD`cneQ?E?OAc@?WIMUC?eA?QG?qA@OHOGO?cBA_DByC@?[?Q?OAO?SCc@A]"}, "start_location": {"lat": 29.6875116, "lng": -95.4323331}, "steps": [{"distance": {"text": "217 ft", "value": 66}, "duration": {"text": "1 min", "value": 47}, "end_location": {"lat": 29.6876809, "lng": -95.43183119999999}, "html_instructions": "Head <b>east</b> toward <b>Norris Dr</b>", "polyline": {"points": "}ietD`cneQ?E?OAc@?WIMUC"}, "start_location": {"lat": 29.6875116, "lng": -95.4323331}, "travel_mode": "WALKING"}, {"distance": {"text": "125 ft", "value": 38}, "duration": {"text": "1 min", "value": 28}, "end_location": {"lat": 29.6877201, "lng": -95.43139359999999}, "html_instructions": "Turn <b>right</b> onto <b>Norris Dr</b>", "maneuver": "turn-right", "polyline": {"points": "_ketD|_neQ?eA?QG?"}, "start_location": {"lat": 29.6876809, "lng": -95.43183119999999}, "travel_mode": "WALKING"}, {"distance": {"text": "0.2 mi", "value": 307}, "duration": {"text": "4 mins", "value": 225}, "end_location": {"lat": 29.6904448, "lng": -95.4314266}, "html_instructions": "Turn <b>left</b> onto <b>Timberside Dr</b>", "maneuver": "turn-left", "polyline": {"points": "gketDd}meQqA@OHOGO?cBA_DByC@"}, "start_location": {"lat": 29.6877201, "lng": -95.43139359999999}, "travel_mode": "WALKING"}, {"distance": {"text": "272 ft", "value": 83}, "duration": {"text": "1 min", "value": 64}, "end_location": {"lat": 29.6904827, "lng": -95.430611}, "html_instructions": "Turn <b>right</b> onto <b>S Braeswood Blvd</b><div style=\"font-size:0.9em\">Destination will be on the right</div>", "maneuver": "turn-right", "polyline": {"points": "g|etDl}meQ?[?Q?OAO?SCc@A]"}, "start_location": {"lat": 29.6904448, "lng": -95.4314266}, "travel_mode": "WALKING"}], "travel_mode": "WALKING"}, {"distance": {"text": "2.0 mi", "value": 3235}, "duration": {"text": "7 mins", "value": 414}, "end_location": {"lat": 29.7039834, "lng": -95.4066781}, "html_instructions": "Bus towards TMC TC", "polyline": {"points": "m|etDfxmeQI@AYMcAKq@K_@I]KWQe@O]MSU]Y_@]]GEMMOKo@_@QISKa@Ma@IAAMAWEQC[CC?EAU?a@ASAUESC_@I_@K[KYK[OGEGCIGGEa@[u@i@QOMKg@_@OOeA}@QOi@m@MSKMMYISEIEMAGCGEQCGE[EUEe@AKAYAW?U?I@WFgAB_@F]Fa@Py@Ha@Vs@JYbAuBN]HUFSJ[Jk@Ho@D_@@Y@[?i@Ck@E[?EEYOk@?AM]CGMYIOSWEGg@g@_@]{@u@MMKIYWY[W]GOI[MHAMASKWISCIMe@Mq@G]C]AEAWAOCuCA[@u@?aA?SBOLqADg@Hy@@CTiBBO\\mCBWaAw@[We@_@SO{@o@i@a@AAKISMe@_@IGMIo@g@i@_@SOyAiAOKMK}AiAGEEEIC_@UQMq@g@g@_@MMaC_BcD_CqCoBcBiAUULQ"}, "start_location": {"lat": 29.690471, "lng": -95.43060299999999}, "transit_details": {"arrival_stop": {"location": {"lat": 29.7039834, "lng": -95.4066781}, "name": "Main St @ Pressler St"}, "arrival_time": {"text": "3:43pm", "time_zone": "America/Chicago", "value": 1642023780}, "departure_stop": {"location": {"lat": 29.690471, "lng": -95.43060299999999}, "name": "Braeswood Blvd @ Bevlyn Dr"}, "departure_time": {"text": "3:36pm", "time_zone": "America/Chicago", "value": 1642023366}, "headsign": "TMC TC", "line": {"agencies": [{"name": "Metropolitan Transit Authority of Harris County", "phone": "1 (713) 635-4000", "url": "http://www.ridemetro.org/"}], "color": "#004080", "name": "Braeswood", "short_name": "68", "text_color": "#ffffff", "url": "https://www.ridemetro.org/MetroPDFs/Schedules/BusSchedules/n068-Braeswood.pdf", "vehicle": {"icon": "//maps.gstatic.com/mapfiles/transit/iw2/6/bus2.png", "name": "Bus", "type": "BUS"}}, "num_stops": 10, "trip_short_name": "BRAESWOOD"}, "travel_mode": "TRANSIT"}, {"distance": {"text": "164 ft", "value": 50}, "duration": {"text": "1 min", "value": 38}, "end_location": {"lat": 29.7041574, "lng": -95.4063745}, "html_instructions": "Walk to Pressler St @ Main St", "polyline": {"points": "cqhtD`cieQYW@AHQIOCK"}, "start_location": {"lat": 29.7040217, "lng": -95.4067338}, "steps": [{"distance": {"text": "72 ft", "value": 22}, "duration": {"text": "1 min", "value": 16}, "end_location": {"lat": 29.7041479, "lng": -95.4066137}, "html_instructions": "Head <b>northeast</b> on <b>Main St</b> toward <b>Pressler St</b>", "polyline": {"points": "cqhtD`cieQYW"}, "start_location": {"lat": 29.7040217, "lng": -95.4067338}, "travel_mode": "WALKING"}, {"distance": {"text": "56 ft", "value": 17}, "duration": {"text": "1 min", "value": 12}, "end_location": {"lat": 29.70413779999999, "lng": -95.4064344}, "html_instructions": "Turn <b>right</b> onto <b>Pressler St</b>", "maneuver": "turn-right", "polyline": {"points": "}qhtDhbieQ@AHQIO"}, "start_location": {"lat": 29.7041479, "lng": -95.4066137}, "travel_mode": "WALKING"}, {"distance": {"text": "36 ft", "value": 11}, "duration": {"text": "1 min", "value": 10}, "end_location": {"lat": 29.7041574, "lng": -95.4063745}, "html_instructions": "Turn <b>left</b><div style=\"font-size:0.9em\">Destination will be on the left</div>", "maneuver": "turn-left", "polyline": {"points": "{qhtDdaieQCK"}, "start_location": {"lat": 29.70413779999999, "lng": -95.4064344}, "travel_mode": "WALKING"}], "travel_mode": "WALKING"}, {"distance": {"text": "5.2 mi", "value": 8335}, "duration": {"text": "25 mins", "value": 1500}, "end_location": {"lat": 29.770345, "lng": -95.409409}, "html_instructions": "Bus towards N Shepherd P&R", "polyline": {"points": "crhtDz`ieQNJCFIPEJIPEHELWh@QXINOPSNkAl@OH]PE@MFC@MBS@e@@M?o@A]??|B?vA?^@nG?j@?R?P@b@?~@@rAA`A@n@?h@oA?[?_@?WAsBBQ?Q?eD@uB@S?Y?yAA{@@yC@kC@K?gD?cDB_D@}A?oA@_B@c@?cE@w@@}AAAc@?g@AQCYCg@Iq@E[Gc@Km@Os@Me@IUSu@GUw@oCMc@Uw@cBp@IDkAb@kAf@{@^SHy@ZEBSF_@JKBi@LA@SDWDa@FI@a@F]DWBYBQ@o@DA?M@w@@W@M?K?oA?gA?K?sA@uA@K@iB?s@?iD@yB?S?c@@gB?oCBU@eB@e@?]?eA?S?O?U?aA?i@@A?[?A?Y@k@?]?m@?W?iD@c@@aA@eADcAAQ?aA?S@c@?U@y@Ao@AgB?cA@sA?cA@Q?iD@wA?u@@e@?c@?M?_A@]?y@?y@@Y?K?y@@O?s@?y@?eB@cA?y@@O?K?W?I?c@?E?}ABE?q@?gA?]Aa@G[GSCg@AS@M?Y?a@?m@?_A?c@@S?sC@gA@iA?kD?iB?_@?[?Y?q@@gB?{@?Y@qA?eA?I?uD@i@@_A?Q?O?{@?m@?M?g@@y@@g@@Q?[?{@?OGEAGCEEGCECECGEY[OYEKCECGEQ_AuCAEEIQe@IQCEACGIEGEGGIIIEEOKGEQKMEk@Oo@@M?{@?WIgB?KEC?SAYAU?IA]?SAeA?S?g@AcA@EBIFKFA@CBIHCDGHGXQ@aAJa@Da@DC?}AL]D]DK@KEA?A?I?G?M?MAAAA?C?AAE?CAA?OCC?AAM?WA[FE@E@c@HG@YD_@HeAPKBw@TgABW?C?W?k@@_A@K?[@SBe@Dc@@SBa@?eA@[?M?eA@c@?e@?]?_@@Y?k@?M?qCBg@?Q?M@U?e@?M?qCB]?w@@_@?E@AO"}, "start_location": {"lat": 29.704177, "lng": -95.40638299999999}, "transit_details": {"arrival_stop": {"location": {"lat": 29.770345, "lng": -95.409409}, "name": "Shepherd Dr @ Washington Ave"}, "arrival_time": {"text": "4:22pm", "time_zone": "America/Chicago", "value": 1642026120}, "departure_stop": {"location": {"lat": 29.704177, "lng": -95.40638299999999}, "name": "Pressler St @ Main St"}, "departure_time": {"text": "3:57pm", "time_zone": "America/Chicago", "value": 1642024620}, "headsign": "N Shepherd P&R", "line": {"agencies": [{"name": "Metropolitan Transit Authority of Harris County", "phone": "1 (713) 635-4000", "url": "http://www.ridemetro.org/"}], "color": "#004080", "name": "Shepherd", "short_name": "27", "text_color": "#ffffff", "url": "https://www.ridemetro.org/MetroPDFs/Schedules/BusSchedules/n027-Shepherd.pdf", "vehicle": {"icon": "//maps.gstatic.com/mapfiles/transit/iw2/6/bus2.png", "name": "Bus", "type": "BUS"}}, "num_stops": 37, "trip_short_name": "SHEPHERD"}, "travel_mode": "TRANSIT"}, {"distance": {"text": "82 ft", "value": 25}, "duration": {"text": "1 min", "value": 28}, "end_location": {"lat": 29.7704974, "lng": -95.4093594}, "html_instructions": "Walk to Washington Ave @ Shepherd Dr", "polyline": {"points": "soutD~sieQO@O??Q"}, "start_location": {"lat": 29.7703444, "lng": -95.4094437}, "steps": [{"distance": {"text": "43 ft", "value": 13}, "duration": {"text": "1 min", "value": 9}, "end_location": {"lat": 29.7704965, "lng": -95.4094472}, "html_instructions": "Head <b>north</b> on <b>Shepherd Dr</b> toward <b>Washington Ave</b>", "polyline": {"points": "soutD~sieQO@O?"}, "start_location": {"lat": 29.7703444, "lng": -95.4094437}, "travel_mode": "WALKING"}, {"distance": {"text": "39 ft", "value": 12}, "duration": {"text": "1 min", "value": 19}, "end_location": {"lat": 29.7704974, "lng": -95.4093594}, "html_instructions": "Turn <b>right</b> onto <b>Washington Ave</b>", "maneuver": "turn-right", "polyline": {"points": "sputD`tieQ?Q"}, "start_location": {"lat": 29.7704965, "lng": -95.4094472}, "travel_mode": "WALKING"}], "travel_mode": "WALKING"}, {"distance": {"text": "4.4 mi", "value": 7158}, "duration": {"text": "16 mins", "value": 977}, "end_location": {"lat": 29.801027, "lng": -95.45922999999999}, "html_instructions": "Bus towards Hempstead TC", "polyline": {"points": "{putDnsieQN??X?\\?^?X?N?j@?b@@`@?t@@j@?j@?N@`@?z@@dC?V@h@?RARAr@AJ?NAP?RCZAV?FCxA?XExACpAClACnAAj@CvAC|@?NA`@mC@q@Di@H[Hi@NOFA?MDE@C@I@MBMBKBK@KBKBA?M@SBSBK?e@?O@C@O?wA@S?{@@gA@[?A?A?EAmBD}A@S?G@G?OD_B@s@AO?w@?O@S?c@?_@?K?K?wA@oB?c@@}ADs@@oB@a@@_@?KE?AA?C?SCkAKw@Oo@KSCEAA?MAqCY_@?_@?C@C?A?C@C@CBA@A@?@A@?@CT?BAN?P?F@D@FBD@BBB@@B@B@B@D?T@h@@xBJZ@@dJ?FB`F@tCBpL?TBvL?NBjJ@|A?|CBtG?T@`G?b@AP?LCLAFCHGLINGL]n@u@rAkA`CKNsA~BqA`CCBQXMNOPIFABEBKFKFODiAROBa@FE@E@IBGBGBEDCB?@A@?BAB@F@FFH]JSVMNIHIJ?@KRIXu@hAIRA@MPW^MTw@fAa@n@ORMVKPQ^O\\O`@Wn@ENELAFKZMb@A@MDKZw@|BEJO^Yn@i@bAQ\\W`@EJ[d@EHg@x@c@n@OTINSXKP]d@_DxEMRe@r@oAnBQV[f@CDKN]`@ORE@C?C@C@q@bAKNQTs@bAEHEJCB?@AB?@?@CPGHS\\[d@iAbBq@`A_@n@e@r@G@C@C@Yb@q@`A]f@QV_@j@A@?@A@W\\KNABGHOVCBILc@l@W\\GLGHU\\?BABAJOX]d@OVo@dAiAhBa@n@Y`@QXY`@AD{A|B_B~BwAxBMR{A|BU\\W`@sBtCg@z@a@L{@vA]b@Sd@w@lAYh@OQ"}, "start_location": {"lat": 29.770538, "lng": -95.40935999999999}, "transit_details": {"arrival_stop": {"location": {"lat": 29.801027, "lng": -95.45922999999999}, "name": "Hempstead Rd @ W 18th St"}, "arrival_time": {"text": "4:45pm", "time_zone": "America/Chicago", "value": 1642027552}, "departure_stop": {"location": {"lat": 29.770538, "lng": -95.40935999999999}, "name": "Washington Ave @ Shepherd Dr"}, "departure_time": {"text": "4:29pm", "time_zone": "America/Chicago", "value": 1642026575}, "headsign": "Hempstead TC", "line": {"agencies": [{"name": "Metropolitan Transit Authority of Harris County", "phone": "1 (713) 635-4000", "url": "http://www.ridemetro.org/"}], "color": "#004080", "name": "Cottage Grove", "short_name": "71", "text_color": "#ffffff", "url": "https://www.ridemetro.org/MetroPDFs/Schedules/BusSchedules/n071-Cottage-Grove.pdf", "vehicle": {"icon": "//maps.gstatic.com/mapfiles/transit/iw2/6/bus2.png", "name": "Bus", "type": "BUS"}}, "num_stops": 22, "trip_short_name": "COTTGROV"}, "travel_mode": "TRANSIT"}, {"distance": {"text": "0.5 mi", "value": 738}, "duration": {"text": "10 mins", "value": 587}, "end_location": {"lat": 29.8019199, "lng": -95.45428179999999}, "html_instructions": "Walk to 4400 W 18th St, Houston, TX 77092, USA", "polyline": {"points": "mo{tDdkseQKPKKKAK?I@IB?Q?aA?M?QAO?OM?M@M?mED@[Ae@?g@ASDKP]d@}@Xq@B]QOIIOMEKKAQUGGEIAE?C?A@C@EBEV_@KMNWHMJSRa@Ts@R}@Jy@Hy@?G@Q@a@"}, "start_location": {"lat": 29.8010254, "lng": -95.4592253}, "steps": [{"distance": {"text": "49 ft", "value": 15}, "duration": {"text": "1 min", "value": 11}, "end_location": {"lat": 29.8011512, "lng": -95.4592626}, "html_instructions": "Head <b>northwest</b>", "polyline": {"points": "mo{tDdkseQKPKK"}, "start_location": {"lat": 29.8010254, "lng": -95.4592253}, "travel_mode": "WALKING"}, {"distance": {"text": "102 ft", "value": 31}, "duration": {"text": "1 min", "value": 23}, "end_location": {"lat": 29.8013705, "lng": -95.4592806}, "html_instructions": "Turn <b>right</b> toward <b>W 18th St</b>", "maneuver": "turn-right", "polyline": {"points": "ep{tDjkseQKAK?I@IB"}, "start_location": {"lat": 29.8011512, "lng": -95.4592626}, "travel_mode": "WALKING"}, {"distance": {"text": "240 ft", "value": 73}, "duration": {"text": "1 min", "value": 61}, "end_location": {"lat": 29.8014508, "lng": -95.4585436}, "html_instructions": "Turn <b>right</b> onto <b>W 18th St</b>", "maneuver": "turn-right", "polyline": {"points": "qq{tDnkseQ?Q?aA?M?QAO?OM?"}, "start_location": {"lat": 29.8013705, "lng": -95.4592806}, "travel_mode": "WALKING"}, {"distance": {"text": "440 ft", "value": 134}, "duration": {"text": "2 mins", "value": 127}, "end_location": {"lat": 29.80261729999999, "lng": -95.45858140000001}, "html_instructions": "Turn <b>left</b> onto <b>Mangum Rd</b>", "maneuver": "turn-left", "polyline": {"points": "ar{tDzfseQM@M?mED"}, "start_location": {"lat": 29.8014508, "lng": -95.4585436}, "travel_mode": "WALKING"}, {"distance": {"text": "0.1 mi", "value": 168}, "duration": {"text": "2 mins", "value": 133}, "end_location": {"lat": 29.8021725, "lng": -95.45703209999999}, "html_instructions": "Turn <b>right</b>", "maneuver": "turn-right", "polyline": {"points": "ky{tDbgseQ@[Ae@?g@ASDKP]d@}@Xq@B]"}, "start_location": {"lat": 29.80261729999999, "lng": -95.45858140000001}, "travel_mode": "WALKING"}, {"distance": {"text": "348 ft", "value": 106}, "duration": {"text": "1 min", "value": 80}, "end_location": {"lat": 29.8024852, "lng": -95.4562641}, "html_instructions": "Turn <b>left</b><div style=\"font-size:0.9em\">Partial restricted usage road</div>", "maneuver": "turn-left", "polyline": {"points": "qv{tDl}reQQOIIOMEKKAQUGGEIAE?C?A@C@EBEV_@"}, "start_location": {"lat": 29.8021725, "lng": -95.45703209999999}, "travel_mode": "WALKING"}, {"distance": {"text": "33 ft", "value": 10}, "duration": {"text": "1 min", "value": 8}, "end_location": {"lat": 29.8025494, "lng": -95.456192}, "html_instructions": "Turn <b>left</b><div style=\"font-size:0.9em\">Restricted usage road</div>", "maneuver": "turn-left", "polyline": {"points": "qx{tDrxreQKM"}, "start_location": {"lat": 29.8024852, "lng": -95.4562641}, "travel_mode": "WALKING"}, {"distance": {"text": "0.1 mi", "value": 201}, "duration": {"text": "2 mins", "value": 144}, "end_location": {"lat": 29.8019199, "lng": -95.45428179999999}, "html_instructions": "Turn <b>right</b><div style=\"font-size:0.9em\">Restricted usage road</div><div style=\"font-size:0.9em\">Destination will be on the left</div>", "maneuver": "turn-right", "polyline": {"points": "}x{tDdxreQNWHMJSRa@Ts@R}@Jy@Hy@?G@Q@a@"}, "start_location": {"lat": 29.8025494, "lng": -95.456192}, "travel_mode": "WALKING"}], "travel_mode": "WALKING"}], "traffic_speed_entry": [], "via_waypoint": []}], "overview_polyline": {"points": "}ietD`cneQAqAIMUC?wAyA@OHOGsBAyHDAmACw@?_@I@AYYuBU}@]}@]q@o@}@e@c@]YaAi@u@YiASw@IkACi@I_AUu@Wc@U{@m@}BeBuAmA{@}@Ya@Wm@Qg@UkAKcBH_CJ}@X{A`@uAnAoCXs@Ro@T{AFy@@eAIgAUmAi@oAY_@gAeAoBeBq@y@Qk@MHAMASKWM][wAK{@C]EwF?uAPaBf@oE`@}CBWaAw@[Wy@o@sB}AqA_AkIiGaAm@yAgAoCmBuHoFyB_BLQGHYW@AHQIOCKC@NJCFO\\m@rA[h@c@`@_CjAQHa@DaC?@dOBzJ?h@oA?{@?oD@iIBuC?eHBsD?cIDqHB{FB}AAAc@Ay@GaAc@_D]yA]kAcBaGeGbCoChAiBd@oATaBR}AJkBDoD?_HDkJ@qHFkJ@mDBsGBgCFuAAoCBuGAkPD}THiHB_AIo@KcB?mNDaQ@mNDgC?{CDwA?UI[QMIY[OYIQIYyAkEWe@]c@o@c@y@U}@@{@?WIgB?KEWAo@AaCC{@AcA@EBUNEDMNOb@wCX}CXK@KEC?Q?[AAAQCe@EWA[FKBeBZqATw@TgAB[?cA@kA@o@D_CJ}HDcIDcFBwA@E@AO@DO@O??QG?N??v@?tBBfDDtJM|DWpNIfEmC@q@DeARiA\\a@HaBVuAD_CBuJHs@F{E?gIBeHJaA@KGeBOaCa@OAqCY_@?c@@E?MHCFEz@FZJJb@DbDLZ@@dJBhFDfQFhYDfP@dHA^ETKVeB`DwApCeD`GU\\]`@]V[LyAVw@NYPCJBNFH]Ja@f@STKTIXu@hAKTMP_ClD{@|A}@~Ba@tAOFcAxCUj@cArBkApBaBhCgA`BcHpK}@tAm@t@I@GB}@rAqAnBEJCR[f@wDzFe@r@G@GB{BdDc@p@oBrC}@rAAFAJOXm@|@yBnDgBlCuG|JwCpEsBtCg@z@a@L{@vA]b@Sd@qAvBOQKPKKWASD?sBA_@[@{ED?aAA{@Vi@~@oBB]QOYWEKKAY]GOBOZe@KMNWTa@Ra@Ts@R}@TsBB{@"}, "summary": "", "warnings": ["Walking directions are in beta. Use caution \u2013 This route may be missing sidewalks or pedestrian paths."], "waypoint_order": []}, {"bounds": {"northeast": {"lat": 29.803869, "lng": -95.40828479999999}, "southwest": {"lat": 29.6866987, "lng": -95.45463819999999}}, "copyrights": "Map data \u00a92022", "legs": [{"arrival_time": {"text": "4:34pm", "time_zone": "America/Chicago", "value": 1642026897}, "departure_time": {"text": "3:06pm", "time_zone": "America/Chicago", "value": 1642021613}, "distance": {"text": "13.4 mi", "value": 21551}, "duration": {"text": "1 hour 28 mins", "value": 5284}, "end_address": "4400 W 18th St, Houston, TX 77092, USA", "end_location": {"lat": 29.8019199, "lng": -95.45428179999999}, "start_address": "3617 Norris Dr, Houston, TX 77025, USA", "start_location": {"lat": 29.6875116, "lng": -95.4323331}, "steps": [{"distance": {"text": "0.6 mi", "value": 913}, "duration": {"text": "11 mins", "value": 668}, "end_location": {"lat": 29.6875, "lng": -95.43990629999999}, "html_instructions": "Walk to Stella Link Rd @ Linkwood Dr", "polyline": {"points": "}ietD`cneQ?r@KPU@M??r@@p@?hC?H?N?l@?NF?b@AX?nBAH?L?@bE?N?lC@j@AV?FAFCLAHCFELEHEFEF[\\IHIHSPKNKNMTSb@Or@EPCTAXAN@T@`D?N@tBX?"}, "start_location": {"lat": 29.6875116, "lng": -95.4323331}, "steps": [{"distance": {"text": "167 ft", "value": 51}, "duration": {"text": "1 min", "value": 37}, "end_location": {"lat": 29.6877477, "lng": -95.43269459999999}, "html_instructions": "Head <b>west</b> toward <b>Norris Dr</b>", "polyline": {"points": "}ietD`cneQ?r@KPU@M?"}, "start_location": {"lat": 29.6875116, "lng": -95.4323331}, "travel_mode": "WALKING"}, {"distance": {"text": "0.1 mi", "value": 154}, "duration": {"text": "2 mins", "value": 112}, "end_location": {"lat": 29.6877023, "lng": -95.4343287}, "html_instructions": "Turn <b>left</b> onto <b>Norris Dr</b>", "maneuver": "turn-left", "polyline": {"points": "mketDheneQ?r@@p@?hC?H?N?l@?NF?"}, "start_location": {"lat": 29.6877477, "lng": -95.43269459999999}, "travel_mode": "WALKING"}, {"distance": {"text": "348 ft", "value": 106}, "duration": {"text": "1 min", "value": 77}, "end_location": {"lat": 29.6867128, "lng": -95.4343097}, "html_instructions": "Turn <b>left</b> onto <b>Ilona Ln</b>", "maneuver": "turn-left", "polyline": {"points": "cketDponeQb@AX?nBAH?L?"}, "start_location": {"lat": 29.6877023, "lng": -95.4343287}, "travel_mode": "WALKING"}, {"distance": {"text": "0.4 mi", "value": 584}, "duration": {"text": "7 mins", "value": 429}, "end_location": {"lat": 29.6876286, "lng": -95.4399071}, "html_instructions": "Turn <b>right</b> onto <b>Linkwood Dr</b>", "maneuver": "turn-right", "polyline": {"points": "}detDloneQ@bE?N?lC@j@AV?FAFCLAHCFELEHEFEF[\\IHIHSPKNKNMTSb@Or@EPCTAXAN@T@`D?N@tB"}, "start_location": {"lat": 29.6867128, "lng": -95.4343097}, "travel_mode": "WALKING"}, {"distance": {"text": "59 ft", "value": 18}, "duration": {"text": "1 min", "value": 13}, "end_location": {"lat": 29.6875, "lng": -95.43990629999999}, "html_instructions": "Turn <b>left</b> onto <b>Stella Link Rd</b>", "maneuver": "turn-left", "polyline": {"points": "ujetDlroeQX?"}, "start_location": {"lat": 29.6876286, "lng": -95.4399071}, "travel_mode": "WALKING"}], "travel_mode": "WALKING"}, {"distance": {"text": "3.0 mi", "value": 4758}, "duration": {"text": "10 mins", "value": 574}, "end_location": {"lat": 29.70607099999999, "lng": -95.41219199999999}, "html_instructions": "Bus towards TMC TC", "polyline": {"points": "{ietDhroeQ?J_@?eAA]@[?sC@M@c@B_@?a@?O?c@AA?YAc@?c@@G@Q@[@c@?YAe@?SAI@U@a@@YCk@?mB?M?_A?O?yA?_A@kB?qC@W?iD@oC@Y?iD?mC@C?G@Q?kD@m@?gB@Q?kD?k@?o@?y@@Y?s@@[?sA?_B@_A?Y?}A@kA?cB@oB?[?]??aB?i@AgB?yA?YAoC?[?s@AwDAsA?y@?}@AoC?kA?W?[?SA]A{B?kE?gB?Y?u@?g@AgCAwA?O?cA?S?yBAwB?e@?a@?o@?cBAcBAgB?eB?c@?eC?Q?sD?y@?_@?c@?{@A]?yBCeG?yA?EASA_C@iAAU?eB@[Ae@?y@AiECoH?{@?[?_A?W?]AeE?WAU?kA?oAJ?"}, "start_location": {"lat": 29.6875, "lng": -95.439894}, "transit_details": {"arrival_stop": {"location": {"lat": 29.70607099999999, "lng": -95.41219199999999}, "name": "Holcombe Blvd @ Greenbriar Dr"}, "arrival_time": {"text": "3:27pm", "time_zone": "America/Chicago", "value": 1642022855}, "departure_stop": {"location": {"lat": 29.6875, "lng": -95.439894}, "name": "Stella Link Rd @ Linkwood Dr"}, "departure_time": {"text": "3:18pm", "time_zone": "America/Chicago", "value": 1642022281}, "headsign": "TMC TC", "line": {"agencies": [{"name": "Metropolitan Transit Authority of Harris County", "phone": "1 (713) 635-4000", "url": "http://www.ridemetro.org/"}], "color": "#004080", "name": "Willowbend", "short_name": "10", "text_color": "#ffffff", "url": "https://www.ridemetro.org/MetroPDFs/Schedules/BusSchedules/n010-Willowbend.pdf", "vehicle": {"icon": "//maps.gstatic.com/mapfiles/transit/iw2/6/bus2.png", "name": "Bus", "type": "BUS"}}, "num_stops": 21, "trip_short_name": "WILLOWBEND"}, "travel_mode": "TRANSIT"}, {"distance": {"text": "246 ft", "value": 75}, "duration": {"text": "1 min", "value": 74}, "end_location": {"lat": 29.70630959999999, "lng": -95.4123718}, "html_instructions": "Walk to Holcombe Blvd @ Greenbriar Dr", "polyline": {"points": "a~htDdejeQ?fAMAO?M??a@"}, "start_location": {"lat": 29.7060936, "lng": -95.4121923}, "steps": [{"distance": {"text": "125 ft", "value": 38}, "duration": {"text": "1 min", "value": 27}, "end_location": {"lat": 29.706163, "lng": -95.412545}, "html_instructions": "Head <b>west</b> on <b>W Holcombe Blvd</b> toward <b>Greenbriar Dr</b>", "polyline": {"points": "a~htDdejeQ?fAMA"}, "start_location": {"lat": 29.7060936, "lng": -95.4121923}, "travel_mode": "WALKING"}, {"distance": {"text": "52 ft", "value": 16}, "duration": {"text": "1 min", "value": 22}, "end_location": {"lat": 29.7063085, "lng": -95.41254409999999}, "html_instructions": "Turn <b>right</b> onto <b>Greenbriar Dr</b>", "maneuver": "turn-right", "polyline": {"points": "o~htDjgjeQO?M?"}, "start_location": {"lat": 29.706163, "lng": -95.412545}, "travel_mode": "WALKING"}, {"distance": {"text": "69 ft", "value": 21}, "duration": {"text": "1 min", "value": 25}, "end_location": {"lat": 29.70630959999999, "lng": -95.4123718}, "html_instructions": "Turn <b>right</b> onto <b>W Holcombe Blvd</b>", "maneuver": "turn-right", "polyline": {"points": "m_itDjgjeQ?a@"}, "start_location": {"lat": 29.7063085, "lng": -95.41254409999999}, "travel_mode": "WALKING"}], "travel_mode": "WALKING"}, {"distance": {"text": "7.0 mi", "value": 11306}, "duration": {"text": "30 mins", "value": 1782}, "end_location": {"lat": 29.803613, "lng": -95.41008699999999}, "html_instructions": "Bus towards N Shepherd P&R", "polyline": {"points": "s_itDjfjeQL??h@oA?[?_@?WAsBBQ?Q?eD@uB@S?Y?yAA{@@yC@kC@K?gD?cDB_D@}A?oA@_B@c@?cE@w@@}AAAc@?g@AQCYCg@Iq@E[Gc@Km@Os@Me@IUSu@GUw@oCMc@Uw@cBp@IDkAb@kAf@{@^SHy@ZEBSF_@JKBi@LA@SDWDa@FI@a@F]DWBYBQ@o@DA?M@w@@W@M?K?oA?gA?K?sA@uA@K@iB?s@?iD@yB?S?c@@gB?oCBU@eB@e@?]?eA?S?O?U?aA?i@@A?[?A?Y@k@?]?m@?W?iD@c@@aA@eADcAAQ?aA?S@c@?U@y@Ao@AgB?cA@sA?cA@Q?iD@wA?u@@e@?c@?M?_A@]?y@?y@@Y?K?y@@O?s@?y@?eB@cA?y@@O?K?W?I?c@?E?}ABE?q@?gA?]Aa@G[GSCg@AS@M?Y?a@?m@?_A?c@@S?sC@gA@iA?kD?iB?_@?[?Y?q@@gB?{@?Y@qA?eA?I?uD@i@@_A?Q?O?{@?m@?M?g@@y@@g@@Q?[?{@?OGEAGCEEGCECECGEY[OYEKCECGEQ_AuCAEEIQe@IQCEACGIEGEGGIIIEEOKGEQKMEk@Oo@@M?{@?WIgB?KEC?SAYAU?IA]?SAeA?S?g@AcA@EBIFKFA@CBIHCDGHGXQ@aAJa@Da@DC?}AL]D]DK@KEA?A?I?G?M?MAAAA?C?AAE?CAA?OCC?AAM?WA[FE@E@c@HG@YD_@HeAPKBw@TgABW?C?W?k@@_A@K?[@SBe@Dc@@SBa@?eA@[?M?eA@c@?e@?]?_@@Y?k@?M?qCBg@?Q?M@U?e@?M?qCB]?w@@_@?E@W?e@?mB@gA?k@@]?qB@c@@a@CE@e@@m@?S@kA?cA@aCBM?oC@eA@oA@Y?[?O?a@Bm@?U?o@?e@@I?A?A?y@?M@YAS@O?_@@w@@y@?]?M?YAMAMCOEYIIAa@Kc@Ku@QGACAm@MAAOCIAK?OAM?M?A?I?O?S@M@IBc@Jq@P}@Vg@Jk@Ji@Hc@Be@DE?c@Bs@ByABA?oCBYA}B@I?A?q@@K?E?k@?C?O@u@?S?k@@w@@K?a@?O?[@U?U?U?k@@k@?Y@C?I?S?kC@y@@K?W@[?S?A?W?G?U@S?c@?e@@O?E?[?mCBeA@U?Y?S?U@A?S?aA@_@?e@@Q?S?U?s@?C?W?qB@sB@eBBg@?oBBaGBq@@w@?aB@i@@W@_B@yA@aB@Q?qD@U@gB?eB@eBA_A@?K"}, "start_location": {"lat": 29.7063417, "lng": -95.41237609999999}, "transit_details": {"arrival_stop": {"location": {"lat": 29.803613, "lng": -95.41008699999999}, "name": "N Shepherd Dr @ W 20th St"}, "arrival_time": {"text": "4:14pm", "time_zone": "America/Chicago", "value": 1642025640}, "departure_stop": {"location": {"lat": 29.7063417, "lng": -95.41237609999999}, "name": "Holcombe Blvd @ Greenbriar Dr"}, "departure_time": {"text": "3:44pm", "time_zone": "America/Chicago", "value": 1642023858}, "headsign": "N Shepherd P&R", "line": {"agencies": [{"name": "Metropolitan Transit Authority of Harris County", "phone": "1 (713) 635-4000", "url": "http://www.ridemetro.org/"}], "color": "#004080", "name": "Shepherd", "short_name": "27", "text_color": "#ffffff", "url": "https://www.ridemetro.org/MetroPDFs/Schedules/BusSchedules/n027-Shepherd.pdf", "vehicle": {"icon": "//maps.gstatic.com/mapfiles/transit/iw2/6/bus2.png", "name": "Bus", "type": "BUS"}}, "num_stops": 48, "trip_short_name": "SHEPHERD"}, "travel_mode": "TRANSIT"}, {"distance": {"text": "112 ft", "value": 34}, "duration": {"text": "1 min", "value": 34}, "end_location": {"lat": 29.803842, "lng": -95.41002979999999}, "html_instructions": "Walk to W 20th St @ N Shepherd Dr", "polyline": {"points": "q_|tDdxieQ_@@M??Q"}, "start_location": {"lat": 29.8036121, "lng": -95.410111}, "steps": [{"distance": {"text": "69 ft", "value": 21}, "duration": {"text": "1 min", "value": 15}, "end_location": {"lat": 29.8038391, "lng": -95.4101207}, "html_instructions": "Head <b>north</b> on <b>N Shepherd Dr</b> toward <b>W 20th St</b>", "polyline": {"points": "q_|tDdxieQ_@@M?"}, "start_location": {"lat": 29.8036121, "lng": -95.410111}, "travel_mode": "WALKING"}, {"distance": {"text": "43 ft", "value": 13}, "duration": {"text": "1 min", "value": 19}, "end_location": {"lat": 29.803842, "lng": -95.41002979999999}, "html_instructions": "Turn <b>right</b> onto <b>W 20th St</b>", "maneuver": "turn-right", "polyline": {"points": "_a|tDfxieQ?Q"}, "start_location": {"lat": 29.8038391, "lng": -95.4101207}, "travel_mode": "WALKING"}], "travel_mode": "WALKING"}, {"distance": {"text": "2.7 mi", "value": 4367}, "duration": {"text": "10 mins", "value": 582}, "end_location": {"lat": 29.80163, "lng": -95.454342}, "html_instructions": "Bus towards Memorial City", "polyline": {"points": "ea|tDvwieQJ?@V?fA@`ABfE?tABtJ?pB@rA?r@?H?|@?jB?@?j@@h@AL?\\?J@f@?|B?h@?|@?n@?N?|G?J@tE?d@@dC?p@AL@J?V@P@H?B?D@F@HBH@JDPDLDLDHDJDJHLFHFHLL?@TVTVn@v@NRh@h@NPVX^f@BJBFBFf@v@P`@DZDVBT@F?D@F?H?P@P?X?N?F?j@@pAIpB@f@?V?fA?j@?V@h@AjA?h@@~@?b@@^Af@@d@?X?bA?jA?b@@nC?J?d@Aj@?v@?P@dB?jA?bC?`A?\\@dH?`D?dC@fE?jD?T@`F@vB?jD?vC?X?`E@V@zCAb@?fAAX@fB@fA?T@|B?l@A~A?x@?XAzB?`A?dB?l@?P?F?H@^?Z?@?H?@?Z?h@?f@?j@?^?t@@j@BnAAV@|@@fB?bBG?"}, "start_location": {"lat": 29.803869, "lng": -95.410039}, "transit_details": {"arrival_stop": {"location": {"lat": 29.80163, "lng": -95.454342}, "name": "W 18th St @ Northwest Fwy"}, "arrival_time": {"text": "4:33pm", "time_zone": "America/Chicago", "value": 1642026820}, "departure_stop": {"location": {"lat": 29.803869, "lng": -95.410039}, "name": "W 20th St @ N Shepherd Dr"}, "departure_time": {"text": "4:23pm", "time_zone": "America/Chicago", "value": 1642026238}, "headsign": "Memorial City", "line": {"agencies": [{"name": "Metropolitan Transit Authority of Harris County", "phone": "1 (713) 635-4000", "url": "http://www.ridemetro.org/"}], "color": "#004080", "name": "Long Point / Cavalcade", "short_name": "26", "text_color": "#ffffff", "url": "https://www.ridemetro.org/MetroPDFs/Schedules/BusSchedules/n026-Long-Point-Cavalcade.pdf", "vehicle": {"icon": "//maps.gstatic.com/mapfiles/transit/iw2/6/bus2.png", "name": "Bus", "type": "BUS"}}, "num_stops": 14, "trip_short_name": "LONGPOINT"}, "travel_mode": "TRANSIT"}, {"distance": {"text": "322 ft", "value": 98}, "duration": {"text": "1 min", "value": 77}, "end_location": {"lat": 29.8019199, "lng": -95.45428179999999}, "html_instructions": "Walk to 4400 W 18th St, Houston, TX 77092, USA", "polyline": {"points": "es{tDrlreQ?z@YEc@E?G@Q@a@"}, "start_location": {"lat": 29.8016264, "lng": -95.454342}, "steps": [{"distance": {"text": "95 ft", "value": 29}, "duration": {"text": "1 min", "value": 22}, "end_location": {"lat": 29.8016252, "lng": -95.45463819999999}, "html_instructions": "Head <b>west</b> on <b>W 18th St</b>/<wbr/><b>NW Mall</b>", "polyline": {"points": "es{tDrlreQ?z@"}, "start_location": {"lat": 29.8016264, "lng": -95.454342}, "travel_mode": "WALKING"}, {"distance": {"text": "131 ft", "value": 40}, "duration": {"text": "1 min", "value": 33}, "end_location": {"lat": 29.8019405, "lng": -95.4545788}, "html_instructions": "Turn <b>right</b><div style=\"font-size:0.9em\">Restricted usage road</div>", "maneuver": "turn-right", "polyline": {"points": "es{tDnnreQYEc@E"}, "start_location": {"lat": 29.8016252, "lng": -95.45463819999999}, "travel_mode": "WALKING"}, {"distance": {"text": "95 ft", "value": 29}, "duration": {"text": "1 min", "value": 22}, "end_location": {"lat": 29.8019199, "lng": -95.45428179999999}, "html_instructions": "Turn <b>right</b><div style=\"font-size:0.9em\">Restricted usage road</div><div style=\"font-size:0.9em\">Destination will be on the left</div>", "maneuver": "turn-right", "polyline": {"points": "cu{tDbnreQ?G@Q@a@"}, "start_location": {"lat": 29.8019405, "lng": -95.4545788}, "travel_mode": "WALKING"}], "travel_mode": "WALKING"}], "traffic_speed_entry": [], "via_waypoint": []}], "overview_polyline": {"points": "}ietD`cneQ?r@KPc@@@xF?|@?NF?|@AxBAL?@bE?|C?bAANOl@KPa@d@s@t@Yd@Sb@Or@If@Ch@D|HXC?J_@?cB?oD@q@DaA?oACgA@YB_A@_AAuABeAC{B?iF@_MBaNBiEBcOBgODmG@AmIE}RI}c@CeQAwSGqRCkSE{UAaB?oAJ?C??fA]AM??a@E@L??h@oA?{@?oD@iIBuC?eHBsD?cIDqHB{FB}AAAc@Ay@GaAc@_D]yA]kAcBaGuKlEiBd@oATaBR}AJkBDoD?_HDkJ@qHFoF@eE@wJDgCFuAAoCBuGAsIB}JB}JDeF@}EB_AIo@KcB?sD@kSBeZF{CDwA?UI[QMIY[OYIQIYyAkEWe@]c@o@c@y@U}@@{@?WIgB?KEWAo@AaCC{@AcA@EBUNEDMNOb@wCX}CXK@KEC?Q?[AAAA?QCc@EWA[FKBeBZqATw@TgAB[?cA@kA@o@D_CJuDBmJDaID}JFoC@eAAmBD_RJ{BBuB@iC@oDBu@CeEaAcAUs@Ci@?a@Bm@NoBh@sAVyBRwAF{ABqHB{DBsKHyMHwQJie@Z{HDsJ@?K?Bm@@?QE@J?@V@hCB|GDnR?vH@vRBpNBd@Hf@Vv@\\n@`CtCx@z@v@`AFRj@~@V|@Hl@B^@lA?r@@pAIpB@~@?rB@`AAtB@jD@nE@`MBda@BzO?~OBrDAjB@~E@jDAxCA|H@xC@|GDlG?bBG??z@}@K@Y@a@"}, "summary": "", "warnings": ["Walking directions are in beta. Use caution \u2013 This route may be missing sidewalks or pedestrian paths."], "waypoint_order": []}, {"bounds": {"northeast": {"lat": 29.80413, "lng": -95.3870031}, "southwest": {"lat": 29.6866987, "lng": -95.45463819999999}}, "copyrights": "Map data \u00a92022", "legs": [{"arrival_time": {"text": "4:34pm", "time_zone": "America/Chicago", "value": 1642026897}, "departure_time": {"text": "3:06pm", "time_zone": "America/Chicago", "value": 1642021613}, "distance": {"text": "16.0 mi", "value": 25797}, "duration": {"text": "1 hour 28 mins", "value": 5284}, "end_address": "4400 W 18th St, Houston, TX 77092, USA", "end_location": {"lat": 29.8019199, "lng": -95.45428179999999}, "start_address": "3617 Norris Dr, Houston, TX 77025, USA", "start_location": {"lat": 29.6875116, "lng": -95.4323331}, "steps": [{"distance": {"text": "0.6 mi", "value": 913}, "duration": {"text": "11 mins", "value": 668}, "end_location": {"lat": 29.6875, "lng": -95.43990629999999}, "html_instructions": "Walk to Stella Link Rd @ Linkwood Dr", "polyline": {"points": "}ietD`cneQ?r@KPU@M??r@@p@?hC?H?N?l@?NF?b@AX?nBAH?L?@bE?N?lC@j@AV?FAFCLAHCFELEHEFEF[\\IHIHSPKNKNMTSb@Or@EPCTAXAN@T@`D?N@tBX?"}, "start_location": {"lat": 29.6875116, "lng": -95.4323331}, "steps": [{"distance": {"text": "167 ft", "value": 51}, "duration": {"text": "1 min", "value": 37}, "end_location": {"lat": 29.6877477, "lng": -95.43269459999999}, "html_instructions": "Head <b>west</b> toward <b>Norris Dr</b>", "polyline": {"points": "}ietD`cneQ?r@KPU@M?"}, "start_location": {"lat": 29.6875116, "lng": -95.4323331}, "travel_mode": "WALKING"}, {"distance": {"text": "0.1 mi", "value": 154}, "duration": {"text": "2 mins", "value": 112}, "end_location": {"lat": 29.6877023, "lng": -95.4343287}, "html_instructions": "Turn <b>left</b> onto <b>Norris Dr</b>", "maneuver": "turn-left", "polyline": {"points": "mketDheneQ?r@@p@?hC?H?N?l@?NF?"}, "start_location": {"lat": 29.6877477, "lng": -95.43269459999999}, "travel_mode": "WALKING"}, {"distance": {"text": "348 ft", "value": 106}, "duration": {"text": "1 min", "value": 77}, "end_location": {"lat": 29.6867128, "lng": -95.4343097}, "html_instructions": "Turn <b>left</b> onto <b>Ilona Ln</b>", "maneuver": "turn-left", "polyline": {"points": "cketDponeQb@AX?nBAH?L?"}, "start_location": {"lat": 29.6877023, "lng": -95.4343287}, "travel_mode": "WALKING"}, {"distance": {"text": "0.4 mi", "value": 584}, "duration": {"text": "7 mins", "value": 429}, "end_location": {"lat": 29.6876286, "lng": -95.4399071}, "html_instructions": "Turn <b>right</b> onto <b>Linkwood Dr</b>", "maneuver": "turn-right", "polyline": {"points": "}detDloneQ@bE?N?lC@j@AV?FAFCLAHCFELEHEFEF[\\IHIHSPKNKNMTSb@Or@EPCTAXAN@T@`D?N@tB"}, "start_location": {"lat": 29.6867128, "lng": -95.4343097}, "travel_mode": "WALKING"}, {"distance": {"text": "59 ft", "value": 18}, "duration": {"text": "1 min", "value": 13}, "end_location": {"lat": 29.6875, "lng": -95.43990629999999}, "html_instructions": "Turn <b>left</b> onto <b>Stella Link Rd</b>", "maneuver": "turn-left", "polyline": {"points": "ujetDlroeQX?"}, "start_location": {"lat": 29.6876286, "lng": -95.4399071}, "travel_mode": "WALKING"}], "travel_mode": "WALKING"}, {"distance": {"text": "3.7 mi", "value": 5877}, "duration": {"text": "12 mins", "value": 719}, "end_location": {"lat": 29.704328, "lng": -95.40361999999999}, "html_instructions": "Bus towards TMC TC", "polyline": {"points": "{ietDhroeQ?J_@?eAA]@[?sC@M@c@B_@?a@?O?c@AA?YAc@?c@@G@Q@[@c@?YAe@?SAI@U@a@@YCk@?mB?M?_A?O?yA?_A@kB?qC@W?iD@oC@Y?iD?mC@C?G@Q?kD@m@?gB@Q?kD?k@?o@?y@@Y?s@@[?sA?_B@_A?Y?}A@kA?cB@oB?[?]??aB?i@AgB?yA?YAoC?[?s@AwDAsA?y@?}@AoC?kA?W?[?SA]A{B?kE?gB?Y?u@?g@AgCAwA?O?cA?S?yBAwB?e@?a@?o@?cBAcBAgB?eB?c@?eC?Q?sD?y@?_@?c@?{@A]?yBCeG?yA?EASA_C@iAAU?eB@[Ae@?y@AiECoH?{@?[?_A?W?]AeE?WAU?kA?oA?qAAqB?qAA}D@Y?uB?mCAaA?g@?sB?{A?iA?m@ASAK?kA?qA?E?k@?G?M?iBA_BAeA?MAaAj@?lB?b@?\\??LBHDJBBDBVLDG@C@APEb@I`@GJbA"}, "start_location": {"lat": 29.6875, "lng": -95.439894}, "transit_details": {"arrival_stop": {"location": {"lat": 29.704328, "lng": -95.40361999999999}, "name": "Texas Medical Center Transit Center"}, "arrival_time": {"text": "3:30pm", "time_zone": "America/Chicago", "value": 1642023000}, "departure_stop": {"location": {"lat": 29.6875, "lng": -95.439894}, "name": "Stella Link Rd @ Linkwood Dr"}, "departure_time": {"text": "3:18pm", "time_zone": "America/Chicago", "value": 1642022281}, "headsign": "TMC TC", "line": {"agencies": [{"name": "Metropolitan Transit Authority of Harris County", "phone": "1 (713) 635-4000", "url": "http://www.ridemetro.org/"}], "color": "#004080", "name": "Willowbend", "short_name": "10", "text_color": "#ffffff", "url": "https://www.ridemetro.org/MetroPDFs/Schedules/BusSchedules/n010-Willowbend.pdf", "vehicle": {"icon": "//maps.gstatic.com/mapfiles/transit/iw2/6/bus2.png", "name": "Bus", "type": "BUS"}}, "num_stops": 25, "trip_short_name": "WILLOWBEND"}, "travel_mode": "TRANSIT"}, {"distance": {"text": "7.7 mi", "value": 12332}, "duration": {"text": "33 mins", "value": 1971}, "end_location": {"lat": 29.803849, "lng": -95.387502}, "html_instructions": "Bus towards Greenspoint TC", "polyline": {"points": "ashtDroheQKcA@?`@Ib@GXEBAB@B@@@FF@B@D@D?R?DC^ANKd@Y`AGT?D?H?@?F@H@FBFBFDDDBFBH@B?`AF?PAVQfAW`ASd@Sf@GNGNGNKVGLCFIPa@UQMMOMKKIIIqAgAyBaBa@[EAAAs@g@[Y]Uo@e@kA{@gBiACAEAMAkBqAk@_@c@[GEa@[o@g@_@[iA{@iAy@[YSSmBsAg@_@c@[ECi@a@_@WwAcAaBmAYSECMI_Am@o@c@{AiAkBsAcBoAWQYSkA{@MKm@c@_@YQOUQaAs@CAgBqAi@_@UQ_@W[Ws@i@w@k@eAw@oEcDiBsAECGEECg@]IG]YOMWUcFqDk@a@}AiAWQy@m@]Yo@e@MICCCCEEGG[[?IAIAEAECIEGCGCGQOECCAKEICICKAE?EAK@CBEDEFCFCH?@?@?@?@OPGDE@I?YF]?iA?aB?g@?e@?W?}@@Y?s@?C?c@?c@@M?c@?S@K?kA?sA?qC@M?m@@oB@Y?}@@A?Q?u@?m@?GECCS?]?e@?Q@G?M?C?G?[?M?I@GAO?]@KJG?E?q@?e@@[?Q?O?I?S?cB?G?g@?i@?S?_@?e@?o@@E?]@aA?w@@o@?Q@eC@Q?qB?w@?wB@k@@Q?}@?kB@oC@Y@i@?_B?a@?_A?_@?k@?e@?[?i@?eCBGESCWAaABc@?O?o@?U?M?[?c@Ba@BK@M@C@G@SDIBe@Nu@Rc@L[JKDMFKDaAPi@DG@Q@U@s@BiA@q@@W@iB?aA@M?e@?]@_A@K?wA@o@@cA@_A?qBBU@uCBu@@g@?c@?c@?_@?c@@cC@e@@yA?a@?_@@_@?yA@]@cA?C@e@@c@@o@BW@K?S@Y?i@DA?Y@Q@I@G@QBG@e@DU@g@@m@@a@?C?mABaB?Y@[?]?W?gAAS?c@?W?_@AWCC?M?C?WAc@@c@?c@GQC[?I?Q?Q?a@BQ@?@Q?A?A?Q@EAA?E?U?A?KAW?e@AqBG_@Ca@AO?o@Cm@?[?u@AoEBQ?]?O?cACYCYA]C_@GUEg@Gg@MA?]KOEu@UQCiBk@s@WSG_@OKEA?aBm@a@OEC[KEAAAYGOEQEA?SEKCGAOCKA_@EkBEk@Ai@?a@?sB@W?QASCQAQCAAi@IQEMCICOG_@OAAMGMG[QMGOKEEIIUOc@_@CCUQACOOu@q@ECq@q@AASSw@u@?AYYUS_@_@WUu@s@IIA??AIGEEKKCAGEGCIGQIQK]OAAYKEAOGWIYGc@IQCQCQAQAE?]CG?M?iAD}@H_@Hq@PgAZSFa@NEBG@GDIBMDC@E@K@Y@Q@Q?K?A?A?A@CBCDU?aB?}CB[?uDBkB@[?K?Q?Q?aA@y@?{@?qA@{A?K?e@@kA@i@@[?gA?g@@E?Y?E?a@?yA@S?m@?Y?uB@S@q@?_@BE?Q?M@w@?MAi@?k@?c@?O?_A@I?M@o@@mB?Y@S?wB@o@@w@?O?Q?}A?k@@i@@}@?c@@y@?wA@mC@Q?oA@Y?U@sB?W@qB?c@@I?yA@m@?cA?W@gB?_@?w@?sA@wA@Q?}@@sAIc@HFa@D]B]@QH?"}, "start_location": {"lat": 29.704328, "lng": -95.40361999999999}, "transit_details": {"arrival_stop": {"location": {"lat": 29.803849, "lng": -95.387502}, "name": "W Cavalcade St @ N Main St"}, "arrival_time": {"text": "4:12pm", "time_zone": "America/Chicago", "value": 1642025571}, "departure_stop": {"location": {"lat": 29.704328, "lng": -95.40361999999999}, "name": "Texas Medical Center Transit Center"}, "departure_time": {"text": "3:40pm", "time_zone": "America/Chicago", "value": 1642023600}, "headsign": "Greenspoint TC", "line": {"agencies": [{"name": "Metropolitan Transit Authority of Harris County", "phone": "1 (713) 635-4000", "url": "http://www.ridemetro.org/"}], "color": "#004080", "name": "Airline / Montrose", "short_name": "56", "text_color": "#ffffff", "url": "https://www.ridemetro.org/MetroPDFs/Schedules/BusSchedules/n056-Airline-Montrose.pdf", "vehicle": {"icon": "//maps.gstatic.com/mapfiles/transit/iw2/6/bus2.png", "name": "Bus", "type": "BUS"}}, "num_stops": 45, "trip_short_name": "AIRLMONT"}, "travel_mode": "TRANSIT"}, {"distance": {"text": "256 ft", "value": 78}, "duration": {"text": "1 min", "value": 77}, "end_location": {"lat": 29.8040987, "lng": -95.3879358}, "html_instructions": "Walk to W Cavalcade St @ N Main St", "polyline": {"points": "ca|tDzjeeQARC\\E\\EROBC?O@DO?A"}, "start_location": {"lat": 29.8038626, "lng": -95.38750189999999}, "steps": [{"distance": {"text": "180 ft", "value": 55}, "duration": {"text": "1 min", "value": 40}, "end_location": {"lat": 29.8040284, "lng": -95.388019}, "html_instructions": "Head <b>west</b> on <b>W Cavalcade St</b> toward <b>N Main St</b>", "polyline": {"points": "ca|tDzjeeQARC\\E\\EROB"}, "start_location": {"lat": 29.8038626, "lng": -95.38750189999999}, "travel_mode": "WALKING"}, {"distance": {"text": "36 ft", "value": 11}, "duration": {"text": "1 min", "value": 18}, "end_location": {"lat": 29.8041286, "lng": -95.38803279999999}, "html_instructions": "Turn <b>right</b> onto <b>N Main St</b>", "maneuver": "turn-right", "polyline": {"points": "eb|tDbneeQC?O@"}, "start_location": {"lat": 29.8040284, "lng": -95.388019}, "travel_mode": "WALKING"}, {"distance": {"text": "39 ft", "value": 12}, "duration": {"text": "1 min", "value": 19}, "end_location": {"lat": 29.8040987, "lng": -95.3879358}, "html_instructions": "Turn <b>right</b> onto <b>W Cavalcade St</b>", "maneuver": "turn-right", "polyline": {"points": "yb|tDdneeQDO?A"}, "start_location": {"lat": 29.8041286, "lng": -95.38803279999999}, "travel_mode": "WALKING"}], "travel_mode": "WALKING"}, {"distance": {"text": "4.0 mi", "value": 6499}, "duration": {"text": "14 mins", "value": 864}, "end_location": {"lat": 29.80163, "lng": -95.454342}, "html_instructions": "Bus towards Memorial City", "polyline": {"points": "wb|tDpmeeQJBA@ETC\\Af@?P?P?LA`@@\\BpA?^@j@?H@tA?n@?b@@b@?X?P?V@`A?v@@dA?V?vA@T?lB@jB@tA?XB|E?~A@zB@nB?V?V@t@?L?R?L@R?N?f@?h@@|@?\\?d@?b@@n@?pA@|B?d@?`@@t@?T?pA@v@@rA?v@@bD@~@?nA@H?tB@^@dC?P?j@@x@?x@?t@@P?dA@|A?\\?^@dC@zB?xA?N@V?fA@`ABfE?tABtJ?pB@rA?r@?H?|@?jB?@?j@@h@AL?\\?J@f@?|B?h@?|@?n@?N?|G?J@tE?d@@dC?p@AL@J?V@P@H?B?D@F@HBH@JDPDLDLDHDJDJHLFHFHLL?@TVTVn@v@NRh@h@NPVX^f@BJBFBFf@v@P`@DZDVBT@F?D@F?H?P@P?X?N?F?j@@pAIpB@f@?V?fA?j@?V@h@AjA?h@@~@?b@@^Af@@d@?X?bA?jA?b@@nC?J?d@Aj@?v@?P@dB?jA?bC?`A?\\@dH?`D?dC@fE?jD?T@`F@vB?jD?vC?X?`E@V@zCAb@?fAAX@fB@fA?T@|B?l@A~A?x@?XAzB?`A?dB?l@?P?F?H@^?Z?@?H?@?Z?h@?f@?j@?^?t@@j@BnAAV@|@@fB?bBG?"}, "start_location": {"lat": 29.804119, "lng": -95.38793299999999}, "transit_details": {"arrival_stop": {"location": {"lat": 29.80163, "lng": -95.454342}, "name": "W 18th St @ Northwest Fwy"}, "arrival_time": {"text": "4:33pm", "time_zone": "America/Chicago", "value": 1642026820}, "departure_stop": {"location": {"lat": 29.804119, "lng": -95.38793299999999}, "name": "W Cavalcade St @ N Main St"}, "departure_time": {"text": "4:19pm", "time_zone": "America/Chicago", "value": 1642025956}, "headsign": "Memorial City", "line": {"agencies": [{"name": "Metropolitan Transit Authority of Harris County", "phone": "1 (713) 635-4000", "url": "http://www.ridemetro.org/"}], "color": "#004080", "name": "Long Point / Cavalcade", "short_name": "26", "text_color": "#ffffff", "url": "https://www.ridemetro.org/MetroPDFs/Schedules/BusSchedules/n026-Long-Point-Cavalcade.pdf", "vehicle": {"icon": "//maps.gstatic.com/mapfiles/transit/iw2/6/bus2.png", "name": "Bus", "type": "BUS"}}, "num_stops": 24, "trip_short_name": "LONGPOINT"}, "travel_mode": "TRANSIT"}, {"distance": {"text": "322 ft", "value": 98}, "duration": {"text": "1 min", "value": 77}, "end_location": {"lat": 29.8019199, "lng": -95.45428179999999}, "html_instructions": "Walk to 4400 W 18th St, Houston, TX 77092, USA", "polyline": {"points": "es{tDrlreQ?z@YEc@E?G@Q@a@"}, "start_location": {"lat": 29.8016264, "lng": -95.454342}, "steps": [{"distance": {"text": "95 ft", "value": 29}, "duration": {"text": "1 min", "value": 22}, "end_location": {"lat": 29.8016252, "lng": -95.45463819999999}, "html_instructions": "Head <b>west</b> on <b>W 18th St</b>/<wbr/><b>NW Mall</b>", "polyline": {"points": "es{tDrlreQ?z@"}, "start_location": {"lat": 29.8016264, "lng": -95.454342}, "travel_mode": "WALKING"}, {"distance": {"text": "131 ft", "value": 40}, "duration": {"text": "1 min", "value": 33}, "end_location": {"lat": 29.8019405, "lng": -95.4545788}, "html_instructions": "Turn <b>right</b><div style=\"font-size:0.9em\">Restricted usage road</div>", "maneuver": "turn-right", "polyline": {"points": "es{tDnnreQYEc@E"}, "start_location": {"lat": 29.8016252, "lng": -95.45463819999999}, "travel_mode": "WALKING"}, {"distance": {"text": "95 ft", "value": 29}, "duration": {"text": "1 min", "value": 22}, "end_location": {"lat": 29.8019199, "lng": -95.45428179999999}, "html_instructions": "Turn <b>right</b><div style=\"font-size:0.9em\">Restricted usage road</div><div style=\"font-size:0.9em\">Destination will be on the left</div>", "maneuver": "turn-right", "polyline": {"points": "cu{tDbnreQ?G@Q@a@"}, "start_location": {"lat": 29.8019405, "lng": -95.4545788}, "travel_mode": "WALKING"}], "travel_mode": "WALKING"}], "traffic_speed_entry": [], "via_waypoint": []}], "overview_polyline": {"points": "}ietD`cneQ?r@KPc@@@xF?|@?NF?|@AxBAL?@bE?|C?bAANOl@KPa@d@s@t@Yd@Sb@Or@If@Ch@D|HXC?J_@?cB?oD@q@DaA?oACgA@YB_A@_AAuABeAC{B?iF@_MBaNBiEBcOBgODmG@AmIE}RI}c@CeQAwSGqRCkSE{UC_TAuTC}D?y@C}GAoAxC?`A?BVHN\\PFKRGdAQJbAKcAb@I|@MLBLVEhAm@|B?XJ`@JHPDdAF?PAVQfAW`ASd@[v@O^a@~@s@c@MOuBgBcDaCoAaAmA{@sDeCICMAkBqAoA{@yBeBsCuBo@m@_EsCcGkEmBoA{IqGkCmBuB_B}IsGsNgKoAeAeKoHkDmC[[?ICOO_@_@]k@OW?SXCNORMFc@FgB?gE?iGB}NFkB@cB?KIiB@a@?{@?O?]@KJM?wA@gA?kH?uKH{ODaNBqFB[IyA@yB?i@?eAFe@F]H{Ab@yAf@mAVq@FeDHuFDiJH}IHeD@iLF_EDqCHcBFw@DgALmCDmEDyCAoA?iAEcB?u@Ke@?wADU@{AAyEOiCCuH@gCI{BYwA_@gAY}CcAaA]eDmAq@Qs@OcAMwCGkA?kC@e@EoAQy@U}@a@_Ak@gA}@}AwAuDqDiCcC_@WkAm@q@Wq@Qu@M{@Ge@CwAD}@H_@HyBl@cA\\c@P}@F_@?KJ{RHuKBgIFgJDiBBeA@w@A_D@uDBuEDwD?wDDqHBkLFwNDiB@}@@sAIc@HFa@H{@@QH?CRIz@EROBS@DQCAJBGVEhBB~CD|HPbf@Xtt@Jf\\Jx]?xH@lG?hJBrL@bABZLp@Vp@^l@bDtDf@j@^f@BJFNf@v@P`@Jr@D\\@h@@bA@|BIpB@f@?~A?bA?tB@hB@pC?lE@hNBdd@Df\\A`HDbIA`FApI@lB?xCDpE@`HG??z@YEc@E?GBs@"}, "summary": "", "warnings": ["Walking directions are in beta. Use caution \u2013 This route may be missing sidewalks or pedestrian paths."], "waypoint_order": []}], "status": "OK"}