{"geocoded_waypoints": [{"geocoder_status": "OK", "place_id": "ChIJn0hXJFm4QIYRqXw0LG09NMw", "types": ["establishment", "point_of_interest", "school"]}, {"geocoder_status": "OK", "place_id": "ChIJ9_tphxzHQIYRIMyPy_d3VZU", "types": ["establishment", "point_of_interest"]}], "routes": [{"bounds": {"northeast": {"lat": 29.8215402, "lng": -95.3663}, "southwest": {"lat": 29.8015904, "lng": -95.45463819999999}}, "copyrights": "Map data \u00a92022", "legs": [{"arrival_time": {"text": "4:49pm", "time_zone": "America/Chicago", "value": 1642027797}, "departure_time": {"text": "4:00pm", "time_zone": "America/Chicago", "value": 1642024847}, "distance": {"text": "7.0 mi", "value": 11202}, "duration": {"text": "49 mins", "value": 2950}, "end_address": "4400 W 18th St, Houston, TX 77092, USA", "end_location": {"lat": 29.8019199, "lng": -95.45428179999999}, "start_address": "525 Bennington St, Houston, TX 77022, USA", "start_location": {"lat": 29.8215402, "lng": -95.3663}, "steps": [{"distance": {"text": "0.7 mi", "value": 1081}, "duration": {"text": "13 mins", "value": 793}, "end_location": {"lat": 29.8158224, "lng": -95.37040359999999}, "html_instructions": "Walk to Melbourne/North Lindale", "polyline": {"points": "so_uDjfaeQ@xD?bD?NHxG?P?B@N@xC@`@?FL?dE\\lCNb@Fx@LhC\\pBVRZHIZYPKPMLGVMLGBANEFANELEn@UdA_@HELEr@SZK"}, "start_location": {"lat": 29.8215402, "lng": -95.3663}, "steps": [{"distance": {"text": "0.3 mi", "value": 422}, "duration": {"text": "5 mins", "value": 312}, "end_location": {"lat": 29.8213783, "lng": -95.3707146}, "html_instructions": "Head <b>west</b> on <b>Bennington St</b> toward <b>Appleton St</b>", "polyline": {"points": "so_uDjfaeQ@xD?bD?NHxG?P?B@N@xC@`@?FL?"}, "start_location": {"lat": 29.8215402, "lng": -95.3663}, "travel_mode": "WALKING"}, {"distance": {"text": "0.3 mi", "value": 415}, "duration": {"text": "5 mins", "value": 298}, "end_location": {"lat": 29.8177966, "lng": -95.37140769999999}, "html_instructions": "Turn <b>left</b> onto <b>Donlen St</b>", "maneuver": "turn-left", "polyline": {"points": "sn_uD|abeQdE\\lCNb@Fx@LhC\\pBVRZHI"}, "start_location": {"lat": 29.8213783, "lng": -95.3707146}, "travel_mode": "WALKING"}, {"distance": {"text": "0.2 mi", "value": 244}, "duration": {"text": "3 mins", "value": 183}, "end_location": {"lat": 29.8158224, "lng": -95.37040359999999}, "html_instructions": "Turn <b>left</b> onto <b>Fulton St</b>", "maneuver": "turn-left", "polyline": {"points": "gx~tDhfbeQZYPKPMLGVMLGBANEFANELEn@UdA_@HELEr@SZK"}, "start_location": {"lat": 29.8177966, "lng": -95.37140769999999}, "travel_mode": "WALKING"}], "travel_mode": "WALKING"}, {"distance": {"text": "0.9 mi", "value": 1488}, "duration": {"text": "3 mins", "value": 180}, "end_location": {"lat": 29.802723, "lng": -95.368141}, "html_instructions": "Light rail towards METRORail - FANNIN SOUTH", "polyline": {"points": "qk~tDt`beQAEvAc@TGPGhA]\\KHCVGVGXGNCFAZED?\\EHAb@EJA@?JAV?`@?dB?VBP@XBd@?XCRATAzC?lDAR?ZAVCPATAfAM`AKnDa@RCJAb@G@?ZC`@ERCdBSxBU~@M|@IXEHAr@I~BWREPCPETGNEpAa@XId@O\\It@UBJ"}, "start_location": {"lat": 29.815769, "lng": -95.370514}, "transit_details": {"arrival_stop": {"location": {"lat": 29.802723, "lng": -95.368141}, "name": "Cavalcade"}, "arrival_time": {"text": "4:17pm", "time_zone": "America/Chicago", "value": 1642025820}, "departure_stop": {"location": {"lat": 29.815769, "lng": -95.370514}, "name": "Melbourne/North Lindale"}, "departure_time": {"text": "4:14pm", "time_zone": "America/Chicago", "value": 1642025640}, "headsign": "METRORail - FANNIN SOUTH", "line": {"agencies": [{"name": "Metropolitan Transit Authority of Harris County", "phone": "1 (713) 635-4000", "url": "http://www.ridemetro.org/"}], "color": "#e60f33", "name": "Metrorail Red Line", "short_name": "Red", "text_color": "#ffffff", "url": "https://www.ridemetro.org/Pages/RedLine.aspx", "vehicle": {"icon": "//maps.gstatic.com/mapfiles/transit/iw2/6/tram2.png", "name": "Light rail", "type": "TRAM"}}, "num_stops": 2}, "travel_mode": "TRANSIT"}, {"distance": {"text": "374 ft", "value": 114}, "duration": {"text": "2 mins", "value": 132}, "end_location": {"lat": 29.80337, "lng": -95.3681249}, "html_instructions": "Walk to Cavalcade St @ Fulton St", "polyline": {"points": "}y{tDnraeQ]JYJ]NOHE@MFMD?Q@Q?O@Q?S"}, "start_location": {"lat": 29.8027124, "lng": -95.36824179999999}, "steps": [{"distance": {"text": "253 ft", "value": 77}, "duration": {"text": "1 min", "value": 75}, "end_location": {"lat": 29.8033907, "lng": -95.3684799}, "html_instructions": "Head <b>north</b> on <b>Fulton St</b> toward <b>Cavalcade St</b>", "polyline": {"points": "}y{tDnraeQ]JYJ]NOHE@MFMD?Q"}, "start_location": {"lat": 29.8027124, "lng": -95.36824179999999}, "travel_mode": "WALKING"}, {"distance": {"text": "121 ft", "value": 37}, "duration": {"text": "1 min", "value": 57}, "end_location": {"lat": 29.80337, "lng": -95.3681249}, "html_instructions": "Turn <b>right</b> onto <b>Cavalcade St</b>", "maneuver": "turn-right", "polyline": {"points": "e~{tD~saeQ@Q?O@Q?S"}, "start_location": {"lat": 29.8033907, "lng": -95.3684799}, "travel_mode": "WALKING"}], "travel_mode": "WALKING"}, {"distance": {"text": "5.2 mi", "value": 8421}, "duration": {"text": "19 mins", "value": 1120}, "end_location": {"lat": 29.80163, "lng": -95.454342}, "html_instructions": "Bus towards Memorial City", "polyline": {"points": "a~{tDvqaeQF@AV?LANAT?RAXCR?@CXQ|@Kf@Sz@ENOr@CRE\\Cb@KfCARCpAAv@AXCf@?DAT?LAHCfAAd@?D?lB?h@?VBjC?lB?x@@z@@fB?fD@fDE`BA|@?HA\\@V?lA@L?\\?x@?V@j@@t@?L?JB`@@T@NBN@N@V?f@@f@?`A?r@?L?xBAP?JALAPANIbAEb@?TAR?V?fH?p@@vD@xAC^C^CRA@ETC\\Af@?P?P?LA`@@\\BpA?^@j@?H@tA?n@?b@@b@?X?P?V@`A?v@@dA?V?vA@T?lB@jB@tA?XB|E?~A@zB@nB?V?V@t@?L?R?L@R?N?f@?h@@|@?\\?d@?b@@n@?pA@|B?d@?`@@t@?T?pA@v@@rA?v@@bD@~@?nA@H?tB@^@dC?P?j@@x@?x@?t@@P?dA@|A?\\?^@dC@zB?xA?N@V?fA@`ABfE?tABtJ?pB@rA?r@?H?|@?jB?@?j@@h@AL?\\?J@f@?|B?h@?|@?n@?N?|G?J@tE?d@@dC?p@AL@J?V@P@H?B?D@F@HBH@JDPDLDLDHDJDJHLFHFHLL?@TVTVn@v@NRh@h@NPVX^f@BJBFBFf@v@P`@DZDVBT@F?D@F?H?P@P?X?N?F?j@@pAIpB@f@?V?fA?j@?V@h@AjA?h@@~@?b@@^Af@@d@?X?bA?jA?b@@nC?J?d@Aj@?v@?P@dB?jA?bC?`A?\\@dH?`D?dC@fE?jD?T@`F@vB?jD?vC?X?`E@V@zCAb@?fAAX@fB@fA?T@|B?l@A~A?x@?XAzB?`A?dB?l@?P?F?H@^?Z?@?H?@?Z?h@?f@?j@?^?t@@j@BnAAV@|@@fB?bBG?"}, "start_location": {"lat": 29.803368, "lng": -95.368125}, "transit_details": {"arrival_stop": {"location": {"lat": 29.80163, "lng": -95.454342}, "name": "W 18th St @ Northwest Fwy"}, "arrival_time": {"text": "4:48pm", "time_zone": "America/Chicago", "value": 1642027720}, "departure_stop": {"location": {"lat": 29.803368, "lng": -95.368125}, "name": "Cavalcade St @ Fulton St"}, "departure_time": {"text": "4:30pm", "time_zone": "America/Chicago", "value": 1642026600}, "headsign": "Memorial City", "line": {"agencies": [{"name": "Metropolitan Transit Authority of Harris County", "phone": "1 (713) 635-4000", "url": "http://www.ridemetro.org/"}], "color": "#004080", "name": "Long Point / Cavalcade", "short_name": "26", "text_color": "#ffffff", "url": "https://www.ridemetro.org/MetroPDFs/Schedules/BusSchedules/n026-Long-Point-Cavalcade.pdf", "vehicle": {"icon": "//maps.gstatic.com/mapfiles/transit/iw2/6/bus2.png", "name": "Bus", "type": "BUS"}}, "num_stops": 31, "trip_short_name": "LONGPOINT"}, "travel_mode": "TRANSIT"}, {"distance": {"text": "322 ft", "value": 98}, "duration": {"text": "1 min", "value": 77}, "end_location": {"lat": 29.8019199, "lng": -95.45428179999999}, "html_instructions": "Walk to 4400 W 18th St, Houston, TX 77092, USA", "polyline": {"points": "es{tDrlreQ?z@YEc@E?G@Q@a@"}, "start_location": {"lat": 29.8016264, "lng": -95.454342}, "steps": [{"distance": {"text": "95 ft", "value": 29}, "duration": {"text": "1 min", "value": 22}, "end_location": {"lat": 29.8016252, "lng": -95.45463819999999}, "html_instructions": "Head <b>west</b> on <b>W 18th St</b>/<wbr/><b>NW Mall</b>", "polyline": {"points": "es{tDrlreQ?z@"}, "start_location": {"lat": 29.8016264, "lng": -95.454342}, "travel_mode": "WALKING"}, {"distance": {"text": "131 ft", "value": 40}, "duration": {"text": "1 min", "value": 33}, "end_location": {"lat": 29.8019405, "lng": -95.4545788}, "html_instructions": "Turn <b>right</b><div style=\"font-size:0.9em\">Restricted usage road</div>", "maneuver": "turn-right", "polyline": {"points": "es{tDnnreQYEc@E"}, "start_location": {"lat": 29.8016252, "lng": -95.45463819999999}, "travel_mode": "WALKING"}, {"distance": {"text": "95 ft", "value": 29}, "duration": {"text": "1 min", "value": 22}, "end_location": {"lat": 29.8019199, "lng": -95.45428179999999}, "html_instructions": "Turn <b>right</b><div style=\"font-size:0.9em\">Restricted usage road</div><div style=\"font-size:0.9em\">Destination will be on the left</div>", "maneuver": "turn-right", "polyline": {"points": "cu{tDbnreQ?G@Q@a@"}, "start_location": {"lat": 29.8019405, "lng": -95.4545788}, "travel_mode": "WALKING"}], "travel_mode": "WALKING"}], "traffic_speed_entry": [], "via_waypoint": []}], "overview_polyline": {"points": "so_uDjfaeQ@|IHhHB~D@h@rE\\pDVbEj@pBVRZd@c@b@Yd@Uh@QrCaAVKnA_@HTAElBk@bCu@xA[bCWjDAh@D~@Bl@EpDA`EAr@EpD]rFo@pLoAvEi@lAW`DaArA_@D^w@Vm@XSHMD?Q@a@@e@F@Ad@ErAYlBu@fDIp@OjDIvDEpAG|BBzHBjI@nIG~C?lC@|BBzBFfAFv@@dEAdDOrBEx@Aj@BjRG~@ETIr@Ax@?~ADfDDrIFrPHhTFrS`@beAFbc@BhX?bBBd@Hf@Vv@\\n@j@p@tAbBx@z@v@`AFRj@~@V|@Hl@B^@lA?r@@pAIpB@~@?rB@`AAtB@jDBtL?jOBtWBzO?~OBrDAjB@~E@jDAxCA|H?pA@vD@lDDlG?bBG??z@}@K@Y@a@"}, "summary": "", "warnings": ["Walking directions are in beta. Use caution \u2013 This route may be missing sidewalks or pedestrian paths."], "waypoint_order": []}, {"bounds": {"northeast": {"lat": 29.8215402, "lng": -95.3663}, "southwest": {"lat": 29.8015904, "lng": -95.45463819999999}}, "copyrights": "Map data \u00a92022", "legs": [{"arrival_time": {"text": "4:34pm", "time_zone": "America/Chicago", "value": 1642026897}, "departure_time": {"text": "3:48pm", "time_zone": "America/Chicago", "value": 1642024127}, "distance": {"text": "7.0 mi", "value": 11202}, "duration": {"text": "46 mins", "value": 2770}, "end_address": "4400 W 18th St, Houston, TX 77092, USA", "end_location": {"lat": 29.8019199, "lng": -95.45428179999999}, "start_address": "525 Bennington St, Houston, TX 77022, USA", "start_location": {"lat": 29.8215402, "lng": -95.3663}, "steps": [{"distance": {"text": "0.7 mi", "value": 1081}, "duration": {"text": "13 mins", "value": 793}, "end_location": {"lat": 29.8158224, "lng": -95.37040359999999}, "html_instructions": "Walk to Melbourne/North Lindale", "polyline": {"points": "so_uDjfaeQ@xD?bD?NHxG?P?B@N@xC@`@?FL?dE\\lCNb@Fx@LhC\\pBVRZHIZYPKPMLGVMLGBANEFANELEn@UdA_@HELEr@SZK"}, "start_location": {"lat": 29.8215402, "lng": -95.3663}, "steps": [{"distance": {"text": "0.3 mi", "value": 422}, "duration": {"text": "5 mins", "value": 312}, "end_location": {"lat": 29.8213783, "lng": -95.3707146}, "html_instructions": "Head <b>west</b> on <b>Bennington St</b> toward <b>Appleton St</b>", "polyline": {"points": "so_uDjfaeQ@xD?bD?NHxG?P?B@N@xC@`@?FL?"}, "start_location": {"lat": 29.8215402, "lng": -95.3663}, "travel_mode": "WALKING"}, {"distance": {"text": "0.3 mi", "value": 415}, "duration": {"text": "5 mins", "value": 298}, "end_location": {"lat": 29.8177966, "lng": -95.37140769999999}, "html_instructions": "Turn <b>left</b> onto <b>Donlen St</b>", "maneuver": "turn-left", "polyline": {"points": "sn_uD|abeQdE\\lCNb@Fx@LhC\\pBVRZHI"}, "start_location": {"lat": 29.8213783, "lng": -95.3707146}, "travel_mode": "WALKING"}, {"distance": {"text": "0.2 mi", "value": 244}, "duration": {"text": "3 mins", "value": 183}, "end_location": {"lat": 29.8158224, "lng": -95.37040359999999}, "html_instructions": "Turn <b>left</b> onto <b>Fulton St</b>", "maneuver": "turn-left", "polyline": {"points": "gx~tDhfbeQZYPKPMLGVMLGBANEFANELEn@UdA_@HELEr@SZK"}, "start_location": {"lat": 29.8177966, "lng": -95.37140769999999}, "travel_mode": "WALKING"}], "travel_mode": "WALKING"}, {"distance": {"text": "0.9 mi", "value": 1488}, "duration": {"text": "3 mins", "value": 180}, "end_location": {"lat": 29.802723, "lng": -95.368141}, "html_instructions": "Light rail towards METRORail - FANNIN SOUTH", "polyline": {"points": "qk~tDt`beQAEvAc@TGPGhA]\\KHCVGVGXGNCFAZED?\\EHAb@EJA@?JAV?`@?dB?VBP@XBd@?XCRATAzC?lDAR?ZAVCPATAfAM`AKnDa@RCJAb@G@?ZC`@ERCdBSxBU~@M|@IXEHAr@I~BWREPCPETGNEpAa@XId@O\\It@UBJ"}, "start_location": {"lat": 29.815769, "lng": -95.370514}, "transit_details": {"arrival_stop": {"location": {"lat": 29.802723, "lng": -95.368141}, "name": "Cavalcade"}, "arrival_time": {"text": "4:05pm", "time_zone": "America/Chicago", "value": 1642025100}, "departure_stop": {"location": {"lat": 29.815769, "lng": -95.370514}, "name": "Melbourne/North Lindale"}, "departure_time": {"text": "4:02pm", "time_zone": "America/Chicago", "value": 1642024920}, "headsign": "METRORail - FANNIN SOUTH", "line": {"agencies": [{"name": "Metropolitan Transit Authority of Harris County", "phone": "1 (713) 635-4000", "url": "http://www.ridemetro.org/"}], "color": "#e60f33", "name": "Metrorail Red Line", "short_name": "Red", "text_color": "#ffffff", "url": "https://www.ridemetro.org/Pages/RedLine.aspx", "vehicle": {"icon": "//maps.gstatic.com/mapfiles/transit/iw2/6/tram2.png", "name": "Light rail", "type": "TRAM"}}, "num_stops": 2}, "travel_mode": "TRANSIT"}, {"distance": {"text": "374 ft", "value": 114}, "duration": {"text": "2 mins", "value": 132}, "end_location": {"lat": 29.80337, "lng": -95.3681249}, "html_instructions": "Walk to Cavalcade St @ Fulton St", "polyline": {"points": "}y{tDnraeQ]JYJ]NOHE@MFMD?Q@Q?O@Q?S"}, "start_location": {"lat": 29.8027124, "lng": -95.36824179999999}, "steps": [{"distance": {"text": "253 ft", "value": 77}, "duration": {"text": "1 min", "value": 75}, "end_location": {"lat": 29.8033907, "lng": -95.3684799}, "html_instructions": "Head <b>north</b> on <b>Fulton St</b> toward <b>Cavalcade St</b>", "polyline": {"points": "}y{tDnraeQ]JYJ]NOHE@MFMD?Q"}, "start_location": {"lat": 29.8027124, "lng": -95.36824179999999}, "travel_mode": "WALKING"}, {"distance": {"text": "121 ft", "value": 37}, "duration": {"text": "1 min", "value": 57}, "end_location": {"lat": 29.80337, "lng": -95.3681249}, "html_instructions": "Turn <b>right</b> onto <b>Cavalcade St</b>", "maneuver": "turn-right", "polyline": {"points": "e~{tD~saeQ@Q?O@Q?S"}, "start_location": {"lat": 29.8033907, "lng": -95.3684799}, "travel_mode": "WALKING"}], "travel_mode": "WALKING"}, {"distance": {"text": "5.2 mi", "value": 8421}, "duration": {"text": "19 mins", "value": 1120}, "end_location": {"lat": 29.80163, "lng": -95.454342}, "html_instructions": "Bus towards Memorial City", "polyline": {"points": "a~{tDvqaeQF@AV?LANAT?RAXCR?@CXQ|@Kf@Sz@ENOr@CRE\\Cb@KfCARCpAAv@AXCf@?DAT?LAHCfAAd@?D?lB?h@?VBjC?lB?x@@z@@fB?fD@fDE`BA|@?HA\\@V?lA@L?\\?x@?V@j@@t@?L?JB`@@T@NBN@N@V?f@@f@?`A?r@?L?xBAP?JALAPANIbAEb@?TAR?V?fH?p@@vD@xAC^C^CRA@ETC\\Af@?P?P?LA`@@\\BpA?^@j@?H@tA?n@?b@@b@?X?P?V@`A?v@@dA?V?vA@T?lB@jB@tA?XB|E?~A@zB@nB?V?V@t@?L?R?L@R?N?f@?h@@|@?\\?d@?b@@n@?pA@|B?d@?`@@t@?T?pA@v@@rA?v@@bD@~@?nA@H?tB@^@dC?P?j@@x@?x@?t@@P?dA@|A?\\?^@dC@zB?xA?N@V?fA@`ABfE?tABtJ?pB@rA?r@?H?|@?jB?@?j@@h@AL?\\?J@f@?|B?h@?|@?n@?N?|G?J@tE?d@@dC?p@AL@J?V@P@H?B?D@F@HBH@JDPDLDLDHDJDJHLFHFHLL?@TVTVn@v@NRh@h@NPVX^f@BJBFBFf@v@P`@DZDVBT@F?D@F?H?P@P?X?N?F?j@@pAIpB@f@?V?fA?j@?V@h@AjA?h@@~@?b@@^Af@@d@?X?bA?jA?b@@nC?J?d@Aj@?v@?P@dB?jA?bC?`A?\\@dH?`D?dC@fE?jD?T@`F@vB?jD?vC?X?`E@V@zCAb@?fAAX@fB@fA?T@|B?l@A~A?x@?XAzB?`A?dB?l@?P?F?H@^?Z?@?H?@?Z?h@?f@?j@?^?t@@j@BnAAV@|@@fB?bBG?"}, "start_location": {"lat": 29.803368, "lng": -95.368125}, "transit_details": {"arrival_stop": {"location": {"lat": 29.80163, "lng": -95.454342}, "name": "W 18th St @ Northwest Fwy"}, "arrival_time": {"text": "4:33pm", "time_zone": "America/Chicago", "value": 1642026820}, "departure_stop": {"location": {"lat": 29.803368, "lng": -95.368125}, "name": "Cavalcade St @ Fulton St"}, "departure_time": {"text": "4:15pm", "time_zone": "America/Chicago", "value": 1642025700}, "headsign": "Memorial City", "line": {"agencies": [{"name": "Metropolitan Transit Authority of Harris County", "phone": "1 (713) 635-4000", "url": "http://www.ridemetro.org/"}], "color": "#004080", "name": "Long Point / Cavalcade", "short_name": "26", "text_color": "#ffffff", "url": "https://www.ridemetro.org/MetroPDFs/Schedules/BusSchedules/n026-Long-Point-Cavalcade.pdf", "vehicle": {"icon": "//maps.gstatic.com/mapfiles/transit/iw2/6/bus2.png", "name": "Bus", "type": "BUS"}}, "num_stops": 31, "trip_short_name": "LONGPOINT"}, "travel_mode": "TRANSIT"}, {"distance": {"text": "322 ft", "value": 98}, "duration": {"text": "1 min", "value": 77}, "end_location": {"lat": 29.8019199, "lng": -95.45428179999999}, "html_instructions": "Walk to 4400 W 18th St, Houston, TX 77092, USA", "polyline": {"points": "es{tDrlreQ?z@YEc@E?G@Q@a@"}, "start_location": {"lat": 29.8016264, "lng": -95.454342}, "steps": [{"distance": {"text": "95 ft", "value": 29}, "duration": {"text": "1 min", "value": 22}, "end_location": {"lat": 29.8016252, "lng": -95.45463819999999}, "html_instructions": "Head <b>west</b> on <b>W 18th St</b>/<wbr/><b>NW Mall</b>", "polyline": {"points": "es{tDrlreQ?z@"}, "start_location": {"lat": 29.8016264, "lng": -95.454342}, "travel_mode": "WALKING"}, {"distance": {"text": "131 ft", "value": 40}, "duration": {"text": "1 min", "value": 33}, "end_location": {"lat": 29.8019405, "lng": -95.4545788}, "html_instructions": "Turn <b>right</b><div style=\"font-size:0.9em\">Restricted usage road</div>", "maneuver": "turn-right", "polyline": {"points": "es{tDnnreQYEc@E"}, "start_location": {"lat": 29.8016252, "lng": -95.45463819999999}, "travel_mode": "WALKING"}, {"distance": {"text": "95 ft", "value": 29}, "duration": {"text": "1 min", "value": 22}, "end_location": {"lat": 29.8019199, "lng": -95.45428179999999}, "html_instructions": "Turn <b>right</b><div style=\"font-size:0.9em\">Restricted usage road</div><div style=\"font-size:0.9em\">Destination will be on the left</div>", "maneuver": "turn-right", "polyline": {"points": "cu{tDbnreQ?G@Q@a@"}, "start_location": {"lat": 29.8019405, "lng": -95.4545788}, "travel_mode": "WALKING"}], "travel_mode": "WALKING"}], "traffic_speed_entry": [], "via_waypoint": []}], "overview_polyline": {"points": "so_uDjfaeQ@|IHhHB~D@h@rE\\pDVbEj@pBVRZd@c@b@Yd@Uh@QrCaAVKnA_@HTAElBk@bCu@xA[bCWjDAh@D~@Bl@EpDA`EAr@EpD]rFo@pLoAvEi@lAW`DaArA_@D^w@Vm@XSHMD?Q@a@@e@F@Ad@ErAYlBu@fDIp@OjDIvDEpAG|BBzHBjI@nIG~C?lC@|BBzBFfAFv@@dEAdDOrBEx@Aj@BjRG~@ETIr@Ax@?~ADfDDrIFrPHhTFrS`@beAFbc@BhX?bBBd@Hf@Vv@\\n@j@p@tAbBx@z@v@`AFRj@~@V|@Hl@B^@lA?r@@pAIpB@~@?rB@`AAtB@jDBtL?jOBtWBzO?~OBrDAjB@~E@jDAxCA|H?pA@vD@lDDlG?bBG??z@}@K@Y@a@"}, "summary": "", "warnings": ["Walking directions are in beta. Use caution \u2013 This route may be missing sidewalks or pedestrian paths."], "waypoint_order": []}, {"bounds": {"northeast": {"lat": 29.8291433, "lng": -95.32753749999999}, "southwest": {"lat": 29.8002449, "lng": -95.45463819999999}}, "copyrights": "Map data \u00a92022", "legs": [{"arrival_time": {"text": "4:34pm", "time_zone": "America/Chicago", "value": 1642026897}, "departure_time": {"text": "3:34pm", "time_zone": "America/Chicago", "value": 1642023284}, "distance": {"text": "12.8 mi", "value": 20525}, "duration": {"text": "1 hour 0 mins", "value": 3613}, "end_address": "4400 W 18th St, Houston, TX 77092, USA", "end_location": {"lat": 29.8019199, "lng": -95.45428179999999}, "start_address": "525 Bennington St, Houston, TX 77022, USA", "start_location": {"lat": 29.8231239, "lng": -95.36569639999999}, "steps": [{"distance": {"text": "0.4 mi", "value": 630}, "duration": {"text": "8 mins", "value": 468}, "end_location": {"lat": 29.8286641, "lng": -95.36583689999999}, "html_instructions": "Walk to Crosstimbers St @ Helmers St", "polyline": {"points": "oy_uDrbaeQk@?M?eA?}@?eA@M?}B@M?aD@eA?O@eF@O?eB@s@?M?c@@BL"}, "start_location": {"lat": 29.8231239, "lng": -95.36569639999999}, "steps": [{"distance": {"text": "0.4 mi", "value": 619}, "duration": {"text": "8 mins", "value": 460}, "end_location": {"lat": 29.8286788, "lng": -95.3657672}, "html_instructions": "Head <b>north</b> on <b>Helmers St</b> toward <b>Plymouth St</b>", "polyline": {"points": "oy_uDrbaeQk@?M?eA?}@?eA@M?}B@M?aD@eA?O@eF@O?eB@s@?M?c@@"}, "start_location": {"lat": 29.8231239, "lng": -95.36569639999999}, "travel_mode": "WALKING"}, {"distance": {"text": "36 ft", "value": 11}, "duration": {"text": "1 min", "value": 8}, "end_location": {"lat": 29.8286641, "lng": -95.36583689999999}, "html_instructions": "Turn <b>left</b><div style=\"font-size:0.9em\">Destination will be on the right</div>", "maneuver": "turn-left", "polyline": {"points": "g|`uD`caeQBL"}, "start_location": {"lat": 29.8286788, "lng": -95.3657672}, "travel_mode": "WALKING"}], "travel_mode": "WALKING"}, {"distance": {"text": "3.6 mi", "value": 5724}, "duration": {"text": "14 mins", "value": 868}, "end_location": {"lat": 29.81412, "lng": -95.327876}, "html_instructions": "Bus towards MLK & Madden", "polyline": {"points": "m|`uDpcaeQKB?EAUCUEy@?_AAeB@IAiA?iA?I?U?[?Y?KCgCAaA@SAeA?U?GAm@?[?qBAmBCoE@ICwECoD?a@?QAiA?u@?S?EBkA?IBg@D_@?S@KFu@B[@QJkA?GPkBBqA@i@?e@@UAcA?W?]A{C?w@A[@cA?gB?gB@eD?wB?c@?oA?GAeFC{B?m@?M?K?[@sAAW?g@?]A_B?m@Aq@?a@?WAeA@U?S?_@?K?i@?g@?a@Ek@?EA[MsAC[c@iDGg@KsAASE_ACi@?iA?YAqA@sF?q@Je@@MBKDGDEDGTMX@VBL?`AF`CJdABfAAvBBV@`DCnCAz@AlBCv@ARApAC~A@R?n@APAf@A`@AfA?b@?bC?rA?z@@j@?nB?XAZ?n@AV?b@AtAA`@AD?`@?jBCbBChAExA?X?J?P?B?@?H?B?b@?P@\\BJ@J@lATbBXz@DX?AeA?u@?C?I?AAG?U?O?M?AAaA?]DgAD_A@o@AkDAaEA{@CmO?_@s@?kB@E@m@?@{AOWCIAA@QDG@Ad@_@@At@k@RB@@HLA\\}@`@IO"}, "start_location": {"lat": 29.828707, "lng": -95.365849}, "transit_details": {"arrival_stop": {"location": {"lat": 29.81412, "lng": -95.327876}, "name": "Kashmere Transit Center"}, "arrival_time": {"text": "3:57pm", "time_zone": "America/Chicago", "value": 1642024620}, "departure_stop": {"location": {"lat": 29.828707, "lng": -95.365849}, "name": "Crosstimbers St @ Helmers St"}, "departure_time": {"text": "3:42pm", "time_zone": "America/Chicago", "value": 1642023752}, "headsign": "MLK & Madden", "line": {"agencies": [{"name": "Metropolitan Transit Authority of Harris County", "phone": "1 (713) 635-4000", "url": "http://www.ridemetro.org/"}], "color": "#004080", "name": "Cullen / Hirsch", "short_name": "29", "text_color": "#ffffff", "url": "https://www.ridemetro.org/MetroPDFs/Schedules/BusSchedules/n029-Cullen-Hirsch.pdf", "vehicle": {"icon": "//maps.gstatic.com/mapfiles/transit/iw2/6/bus2.png", "name": "Bus", "type": "BUS"}}, "num_stops": 14, "trip_short_name": "CULLENHIRS"}, "travel_mode": "TRANSIT"}, {"distance": {"text": "8.7 mi", "value": 14073}, "duration": {"text": "34 mins", "value": 2020}, "end_location": {"lat": 29.80163, "lng": -95.454342}, "html_instructions": "Bus towards Memorial City", "polyline": {"points": "ga~tDfvydQGOp@s@RB@@HLA\\u@l@y@l@AzAl@?DAjBAr@?vFC?L|DCdEAV?~@Av@?BAX?ZAHAJ?NCVEHAD?DAVAJA@?D?r@ErAMBAb@Cl@Ez@CN?B?L?@?fAAt@?|@AP?tHCd@AX?V?\\?zFEdA?H?z@Ah@?v@?vAAb@?t@??n@?j@@bD?p@@hA?X?x@DvCFpD?rA@zBGvAEpAGjBARC\\K`AEb@]fBKb@EPGVYdAUdAMx@W|AOjAMx@EZGd@WbBKj@Ib@EVAFIf@ADKn@Kz@In@K|@SdBK|@Gb@K~@AHW|Bc@jEo@fFWlBK|@EVSbBQpAGr@Mp@Eb@CNOrAKdBCf@?HAx@?xB@d@@j@?pA@nA?X@dB?T@fAB~D@bD@ZBbEBzB@fAGrAAXGvA@vD@xC@^@tD@x@?V?v@?l@?\\BpD@nB?fA@jA?tA?T?\\?lA@nA?tA@dA?Z@bA?pB@vDAlBAV?LANAT?RAXCR?@CXQ|@Kf@Sz@ENOr@CRE\\Cb@KfCARCpAAv@AXCf@?DAT?LAHCfAAd@?D?lB?h@?VBjC?lB?x@@z@@fB?fD@fDE`BA|@?HA\\@V?lA@L?\\?x@?V@j@@t@?L?JB`@@T@NBN@N@V?f@@f@?`A?r@?L?xBAP?JALAPANIbAEb@?TAR?V?fH?p@@vD@xAC^C^CRA@ETC\\Af@?P?P?LA`@@\\BpA?^@j@?H@tA?n@?b@@b@?X?P?V@`A?v@@dA?V?vA@T?lB@jB@tA?XB|E?~A@zB@nB?V?V@t@?L?R?L@R?N?f@?h@@|@?\\?d@?b@@n@?pA@|B?d@?`@@t@?T?pA@v@@rA?v@@bD@~@?nA@H?tB@^@dC?P?j@@x@?x@?t@@P?dA@|A?\\?^@dC@zB?xA?N@V?fA@`ABfE?tABtJ?pB@rA?r@?H?|@?jB?@?j@@h@AL?\\?J@f@?|B?h@?|@?n@?N?|G?J@tE?d@@dC?p@AL@J?V@P@H?B?D@F@HBH@JDPDLDLDHDJDJHLFHFHLL?@TVTVn@v@NRh@h@NPVX^f@BJBFBFf@v@P`@DZDVBT@F?D@F?H?P@P?X?N?F?j@@pAIpB@f@?V?fA?j@?V@h@AjA?h@@~@?b@@^Af@@d@?X?bA?jA?b@@nC?J?d@Aj@?v@?P@dB?jA?bC?`A?\\@dH?`D?dC@fE?jD?T@`F@vB?jD?vC?X?`E@V@zCAb@?fAAX@fB@fA?T@|B?l@A~A?x@?XAzB?`A?dB?l@?P?F?H@^?Z?@?H?@?Z?h@?f@?j@?^?t@@j@BnAAV@|@@fB?bBG?"}, "start_location": {"lat": 29.81412, "lng": -95.327876}, "transit_details": {"arrival_stop": {"location": {"lat": 29.80163, "lng": -95.454342}, "name": "W 18th St @ Northwest Fwy"}, "arrival_time": {"text": "4:33pm", "time_zone": "America/Chicago", "value": 1642026820}, "departure_stop": {"location": {"lat": 29.81412, "lng": -95.327876}, "name": "Kashmere Transit Center"}, "departure_time": {"text": "4:00pm", "time_zone": "America/Chicago", "value": 1642024800}, "headsign": "Memorial City", "line": {"agencies": [{"name": "Metropolitan Transit Authority of Harris County", "phone": "1 (713) 635-4000", "url": "http://www.ridemetro.org/"}], "color": "#004080", "name": "Long Point / Cavalcade", "short_name": "26", "text_color": "#ffffff", "url": "https://www.ridemetro.org/MetroPDFs/Schedules/BusSchedules/n026-Long-Point-Cavalcade.pdf", "vehicle": {"icon": "//maps.gstatic.com/mapfiles/transit/iw2/6/bus2.png", "name": "Bus", "type": "BUS"}}, "num_stops": 52, "trip_short_name": "LONGPOINT"}, "travel_mode": "TRANSIT"}, {"distance": {"text": "322 ft", "value": 98}, "duration": {"text": "1 min", "value": 77}, "end_location": {"lat": 29.8019199, "lng": -95.45428179999999}, "html_instructions": "Walk to 4400 W 18th St, Houston, TX 77092, USA", "polyline": {"points": "es{tDrlreQ?z@YEc@E?G@Q@a@"}, "start_location": {"lat": 29.8016264, "lng": -95.454342}, "steps": [{"distance": {"text": "95 ft", "value": 29}, "duration": {"text": "1 min", "value": 22}, "end_location": {"lat": 29.8016252, "lng": -95.45463819999999}, "html_instructions": "Head <b>west</b> on <b>W 18th St</b>/<wbr/><b>NW Mall</b>", "polyline": {"points": "es{tDrlreQ?z@"}, "start_location": {"lat": 29.8016264, "lng": -95.454342}, "travel_mode": "WALKING"}, {"distance": {"text": "131 ft", "value": 40}, "duration": {"text": "1 min", "value": 33}, "end_location": {"lat": 29.8019405, "lng": -95.4545788}, "html_instructions": "Turn <b>right</b><div style=\"font-size:0.9em\">Restricted usage road</div>", "maneuver": "turn-right", "polyline": {"points": "es{tDnnreQYEc@E"}, "start_location": {"lat": 29.8016252, "lng": -95.45463819999999}, "travel_mode": "WALKING"}, {"distance": {"text": "95 ft", "value": 29}, "duration": {"text": "1 min", "value": 22}, "end_location": {"lat": 29.8019199, "lng": -95.45428179999999}, "html_instructions": "Turn <b>right</b><div style=\"font-size:0.9em\">Restricted usage road</div><div style=\"font-size:0.9em\">Destination will be on the left</div>", "maneuver": "turn-right", "polyline": {"points": "cu{tDbnreQ?G@Q@a@"}, "start_location": {"lat": 29.8019405, "lng": -95.4545788}, "travel_mode": "WALKING"}], "travel_mode": "WALKING"}], "traffic_speed_entry": [], "via_waypoint": []}], "overview_polyline": {"points": "oy_uDrbaeQs`@Jc@@BLUDKkBA_KEgJMk[AsDBoBJgBXoDPsBD{B@{@A{ACmGByLEqSAgJCqD@uA?qAEmASqCk@qEMgBIiB?cB?eI?q@Je@DYJMZUp@DnAFfEN~D@xDApJIdBErB@jCGtP?fHGrJMz@?r@?fAHpDn@tADAiCC_DJgC?{EGkW?_@s@?qBBm@?@{ASa@?SFIf@a@t@k@RBJNA\\}@`@Q_@p@s@RBJNA\\u@l@y@l@AzAr@A~CAvFC?LbKErCCjACv@Kh@EnCSpCOpFCvVKtFCb@?t@??n@@nE@zB?rALhI@nEMhDI~BO~AEb@]fBQt@a@|Ac@~B{@~Fu@xEQfAc@`Ds@dGiArKyAjL{@zGIr@OrAKdBCp@ArDDrFB|EJbQDbEIlBGvA@vDBxDB~HFlRDhP?dHAd@ErAYlBu@fDIp@OjDIvDMnEFfS@nIG~C?lCDxFN~B@dEAdDOrBEx@Aj@BjRG~@ETIr@Ax@?~ADfDBlEBrJJxWDxGHdXNd`@F~OJv_@?vH@vRBpNBd@Hf@Vv@\\n@`CtCx@z@v@`AFRj@~@V|@Hl@B^@lA?r@@pAIpB@~@?rB@`AAtB@jD@nE@`MBda@BzO?~OBrDAjB@~E@jDAxCA|H@xC@|GDlG?bBG??z@}@K@Y@a@"}, "summary": "", "warnings": ["Walking directions are in beta. Use caution \u2013 This route may be missing sidewalks or pedestrian paths."], "waypoint_order": []}, {"bounds": {"northeast": {"lat": 29.8215402, "lng": -95.36038889999999}, "southwest": {"lat": 29.77690279999999, "lng": -95.45678590000001}}, "copyrights": "Map data \u00a92022", "legs": [{"arrival_time": {"text": "4:57pm", "time_zone": "America/Chicago", "value": 1642028238}, "departure_time": {"text": "3:48pm", "time_zone": "America/Chicago", "value": 1642024127}, "distance": {"text": "11.6 mi", "value": 18674}, "duration": {"text": "1 hour 9 mins", "value": 4111}, "end_address": "4400 W 18th St, Houston, TX 77092, USA", "end_location": {"lat": 29.8019199, "lng": -95.45428179999999}, "start_address": "525 Bennington St, Houston, TX 77022, USA", "start_location": {"lat": 29.8215402, "lng": -95.3663}, "steps": [{"distance": {"text": "0.7 mi", "value": 1081}, "duration": {"text": "13 mins", "value": 793}, "end_location": {"lat": 29.8158224, "lng": -95.37040359999999}, "html_instructions": "Walk to Melbourne/North Lindale", "polyline": {"points": "so_uDjfaeQ@xD?bD?NHxG?P?B@N@xC@`@?FL?dE\\lCNb@Fx@LhC\\pBVRZHIZYPKPMLGVMLGBANEFANELEn@UdA_@HELEr@SZK"}, "start_location": {"lat": 29.8215402, "lng": -95.3663}, "steps": [{"distance": {"text": "0.3 mi", "value": 422}, "duration": {"text": "5 mins", "value": 312}, "end_location": {"lat": 29.8213783, "lng": -95.3707146}, "html_instructions": "Head <b>west</b> on <b>Bennington St</b> toward <b>Appleton St</b>", "polyline": {"points": "so_uDjfaeQ@xD?bD?NHxG?P?B@N@xC@`@?FL?"}, "start_location": {"lat": 29.8215402, "lng": -95.3663}, "travel_mode": "WALKING"}, {"distance": {"text": "0.3 mi", "value": 415}, "duration": {"text": "5 mins", "value": 298}, "end_location": {"lat": 29.8177966, "lng": -95.37140769999999}, "html_instructions": "Turn <b>left</b> onto <b>Donlen St</b>", "maneuver": "turn-left", "polyline": {"points": "sn_uD|abeQdE\\lCNb@Fx@LhC\\pBVRZHI"}, "start_location": {"lat": 29.8213783, "lng": -95.3707146}, "travel_mode": "WALKING"}, {"distance": {"text": "0.2 mi", "value": 244}, "duration": {"text": "3 mins", "value": 183}, "end_location": {"lat": 29.8158224, "lng": -95.37040359999999}, "html_instructions": "Turn <b>left</b> onto <b>Fulton St</b>", "maneuver": "turn-left", "polyline": {"points": "gx~tDhfbeQZYPKPMLGVMLGBANEFANELEn@UdA_@HELEr@SZK"}, "start_location": {"lat": 29.8177966, "lng": -95.37140769999999}, "travel_mode": "WALKING"}], "travel_mode": "WALKING"}, {"distance": {"text": "2.8 mi", "value": 4580}, "duration": {"text": "11 mins", "value": 660}, "end_location": {"lat": 29.780167, "lng": -95.363604}, "html_instructions": "Light rail towards METRORail - FANNIN SOUTH", "polyline": {"points": "qk~tDt`beQAEvAc@TGPGhA]\\KHCVGVGXGNCFAZED?\\EHAb@EJA@?JAV?`@?dB?VBP@XBd@?XCRATAzC?lDAR?ZAVCPATAfAM`AKnDa@RCJAb@G@?ZC`@ERCdBSxBU~@M|@IXEHAr@I~BWREPCPETGNEpAa@XId@O\\It@UhA[JCHAHAJ?`B@|B@P?zB@zB?L?T?VAL?zAGN?RAT?n@?^?V?jB@P?NAPANCNENGNGJILKLMLOHK^g@n@}@JOJQJQ`@o@HOJQdAyAhA_BNONSNQHKLMRYzAsBbB}BPUb@q@HKf@y@T]h@}@^q@Xk@HKJMJKJIJKJEPKxBgA\\QzAu@rBeAJELELANAj@?L?nA@TBJ?LATA~C@`@@V?R@V@zAHR@R@N@P@RBn@FD?b@DVBbAJL@b@DbBNJBLBLDLHLJBDDDDJDLBL@N@N?j@?J@H@HBJLd@?@h@lBLj@d@bBPr@HXz@bDDLDLDFDFHHJFLDJBN@H?DAHAJCLEx@[`@Ol@U`@QXKt@YlBs@h@SBADCn@U`A_@@F"}, "start_location": {"lat": 29.815769, "lng": -95.370514}, "transit_details": {"arrival_stop": {"location": {"lat": 29.780167, "lng": -95.363604}, "name": "Quitman/Near Northside SB"}, "arrival_time": {"text": "4:13pm", "time_zone": "America/Chicago", "value": 1642025580}, "departure_stop": {"location": {"lat": 29.815769, "lng": -95.370514}, "name": "Melbourne/North Lindale"}, "departure_time": {"text": "4:02pm", "time_zone": "America/Chicago", "value": 1642024920}, "headsign": "METRORail - FANNIN SOUTH", "line": {"agencies": [{"name": "Metropolitan Transit Authority of Harris County", "phone": "1 (713) 635-4000", "url": "http://www.ridemetro.org/"}], "color": "#e60f33", "name": "Metrorail Red Line", "short_name": "Red", "text_color": "#ffffff", "url": "https://www.ridemetro.org/Pages/RedLine.aspx", "vehicle": {"icon": "//maps.gstatic.com/mapfiles/transit/iw2/6/tram2.png", "name": "Light rail", "type": "TRAM"}}, "num_stops": 5}, "travel_mode": "TRANSIT"}, {"distance": {"text": "400 ft", "value": 122}, "duration": {"text": "2 mins", "value": 121}, "end_location": {"lat": 29.7809212, "lng": -95.3635705}, "html_instructions": "Walk to Quitman P&R", "polyline": {"points": "emwtD`v`eQ@FgBl@MDCMACAGGSMe@"}, "start_location": {"lat": 29.7801899, "lng": -95.3636881}, "steps": [{"distance": {"text": "230 ft", "value": 70}, "duration": {"text": "1 min", "value": 51}, "end_location": {"lat": 29.7807939, "lng": -95.36391880000001}, "html_instructions": "Head <b>north</b> on <b>N Main St</b> toward <b>Quitman St</b>", "polyline": {"points": "emwtD`v`eQ@FgBl@MDCM"}, "start_location": {"lat": 29.7801899, "lng": -95.3636881}, "travel_mode": "WALKING"}, {"distance": {"text": "151 ft", "value": 46}, "duration": {"text": "1 min", "value": 65}, "end_location": {"lat": 29.7809212, "lng": -95.3635705}, "html_instructions": "Turn <b>right</b> onto <b>Quitman St</b>", "maneuver": "turn-right", "polyline": {"points": "}pwtDnw`eQACAGGSMe@"}, "start_location": {"lat": 29.7807939, "lng": -95.36391880000001}, "travel_mode": "WALKING"}, {"distance": {"text": "20 ft", "value": 6}, "duration": {"text": "1 min", "value": 5}, "end_location": {"lat": 29.7809212, "lng": -95.3635705}, "html_instructions": "Turn <b>left</b><div style=\"font-size:0.9em\">Destination will be on the right</div>", "maneuver": "turn-left", "polyline": {"points": "wqwtDhu`eQ"}, "start_location": {"lat": 29.7809212, "lng": -95.3635705}, "travel_mode": "WALKING"}], "travel_mode": "WALKING"}, {"distance": {"text": "7.4 mi", "value": 11861}, "duration": {"text": "27 mins", "value": 1620}, "end_location": {"lat": 29.797383, "lng": -95.45679299999999}, "html_instructions": "Bus towards Northwest TC", "polyline": {"points": "crwtDrt`eQHCBJBJPl@BJ@FBHt@rCd@~Ar@pCn@dCd@fB?@Np@Pv@BLDXFx@BZ@d@@b@AV?D?F?@?N?@AN?H?D?@CVATEZId@G^GZGVSp@MT[bAQh@OXo@hB[x@KNKZIR?BK`@Q\\e@j@KLGFKJw@z@e@f@ORCDABEHAHCLCHAHAVANAH?P?RBn@?H@TAP?J?HALCRERCLCTCXAV?p@BTBVBTFV\\jARl@Nd@JZFRLb@J^h@bB`@nAFRRp@@BHXBDFPDNRf@PVJJJHb@ZHFJFRPHHFJ@?HLDJBHBFBJDRBN@L@L@F?B@N?@?@?D@\\?H?V?PAF?VAHCN?DABADADA?GPCDA@ABEFQPEDIHWRMHEBCBGDQLGFEBKLA@IJINGNINCFCFELELk@BM?K?M@M?O@IBKDGDIDIHILELGLCNEX?Z@`@AX?@?P@|H?VBhF@R?Z?V?\\@V?T?J@Z?Z@rA?`@?L?z@?N?@?F?R?N@vA?~B?^@Z?bA@\\?fA?D@R@hB?L?dB@lB@z@?P?^@jB@nB@lB?pA@X@nB@vB@d@?LlIA\\?rJG|@Ah@?d@AZA@\\@bD@b@?\\?j@?zA?vD?JAJ?p@A^CdAAp@Cv@?DKbCGjA@j@Gr@?FIp@Gn@GVEb@G^Kh@EXEZId@Kt@?@EXE^CVEb@KbAG~@M~AEz@Ep@Eb@?@Ej@CZAP?LC^Cn@AVAJ?d@AH?V?H?J?l@BhE@N?`C?~@?tAAX?BAhABvC@f@?x@@rA?t@BbG@~A?t@@zB?jB@d@wA@oB?c@@}ADs@@oB@a@@_@?UB_@?[?[?a@?E?]AC?]CIAw@KaBWSCk@G[G[Ei@IgBYEAcBWe@IeAOw@OMCMCwA[y@M}@OQCQC_BWu@Ka@GaDg@{Ce@WA[A[?]@c@BK@[BM@@b@AV@n@?b@?d@@d@?^?J?XAJAf@Az@@`B@rA?~@@V@XBb@BZD`@DTHd@lAfFFXHd@H`@Fh@Fp@@VBb@?l@?zD@V?hE?X@nE?bF@f@?|C?hD?tA@T?nA?zA?|EBvG?nF?\\@`D?bB?nA?t@@lF?X?l@@lA?bB?dA?J@~E?R?xA?N?j@?n@BLAN@R?z@AhB?X?V?L?B@B?HBVINSXKP]d@_DxEMRe@r@oAnBQV[f@CDKN]`@ORE@C?C@C@q@bAKNQTs@bAEHEJCB?@AB?@?@CPGHS\\[d@iAbBq@`A_@n@e@r@G@C@C@Yb@q@`A]f@QV_@j@A@?@A@W\\KNABGHOVCBILc@l@W\\GLGHU\\?BABAJOX]d@OVo@dAiAhBa@n@Y`@QXY`@AD{A|B_B~BwAxBMRh@`@\\Zx@x@PNZZTPCF"}, "start_location": {"lat": 29.780984, "lng": -95.363464}, "transit_details": {"arrival_stop": {"location": {"lat": 29.797383, "lng": -95.45679299999999}, "name": "N Post Oak Rd @ Hempstead Hwy"}, "arrival_time": {"text": "4:44pm", "time_zone": "America/Chicago", "value": 1642027440}, "departure_stop": {"location": {"lat": 29.780984, "lng": -95.363464}, "name": "Quitman P&R"}, "departure_time": {"text": "4:17pm", "time_zone": "America/Chicago", "value": 1642025820}, "headsign": "Northwest TC", "line": {"agencies": [{"name": "Metropolitan Transit Authority of Harris County", "phone": "1 (713) 635-4000", "url": "http://www.ridemetro.org/"}], "color": "#004080", "name": "Quitman", "short_name": "66", "text_color": "#ffffff", "url": "https://www.ridemetro.org/MetroPDFs/Schedules/BusSchedules/n066-Quitman.pdf", "vehicle": {"icon": "//maps.gstatic.com/mapfiles/transit/iw2/6/bus2.png", "name": "Bus", "type": "BUS"}}, "num_stops": 27, "trip_short_name": "QUITMAN"}, "travel_mode": "TRANSIT"}, {"distance": {"text": "0.6 mi", "value": 1030}, "duration": {"text": "13 mins", "value": 796}, "end_location": {"lat": 29.8019199, "lng": -95.45428179999999}, "html_instructions": "Walk to 4400 W 18th St, Houston, TX 77092, USA", "polyline": {"points": "sxztD|{reQUS[YKMKIo@m@KIWWa@]KI]c@OUEKMYm@{@EO]Y{@aAGMf@mAAWgAiASSBELUqBoBNSyAsAEEIIS_@ISMa@k@L_@P[JMDSFMD?j@?h@BnAAV@|@@hBYDe@F@D@R@f@?D"}, "start_location": {"lat": 29.7973772, "lng": -95.45678590000001}, "steps": [{"distance": {"text": "0.2 mi", "value": 272}, "duration": {"text": "4 mins", "value": 211}, "end_location": {"lat": 29.7991375, "lng": -95.4548499}, "html_instructions": "Head <b>northeast</b> on <b>N Post Oak Rd</b> toward <b>Hempstead Rd</b>", "polyline": {"points": "sxztD|{reQUS[YKMKIo@m@KIWWa@]KI]c@OUEKMYm@{@EO]Y"}, "start_location": {"lat": 29.7973772, "lng": -95.45678590000001}, "travel_mode": "WALKING"}, {"building_level": {"number": 0}, "distance": {"text": "0.1 mi", "value": 163}, "duration": {"text": "2 mins", "value": 129}, "end_location": {"lat": 29.7996479, "lng": -95.45357349999999}, "html_instructions": "Walk for 0.1&nbsp;mi", "polyline": {"points": "sc{tDxoreQ{@aAGMf@mAAWgAiA"}, "start_location": {"lat": 29.7991375, "lng": -95.4548499}, "travel_mode": "WALKING"}, {"distance": {"text": "49 ft", "value": 15}, "duration": {"text": "1 min", "value": 11}, "end_location": {"lat": 29.7997517, "lng": -95.45346980000001}, "html_instructions": "Head <b>northeast</b>", "polyline": {"points": "yf{tDxgreQSS"}, "start_location": {"lat": 29.7996479, "lng": -95.45357349999999}, "travel_mode": "WALKING"}, {"distance": {"text": "56 ft", "value": 17}, "duration": {"text": "1 min", "value": 13}, "end_location": {"lat": 29.7996572, "lng": -95.4533311}, "html_instructions": "Turn <b>right</b>", "maneuver": "turn-right", "polyline": {"points": "mg{tDdgreQBELU"}, "start_location": {"lat": 29.7997517, "lng": -95.45346980000001}, "travel_mode": "WALKING"}, {"distance": {"text": "276 ft", "value": 84}, "duration": {"text": "1 min", "value": 60}, "end_location": {"lat": 29.8002303, "lng": -95.452771}, "html_instructions": "Turn <b>left</b>", "maneuver": "turn-left", "polyline": {"points": "{f{tDhfreQqBoB"}, "start_location": {"lat": 29.7996572, "lng": -95.4533311}, "travel_mode": "WALKING"}, {"distance": {"text": "43 ft", "value": 13}, "duration": {"text": "1 min", "value": 10}, "end_location": {"lat": 29.8001537, "lng": -95.4526671}, "html_instructions": "Turn <b>right</b> toward <b>W Loop S Fwy</b>", "maneuver": "turn-right", "polyline": {"points": "mj{tDxbreQNS"}, "start_location": {"lat": 29.8002303, "lng": -95.452771}, "travel_mode": "WALKING"}, {"distance": {"text": "420 ft", "value": 128}, "duration": {"text": "1 min", "value": 86}, "end_location": {"lat": 29.8008984, "lng": -95.45173779999999}, "html_instructions": "Turn <b>left</b> toward <b>W Loop S Fwy</b>", "maneuver": "turn-left", "polyline": {"points": "}i{tDdbreQyAsAEEIIS_@ISMa@"}, "start_location": {"lat": 29.8001537, "lng": -95.4526671}, "travel_mode": "WALKING"}, {"distance": {"text": "279 ft", "value": 85}, "duration": {"text": "1 min", "value": 75}, "end_location": {"lat": 29.8016641, "lng": -95.4520582}, "html_instructions": "Turn <b>left</b> onto <b>W Loop S Fwy</b>", "maneuver": "turn-left", "polyline": {"points": "sn{tDj|qeQk@L_@P[JMDSFMD"}, "start_location": {"lat": 29.8008984, "lng": -95.45173779999999}, "travel_mode": "WALKING"}, {"distance": {"text": "0.1 mi", "value": 177}, "duration": {"text": "2 mins", "value": 140}, "end_location": {"lat": 29.8016283, "lng": -95.4538499}, "html_instructions": "Turn <b>left</b> onto <b>W 18th St</b>/<wbr/><b>NW Mall</b>", "maneuver": "turn-left", "polyline": {"points": "ks{tDj~qeQ?j@?h@BnAAV@|@@hB"}, "start_location": {"lat": 29.8016641, "lng": -95.4520582}, "travel_mode": "WALKING"}, {"distance": {"text": "131 ft", "value": 40}, "duration": {"text": "1 min", "value": 34}, "end_location": {"lat": 29.80194599999999, "lng": -95.4539156}, "html_instructions": "Turn <b>right</b><div style=\"font-size:0.9em\">Restricted usage road</div>", "maneuver": "turn-right", "polyline": {"points": "es{tDpireQYDe@F"}, "start_location": {"lat": 29.8016283, "lng": -95.4538499}, "travel_mode": "WALKING"}, {"distance": {"text": "118 ft", "value": 36}, "duration": {"text": "1 min", "value": 27}, "end_location": {"lat": 29.8019199, "lng": -95.45428179999999}, "html_instructions": "Turn <b>left</b><div style=\"font-size:0.9em\">Restricted usage road</div><div style=\"font-size:0.9em\">Destination will be on the right</div>", "maneuver": "turn-left", "polyline": {"points": "eu{tD~ireQ@D@R@f@?D"}, "start_location": {"lat": 29.80194599999999, "lng": -95.4539156}, "travel_mode": "WALKING"}], "travel_mode": "WALKING"}], "traffic_speed_entry": [], "via_waypoint": []}], "overview_polyline": {"points": "so_uDjfaeQ@|IHhHB~D@h@rE\\pDVbEj@pBVRZd@c@b@Yd@Uh@QrCaAVKnA_@HTAElBk@bCu@xA[bCWjDAh@D~@Bl@EpDA`EAr@EpD]rFo@pLoAvEi@lAWjIaCRClB@fKBhAAtCIrE@`@A`@E^MZQZYV[fBgCbAcBnD}Ez@eAtFyHpBaDnAwBn@g@dG{C~BkAZGxC?`@Bb@ClFDzCNjFd@`DZZHZTTd@D\\@z@Fj@dA`E|BtIJZJNTPXHX@NCtBu@~CmA`DmApBu@@FCP@FgBl@MDCMCKUy@KUHCBJTx@DRrCnKdB`HTdALrAD`A?z@?^AZEt@W`BOr@a@fAm@lB_AbCg@hAUn@Kd@Q\\e@j@STcAfA{@dAOj@Gz@B~A?|@ObAGn@AhAFl@Jl@lAzDjCtIZ`ARf@PVVTlA|@\\b@Ph@L~@DbAAz@Ev@GNO\\g@h@o@d@g@^a@j@Yn@KZy@Bw@BUHQJSVMZCNEt@?nAFrQBbE@lFL`[J|T@r@jJA`OKZA@\\BfE?|IM~GSnE@j@Gr@Ix@OfA_@fC[xBUtBg@~G[~EIpDDhKArD@`F@`BFlNBbIgE@aCFeFDu@Bw@?iAAg@EyCc@wBY{F}@qDm@eB_@wB]yDk@cEo@sDg@w@AaADg@DM@@b@?fA?hA@jBCr@?|CDdEF~@Jv@vAlGP~@PjAHhABpA@rE@vS@dMFfb@D|e@BlBAhDDh@gA`BaJfNm@t@I@GB}@rAqAnBEJCR[f@wDzFe@r@G@GB{BdDqAlBaAvA}@rAAFAJOXm@|@yBnDgBlCuG|JMRh@`@vAtAbA|@CFq@m@sAoAy@u@i@m@Ua@MYm@{@EO]Y{@aAGMf@mAAWgAiASSBELUqBoBNSyAsAOO]s@Ma@k@L{@\\a@LMD?j@BxB?tA@hBYDe@F@DBz@?D"}, "summary": "", "warnings": ["Walking directions are in beta. Use caution \u2013 This route may be missing sidewalks or pedestrian paths."], "waypoint_order": []}], "status": "OK"}