{"geocoded_waypoints": [{"geocoder_status": "OK", "place_id": "ChIJa6zbsNC4QIYRvcP6oBeJ3KM", "types": ["establishment", "point_of_interest", "school", "secondary_school"]}, {"geocoder_status": "OK", "place_id": "ChIJ9_tphxzHQIYRIMyPy_d3VZU", "types": ["establishment", "point_of_interest"]}], "routes": [{"bounds": {"northeast": {"lat": 29.80194599999999, "lng": -95.3584465}, "southwest": {"lat": 29.77690279999999, "lng": -95.45678590000001}}, "copyrights": "Map data \u00a92022", "legs": [{"arrival_time": {"text": "4:57pm", "time_zone": "America/Chicago", "value": 1642028238}, "departure_time": {"text": "4:14pm", "time_zone": "America/Chicago", "value": 1642025685}, "distance": {"text": "8.3 mi", "value": 13415}, "duration": {"text": "43 mins", "value": 2553}, "end_address": "4400 W 18th St, Houston, TX 77092, USA", "end_location": {"lat": 29.8019199, "lng": -95.45428179999999}, "start_address": "1101 Quitman St, Houston, TX 77009, USA", "start_location": {"lat": 29.7827756, "lng": -95.3584465}, "steps": [{"distance": {"text": "164 ft", "value": 50}, "duration": {"text": "1 min", "value": 36}, "end_location": {"lat": 29.78259899999999, "lng": -95.35892729999999}, "html_instructions": "Walk to Quitman St @ Tackaberry St", "polyline": {"points": "k}wtDhu_eQ\\nADN"}, "start_location": {"lat": 29.7827756, "lng": -95.3584465}, "steps": [{"distance": {"text": "164 ft", "value": 50}, "duration": {"text": "1 min", "value": 36}, "end_location": {"lat": 29.78259899999999, "lng": -95.35892729999999}, "html_instructions": "Head <b>southwest</b> on <b>Quitman St</b> toward <b>Tackaberry St</b><div style=\"font-size:0.9em\">Destination will be on the right</div>", "polyline": {"points": "k}wtDhu_eQ\\nADN"}, "start_location": {"lat": 29.7827756, "lng": -95.3584465}, "travel_mode": "WALKING"}], "travel_mode": "WALKING"}, {"distance": {"text": "7.7 mi", "value": 12335}, "duration": {"text": "29 mins", "value": 1717}, "end_location": {"lat": 29.797383, "lng": -95.45679299999999}, "html_instructions": "Bus towards Northwest TC", "polyline": {"points": "k|wtDjx_eQHEXbAHZRz@FVLd@J^Nj@XjAv@xCb@~ALb@DRPn@d@jBZhABJBJPl@BJ@FBHt@rCd@~Ar@pCn@dCd@fB?@Np@Pv@BLDXFx@BZ@d@@b@AV?D?F?@?N?@AN?H?D?@CVATEZId@G^GZGVSp@MT[bAQh@OXo@hB[x@KNKZIR?BK`@Q\\e@j@KLGFKJw@z@e@f@ORCDABEHAHCLCHAHAVANAH?P?RBn@?H@TAP?J?HALCRERCLCTCXAV?p@BTBVBTFV\\jARl@Nd@JZFRLb@J^h@bB`@nAFRRp@@BHXBDFPDNRf@PVJJJHb@ZHFJFRPHHFJ@?HLDJBHBFBJDRBN@L@L@F?B@N?@?@?D@\\?H?V?PAF?VAHCN?DABADADA?GPCDA@ABEFQPEDIHWRMHEBCBGDQLGFEBKLA@IJINGNINCFCFELELk@BM?K?M@M?O@IBKDGDIDIHILELGLCNEX?Z@`@AX?@?P@|H?VBhF@R?Z?V?\\@V?T?J@Z?Z@rA?`@?L?z@?N?@?F?R?N@vA?~B?^@Z?bA@\\?fA?D@R@hB?L?dB@lB@z@?P?^@jB@nB@lB?pA@X@nB@vB@d@?LlIA\\?rJG|@Ah@?d@AZA@\\@bD@b@?\\?j@?zA?vD?JAJ?p@A^CdAAp@Cv@?DKbCGjA@j@Gr@?FIp@Gn@GVEb@G^Kh@EXEZId@Kt@?@EXE^CVEb@KbAG~@M~AEz@Ep@Eb@?@Ej@CZAP?LC^Cn@AVAJ?d@AH?V?H?J?l@BhE@N?`C?~@?tAAX?BAhABvC@f@?x@@rA?t@BbG@~A?t@@zB?jB@d@wA@oB?c@@}ADs@@oB@a@@_@?UB_@?[?[?a@?E?]AC?]CIAw@KaBWSCk@G[G[Ei@IgBYEAcBWe@IeAOw@OMCMCwA[y@M}@OQCQC_BWu@Ka@GaDg@{Ce@WA[A[?]@c@BK@[BM@@b@AV@n@?b@?d@@d@?^?J?XAJAf@Az@@`B@rA?~@@V@XBb@BZD`@DTHd@lAfFFXHd@H`@Fh@Fp@@VBb@?l@?zD@V?hE?X@nE?bF@f@?|C?hD?tA@T?nA?zA?|EBvG?nF?\\@`D?bB?nA?t@@lF?X?l@@lA?bB?dA?J@~E?R?xA?N?j@?n@BLAN@R?z@AhB?X?V?L?B@B?HBVINSXKP]d@_DxEMRe@r@oAnBQV[f@CDKN]`@ORE@C?C@C@q@bAKNQTs@bAEHEJCB?@AB?@?@CPGHS\\[d@iAbBq@`A_@n@e@r@G@C@C@Yb@q@`A]f@QV_@j@A@?@A@W\\KNABGHOVCBILc@l@W\\GLGHU\\?BABAJOX]d@OVo@dAiAhBa@n@Y`@QXY`@AD{A|B_B~BwAxBMRh@`@\\Zx@x@PNZZTPCF"}, "start_location": {"lat": 29.78262299999999, "lng": -95.358939}, "transit_details": {"arrival_stop": {"location": {"lat": 29.797383, "lng": -95.45679299999999}, "name": "N Post Oak Rd @ Hempstead Hwy"}, "arrival_time": {"text": "4:44pm", "time_zone": "America/Chicago", "value": 1642027440}, "departure_stop": {"location": {"lat": 29.78262299999999, "lng": -95.358939}, "name": "Quitman St @ Tackaberry St"}, "departure_time": {"text": "4:15pm", "time_zone": "America/Chicago", "value": 1642025723}, "headsign": "Northwest TC", "line": {"agencies": [{"name": "Metropolitan Transit Authority of Harris County", "phone": "1 (713) 635-4000", "url": "http://www.ridemetro.org/"}], "color": "#004080", "name": "Quitman", "short_name": "66", "text_color": "#ffffff", "url": "https://www.ridemetro.org/MetroPDFs/Schedules/BusSchedules/n066-Quitman.pdf", "vehicle": {"icon": "//maps.gstatic.com/mapfiles/transit/iw2/6/bus2.png", "name": "Bus", "type": "BUS"}}, "num_stops": 30, "trip_short_name": "QUITMAN"}, "travel_mode": "TRANSIT"}, {"distance": {"text": "0.6 mi", "value": 1030}, "duration": {"text": "13 mins", "value": 796}, "end_location": {"lat": 29.8019199, "lng": -95.45428179999999}, "html_instructions": "Walk to 4400 W 18th St, Houston, TX 77092, USA", "polyline": {"points": "sxztD|{reQUS[YKMKIo@m@KIWWa@]KI]c@OUEKMYm@{@EO]Y{@aAGMf@mAAWgAiASSBELUqBoBNSyAsAEEIIS_@ISMa@k@L_@P[JMDSFMD?j@?h@BnAAV@|@@hBYDe@F@D@R@f@?D"}, "start_location": {"lat": 29.7973772, "lng": -95.45678590000001}, "steps": [{"distance": {"text": "0.2 mi", "value": 272}, "duration": {"text": "4 mins", "value": 211}, "end_location": {"lat": 29.7991375, "lng": -95.4548499}, "html_instructions": "Head <b>northeast</b> on <b>N Post Oak Rd</b> toward <b>Hempstead Rd</b>", "polyline": {"points": "sxztD|{reQUS[YKMKIo@m@KIWWa@]KI]c@OUEKMYm@{@EO]Y"}, "start_location": {"lat": 29.7973772, "lng": -95.45678590000001}, "travel_mode": "WALKING"}, {"building_level": {"number": 0}, "distance": {"text": "0.1 mi", "value": 163}, "duration": {"text": "2 mins", "value": 129}, "end_location": {"lat": 29.7996479, "lng": -95.45357349999999}, "html_instructions": "Walk for 0.1&nbsp;mi", "polyline": {"points": "sc{tDxoreQ{@aAGMf@mAAWgAiA"}, "start_location": {"lat": 29.7991375, "lng": -95.4548499}, "travel_mode": "WALKING"}, {"distance": {"text": "49 ft", "value": 15}, "duration": {"text": "1 min", "value": 11}, "end_location": {"lat": 29.7997517, "lng": -95.45346980000001}, "html_instructions": "Head <b>northeast</b>", "polyline": {"points": "yf{tDxgreQSS"}, "start_location": {"lat": 29.7996479, "lng": -95.45357349999999}, "travel_mode": "WALKING"}, {"distance": {"text": "56 ft", "value": 17}, "duration": {"text": "1 min", "value": 13}, "end_location": {"lat": 29.7996572, "lng": -95.4533311}, "html_instructions": "Turn <b>right</b>", "maneuver": "turn-right", "polyline": {"points": "mg{tDdgreQBELU"}, "start_location": {"lat": 29.7997517, "lng": -95.45346980000001}, "travel_mode": "WALKING"}, {"distance": {"text": "276 ft", "value": 84}, "duration": {"text": "1 min", "value": 60}, "end_location": {"lat": 29.8002303, "lng": -95.452771}, "html_instructions": "Turn <b>left</b>", "maneuver": "turn-left", "polyline": {"points": "{f{tDhfreQqBoB"}, "start_location": {"lat": 29.7996572, "lng": -95.4533311}, "travel_mode": "WALKING"}, {"distance": {"text": "43 ft", "value": 13}, "duration": {"text": "1 min", "value": 10}, "end_location": {"lat": 29.8001537, "lng": -95.4526671}, "html_instructions": "Turn <b>right</b> toward <b>W Loop S Fwy</b>", "maneuver": "turn-right", "polyline": {"points": "mj{tDxbreQNS"}, "start_location": {"lat": 29.8002303, "lng": -95.452771}, "travel_mode": "WALKING"}, {"distance": {"text": "420 ft", "value": 128}, "duration": {"text": "1 min", "value": 86}, "end_location": {"lat": 29.8008984, "lng": -95.45173779999999}, "html_instructions": "Turn <b>left</b> toward <b>W Loop S Fwy</b>", "maneuver": "turn-left", "polyline": {"points": "}i{tDdbreQyAsAEEIIS_@ISMa@"}, "start_location": {"lat": 29.8001537, "lng": -95.4526671}, "travel_mode": "WALKING"}, {"distance": {"text": "279 ft", "value": 85}, "duration": {"text": "1 min", "value": 75}, "end_location": {"lat": 29.8016641, "lng": -95.4520582}, "html_instructions": "Turn <b>left</b> onto <b>W Loop S Fwy</b>", "maneuver": "turn-left", "polyline": {"points": "sn{tDj|qeQk@L_@P[JMDSFMD"}, "start_location": {"lat": 29.8008984, "lng": -95.45173779999999}, "travel_mode": "WALKING"}, {"distance": {"text": "0.1 mi", "value": 177}, "duration": {"text": "2 mins", "value": 140}, "end_location": {"lat": 29.8016283, "lng": -95.4538499}, "html_instructions": "Turn <b>left</b> onto <b>W 18th St</b>/<wbr/><b>NW Mall</b>", "maneuver": "turn-left", "polyline": {"points": "ks{tDj~qeQ?j@?h@BnAAV@|@@hB"}, "start_location": {"lat": 29.8016641, "lng": -95.4520582}, "travel_mode": "WALKING"}, {"distance": {"text": "131 ft", "value": 40}, "duration": {"text": "1 min", "value": 34}, "end_location": {"lat": 29.80194599999999, "lng": -95.4539156}, "html_instructions": "Turn <b>right</b><div style=\"font-size:0.9em\">Restricted usage road</div>", "maneuver": "turn-right", "polyline": {"points": "es{tDpireQYDe@F"}, "start_location": {"lat": 29.8016283, "lng": -95.4538499}, "travel_mode": "WALKING"}, {"distance": {"text": "118 ft", "value": 36}, "duration": {"text": "1 min", "value": 27}, "end_location": {"lat": 29.8019199, "lng": -95.45428179999999}, "html_instructions": "Turn <b>left</b><div style=\"font-size:0.9em\">Restricted usage road</div><div style=\"font-size:0.9em\">Destination will be on the right</div>", "maneuver": "turn-left", "polyline": {"points": "eu{tD~ireQ@D@R@f@?D"}, "start_location": {"lat": 29.80194599999999, "lng": -95.4539156}, "travel_mode": "WALKING"}], "travel_mode": "WALKING"}], "traffic_speed_entry": [], "via_waypoint": []}], "overview_polyline": {"points": "k}wtDhu_eQb@~AC@HEb@~AZrAbA|DnBpHrB~HrCnKdB`HTdALrAD`A?z@?^AZEt@W`BOr@a@fAm@lB_AbCg@hAUn@Kd@Q\\e@j@STcAfA{@dAOj@Gz@B~A?|@ObAGn@AhAFl@Jl@lAzDjCtIZ`ARf@PVVTlA|@\\b@Ph@L~@DbAAz@Ev@GNO\\g@h@o@d@g@^a@j@Yn@KZy@Bw@BUHQJSVMZCNEt@?nAFrQBbEFzTRpb@@r@jJA`OKZA@\\BfE?|IM~GSnE@j@Gr@Ix@OfA_@fC[xBUtBg@~G[~EIpDDhKArD@`F@`BFlNBbIgE@aCFeFDu@Bw@?iAAg@EyCc@wBY{F}@qDm@eB_@wB]yDk@cEo@sDg@w@AaADg@DM@@b@?fA?hA@jBCr@?|CDdEF~@Jv@vAlGP~@PjAHhABpA@rE@vS@dMFfb@BpU@jOBlBAhDDh@gA`BaJfNm@t@I@GB}@rAqAnBEJCR[f@wDzFe@r@G@GB{BdDqAlBaAvA}@rAAFAJOXm@|@yBnDgBlCuG|JMRh@`@vAtAbA|@CFq@m@sAoAy@u@i@m@Ua@MYm@{@EO]Y{@aAGMf@mAAWgAiASSBELUqBoBNSyAsAOO]s@Ma@k@L{@\\a@LMD?j@BxB?tA@hBYDe@F@DBz@?D"}, "summary": "", "warnings": ["Walking directions are in beta. Use caution \u2013 This route may be missing sidewalks or pedestrian paths."], "waypoint_order": []}, {"bounds": {"northeast": {"lat": 29.80413, "lng": -95.3584465}, "southwest": {"lat": 29.7818571, "lng": -95.45463819999999}}, "copyrights": "Map data \u00a92022", "legs": [{"arrival_time": {"text": "4:49pm", "time_zone": "America/Chicago", "value": 1642027797}, "departure_time": {"text": "4:02pm", "time_zone": "America/Chicago", "value": 1642024975}, "distance": {"text": "7.4 mi", "value": 11906}, "duration": {"text": "47 mins", "value": 2822}, "end_address": "4400 W 18th St, Houston, TX 77092, USA", "end_location": {"lat": 29.8019199, "lng": -95.45428179999999}, "start_address": "1101 Quitman St, Houston, TX 77009, USA", "start_location": {"lat": 29.7827756, "lng": -95.3584465}, "steps": [{"distance": {"text": "0.1 mi", "value": 203}, "duration": {"text": "3 mins", "value": 157}, "end_location": {"lat": 29.781871, "lng": -95.35980740000001}, "html_instructions": "Walk to Fulton St @ Quitman St", "polyline": {"points": "k}wtDhu_eQ\\nAZjADLDTTz@Pt@LEx@["}, "start_location": {"lat": 29.7827756, "lng": -95.3584465}, "steps": [{"distance": {"text": "0.1 mi", "value": 164}, "duration": {"text": "2 mins", "value": 119}, "end_location": {"lat": 29.7821592, "lng": -95.35994579999999}, "html_instructions": "Head <b>southwest</b> on <b>Quitman St</b> toward <b>Tackaberry St</b>", "polyline": {"points": "k}wtDhu_eQ\\nAZjADLDTTz@Pt@LE"}, "start_location": {"lat": 29.7827756, "lng": -95.3584465}, "travel_mode": "WALKING"}, {"distance": {"text": "128 ft", "value": 39}, "duration": {"text": "1 min", "value": 38}, "end_location": {"lat": 29.781871, "lng": -95.35980740000001}, "html_instructions": "Turn <b>left</b> onto <b>Fulton St</b>", "maneuver": "turn-left", "polyline": {"points": "oywtDt~_eQx@["}, "start_location": {"lat": 29.7821592, "lng": -95.35994579999999}, "travel_mode": "WALKING"}], "travel_mode": "WALKING"}, {"distance": {"text": "1.5 mi", "value": 2414}, "duration": {"text": "6 mins", "value": 360}, "end_location": {"lat": 29.803166, "lng": -95.360948}, "html_instructions": "Bus towards Aldine Westfield", "polyline": {"points": "wwwtDr}_eQBL_A\\}DzAg@Rq@Rm@TKDC?UDMBOBUBY@ACAAC?CAGAGAIAI?G?G?E?E?E@GCC?YIiBOuAO]CoBS{@Cg@E_AGi@CiAC}CAc@?}@CI?A?S?s@Ag@@UBO@KBODSFYJk@VUJSFMDG@[DE@K?Q@O?kC@_@@_BBm@?[?eC?uDBO?qD@sCBW?cD@u@@yA?]?sDB{A?s@@O?kD@yC@Q?uA@mA@K?]?]@o@?K??K"}, "start_location": {"lat": 29.781881, "lng": -95.35978}, "transit_details": {"arrival_stop": {"location": {"lat": 29.803166, "lng": -95.360948}, "name": "Irvington Blvd @ Cavalcade St"}, "arrival_time": {"text": "4:12pm", "time_zone": "America/Chicago", "value": 1642025520}, "departure_stop": {"location": {"lat": 29.781881, "lng": -95.35978}, "name": "Fulton St @ Quitman St"}, "departure_time": {"text": "4:06pm", "time_zone": "America/Chicago", "value": 1642025160}, "headsign": "Aldine Westfield", "line": {"agencies": [{"name": "Metropolitan Transit Authority of Harris County", "phone": "1 (713) 635-4000", "url": "http://www.ridemetro.org/"}], "color": "#004080", "name": "Irvington", "short_name": "79", "text_color": "#ffffff", "url": "https://www.ridemetro.org/MetroPDFs/Schedules/BusSchedules/n079-Irvington.pdf", "vehicle": {"icon": "//maps.gstatic.com/mapfiles/transit/iw2/6/bus2.png", "name": "Bus", "type": "BUS"}}, "num_stops": 11, "trip_short_name": "IRVINGTON"}, "travel_mode": "TRANSIT"}, {"distance": {"text": "197 ft", "value": 60}, "duration": {"text": "1 min", "value": 64}, "end_location": {"lat": 29.8034358, "lng": -95.3607828}, "html_instructions": "Walk to Cavalcade St @ Irvington Blvd", "polyline": {"points": "m|{tDzd`eQ?DO?O?Q?M?Ae@"}, "start_location": {"lat": 29.80311399999999, "lng": -95.3609443}, "steps": [{"distance": {"text": "20 ft", "value": 6}, "duration": {"text": "1 min", "value": 5}, "end_location": {"lat": 29.8031127, "lng": -95.3609682}, "html_instructions": "Head <b>west</b> toward <b>Irvington Blvd</b>", "polyline": {"points": "m|{tDzd`eQ?D"}, "start_location": {"lat": 29.80311399999999, "lng": -95.3609443}, "travel_mode": "WALKING"}, {"distance": {"text": "105 ft", "value": 32}, "duration": {"text": "1 min", "value": 34}, "end_location": {"lat": 29.8034336, "lng": -95.3609668}, "html_instructions": "Turn <b>right</b> onto <b>Irvington Blvd</b>", "maneuver": "turn-right", "polyline": {"points": "m|{tD`e`eQO?O?Q?M?"}, "start_location": {"lat": 29.8031127, "lng": -95.3609682}, "travel_mode": "WALKING"}, {"distance": {"text": "72 ft", "value": 22}, "duration": {"text": "1 min", "value": 25}, "end_location": {"lat": 29.8034358, "lng": -95.3607828}, "html_instructions": "Turn <b>right</b> onto <b>Cavalcade St</b>", "maneuver": "turn-right", "polyline": {"points": "m~{tD`e`eQAe@"}, "start_location": {"lat": 29.8034336, "lng": -95.3609668}, "travel_mode": "WALKING"}], "travel_mode": "WALKING"}, {"distance": {"text": "5.7 mi", "value": 9131}, "duration": {"text": "21 mins", "value": 1260}, "end_location": {"lat": 29.80163, "lng": -95.454342}, "html_instructions": "Bus towards Memorial City", "polyline": {"points": "q~{tDzc`eQH??l@?\\BpD@nB?fA@jA?tA?T?\\?lA@nA?tA@dA?Z@bA?pB@vDAlBAV?LANAT?RAXCR?@CXQ|@Kf@Sz@ENOr@CRE\\Cb@KfCARCpAAv@AXCf@?DAT?LAHCfAAd@?D?lB?h@?VBjC?lB?x@@z@@fB?fD@fDE`BA|@?HA\\@V?lA@L?\\?x@?V@j@@t@?L?JB`@@T@NBN@N@V?f@@f@?`A?r@?L?xBAP?JALAPANIbAEb@?TAR?V?fH?p@@vD@xAC^C^CRA@ETC\\Af@?P?P?LA`@@\\BpA?^@j@?H@tA?n@?b@@b@?X?P?V@`A?v@@dA?V?vA@T?lB@jB@tA?XB|E?~A@zB@nB?V?V@t@?L?R?L@R?N?f@?h@@|@?\\?d@?b@@n@?pA@|B?d@?`@@t@?T?pA@v@@rA?v@@bD@~@?nA@H?tB@^@dC?P?j@@x@?x@?t@@P?dA@|A?\\?^@dC@zB?xA?N@V?fA@`ABfE?tABtJ?pB@rA?r@?H?|@?jB?@?j@@h@AL?\\?J@f@?|B?h@?|@?n@?N?|G?J@tE?d@@dC?p@AL@J?V@P@H?B?D@F@HBH@JDPDLDLDHDJDJHLFHFHLL?@TVTVn@v@NRh@h@NPVX^f@BJBFBFf@v@P`@DZDVBT@F?D@F?H?P@P?X?N?F?j@@pAIpB@f@?V?fA?j@?V@h@AjA?h@@~@?b@@^Af@@d@?X?bA?jA?b@@nC?J?d@Aj@?v@?P@dB?jA?bC?`A?\\@dH?`D?dC@fE?jD?T@`F@vB?jD?vC?X?`E@V@zCAb@?fAAX@fB@fA?T@|B?l@A~A?x@?XAzB?`A?dB?l@?P?F?H@^?Z?@?H?@?Z?h@?f@?j@?^?t@@j@BnAAV@|@@fB?bBG?"}, "start_location": {"lat": 29.803446, "lng": -95.360783}, "transit_details": {"arrival_stop": {"location": {"lat": 29.80163, "lng": -95.454342}, "name": "W 18th St @ Northwest Fwy"}, "arrival_time": {"text": "4:48pm", "time_zone": "America/Chicago", "value": 1642027720}, "departure_stop": {"location": {"lat": 29.803446, "lng": -95.360783}, "name": "Cavalcade St @ Irvington Blvd"}, "departure_time": {"text": "4:27pm", "time_zone": "America/Chicago", "value": 1642026460}, "headsign": "Memorial City", "line": {"agencies": [{"name": "Metropolitan Transit Authority of Harris County", "phone": "1 (713) 635-4000", "url": "http://www.ridemetro.org/"}], "color": "#004080", "name": "Long Point / Cavalcade", "short_name": "26", "text_color": "#ffffff", "url": "https://www.ridemetro.org/MetroPDFs/Schedules/BusSchedules/n026-Long-Point-Cavalcade.pdf", "vehicle": {"icon": "//maps.gstatic.com/mapfiles/transit/iw2/6/bus2.png", "name": "Bus", "type": "BUS"}}, "num_stops": 34, "trip_short_name": "LONGPOINT"}, "travel_mode": "TRANSIT"}, {"distance": {"text": "322 ft", "value": 98}, "duration": {"text": "1 min", "value": 77}, "end_location": {"lat": 29.8019199, "lng": -95.45428179999999}, "html_instructions": "Walk to 4400 W 18th St, Houston, TX 77092, USA", "polyline": {"points": "es{tDrlreQ?z@YEc@E?G@Q@a@"}, "start_location": {"lat": 29.8016264, "lng": -95.454342}, "steps": [{"distance": {"text": "95 ft", "value": 29}, "duration": {"text": "1 min", "value": 22}, "end_location": {"lat": 29.8016252, "lng": -95.45463819999999}, "html_instructions": "Head <b>west</b> on <b>W 18th St</b>/<wbr/><b>NW Mall</b>", "polyline": {"points": "es{tDrlreQ?z@"}, "start_location": {"lat": 29.8016264, "lng": -95.454342}, "travel_mode": "WALKING"}, {"distance": {"text": "131 ft", "value": 40}, "duration": {"text": "1 min", "value": 33}, "end_location": {"lat": 29.8019405, "lng": -95.4545788}, "html_instructions": "Turn <b>right</b><div style=\"font-size:0.9em\">Restricted usage road</div>", "maneuver": "turn-right", "polyline": {"points": "es{tDnnreQYEc@E"}, "start_location": {"lat": 29.8016252, "lng": -95.45463819999999}, "travel_mode": "WALKING"}, {"distance": {"text": "95 ft", "value": 29}, "duration": {"text": "1 min", "value": 22}, "end_location": {"lat": 29.8019199, "lng": -95.45428179999999}, "html_instructions": "Turn <b>right</b><div style=\"font-size:0.9em\">Restricted usage road</div><div style=\"font-size:0.9em\">Destination will be on the left</div>", "maneuver": "turn-right", "polyline": {"points": "cu{tDbnreQ?G@Q@a@"}, "start_location": {"lat": 29.8019405, "lng": -95.4545788}, "travel_mode": "WALKING"}], "travel_mode": "WALKING"}], "traffic_speed_entry": [], "via_waypoint": []}], "overview_polyline": {"points": "k}wtDhu_eQdA~Df@pBfAa@AEBL}FxBsCbAw@Lo@DCEOCc@CY@KCYIiBOsBSkDWgBMsBGiGEU?s@Ag@@e@D[HoBv@a@Lc@Fs@ByHFgJBcZL{SHwB@K??KJA?D_@?_@?Ce@H??l@BnE@vD@tEFbUEbDGvAa@`CYjASfAI`AMzCKjECr@ElB?rBBzHBdK@fDE`BAfA@pC@zCDpBFt@BnA@jDAjCAXShCAhJ@hFAxBOjAEhBB~CD|HDnJNl`@Zx{@DhOJx]?xH@lG?hJBrL@bABZLp@Vp@^l@bDtDf@j@^f@BJFNf@v@P`@Jr@D\\@h@@bA@|BIpB@f@?~A?bA?tB@hB@pC?lE@hNBdd@Df\\A`HDbIA`FApI@lB?xCDpE@`HG??z@YEc@E?GBs@"}, "summary": "", "warnings": ["Walking directions are in beta. Use caution \u2013 This route may be missing sidewalks or pedestrian paths."], "waypoint_order": []}, {"bounds": {"northeast": {"lat": 29.804135, "lng": -95.3584465}, "southwest": {"lat": 29.7822256, "lng": -95.45463819999999}}, "copyrights": "Map data \u00a92022", "legs": [{"arrival_time": {"text": "4:49pm", "time_zone": "America/Chicago", "value": 1642027797}, "departure_time": {"text": "4:06pm", "time_zone": "America/Chicago", "value": 1642025182}, "distance": {"text": "7.1 mi", "value": 11414}, "duration": {"text": "44 mins", "value": 2615}, "end_address": "4400 W 18th St, Houston, TX 77092, USA", "end_location": {"lat": 29.8019199, "lng": -95.45428179999999}, "start_address": "1101 Quitman St, Houston, TX 77009, USA", "start_location": {"lat": 29.7827756, "lng": -95.3584465}, "steps": [{"distance": {"text": "0.3 mi", "value": 554}, "duration": {"text": "7 mins", "value": 406}, "end_location": {"lat": 29.7854795, "lng": -95.36064999999999}, "html_instructions": "Walk to Fulton/North Central NB", "polyline": {"points": "k}wtDhu_eQ\\nAZjADLDTTz@Pt@uDvAg@Rk@PKDg@PMDUDOBOBSBU@ECCACAGAGAIAK?G?G?G?E?C@CCE?YIcBO"}, "start_location": {"lat": 29.7827756, "lng": -95.3584465}, "steps": [{"distance": {"text": "0.1 mi", "value": 164}, "duration": {"text": "2 mins", "value": 119}, "end_location": {"lat": 29.7822256, "lng": -95.35997780000001}, "html_instructions": "Head <b>southwest</b> on <b>Quitman St</b> toward <b>Tackaberry St</b>", "polyline": {"points": "k}wtDhu_eQ\\nAZjADLDTTz@Pt@"}, "start_location": {"lat": 29.7827756, "lng": -95.3584465}, "travel_mode": "WALKING"}, {"distance": {"text": "0.2 mi", "value": 261}, "duration": {"text": "3 mins", "value": 193}, "end_location": {"lat": 29.7843709, "lng": -95.3608562}, "html_instructions": "Turn <b>right</b> onto <b>Fulton St</b>", "maneuver": "turn-right", "polyline": {"points": "}ywtDz~_eQuDvAg@Rk@PKDg@PMDUDOBOBSBU@"}, "start_location": {"lat": 29.7822256, "lng": -95.35997780000001}, "travel_mode": "WALKING"}, {"distance": {"text": "157 ft", "value": 48}, "duration": {"text": "1 min", "value": 35}, "end_location": {"lat": 29.7847986, "lng": -95.3607961}, "html_instructions": "Slight <b>right</b> toward <b>Fulton St</b>", "maneuver": "turn-slight-right", "polyline": {"points": "igxtDjd`eQECCACAGAGAIAK?G?G?G?E?C@"}, "start_location": {"lat": 29.7843709, "lng": -95.3608562}, "travel_mode": "WALKING"}, {"distance": {"text": "266 ft", "value": 81}, "duration": {"text": "1 min", "value": 59}, "end_location": {"lat": 29.7854795, "lng": -95.36064999999999}, "html_instructions": "Continue onto <b>Fulton St</b><div style=\"font-size:0.9em\">Destination will be on the right</div>", "polyline": {"points": "_jxtD~c`eQCCE?YIcBO"}, "start_location": {"lat": 29.7847986, "lng": -95.3607961}, "travel_mode": "WALKING"}], "travel_mode": "WALKING"}, {"distance": {"text": "1.4 mi", "value": 2227}, "duration": {"text": "4 mins", "value": 240}, "end_location": {"lat": 29.802746, "lng": -95.36810299999999}, "html_instructions": "Light rail towards Northline TC", "polyline": {"points": "cnxtDvc`eQ@COAc@EMA{AOc@EE?o@GSCQAOASASA{AIWASAW?a@A_DAU@M@K?UCoAAM?k@?O@M@MDKDsBdA{At@]PyBfAQJKDKJKHKJKLIJYj@_@p@i@|@U\\g@x@IJc@p@QTcB|B{ArBSXMLIJOPORONeA|AiAzAKPINa@n@KPKPKNo@|@_@f@IJMNMLMJKHOFOFODOBQ@O@Q?kBAW?_@?o@?U?S@O?{AFM?W@U?M?{B?{BAQ?}BAaBAK?I@I@KBkA\\?@"}, "start_location": {"lat": 29.785456, "lng": -95.360757}, "transit_details": {"arrival_stop": {"location": {"lat": 29.802746, "lng": -95.36810299999999}, "name": "Cavalcade"}, "arrival_time": {"text": "4:18pm", "time_zone": "America/Chicago", "value": 1642025880}, "departure_stop": {"location": {"lat": 29.785456, "lng": -95.360757}, "name": "Fulton/North Central NB"}, "departure_time": {"text": "4:14pm", "time_zone": "America/Chicago", "value": 1642025640}, "headsign": "Northline TC", "line": {"agencies": [{"name": "Metropolitan Transit Authority of Harris County", "phone": "1 (713) 635-4000", "url": "http://www.ridemetro.org/"}], "color": "#e60f33", "name": "Metrorail Red Line", "short_name": "Red", "text_color": "#ffffff", "url": "https://www.ridemetro.org/Pages/RedLine.aspx", "vehicle": {"icon": "//maps.gstatic.com/mapfiles/transit/iw2/6/tram2.png", "name": "Light rail", "type": "TRAM"}}, "num_stops": 2}, "travel_mode": "TRANSIT"}, {"distance": {"text": "374 ft", "value": 114}, "duration": {"text": "2 mins", "value": 132}, "end_location": {"lat": 29.80337, "lng": -95.3681249}, "html_instructions": "Walk to Cavalcade St @ Fulton St", "polyline": {"points": "}y{tDnraeQ]JYJ]NOHE@MFMD?Q@Q?O@Q?S"}, "start_location": {"lat": 29.8027124, "lng": -95.36824179999999}, "steps": [{"distance": {"text": "253 ft", "value": 77}, "duration": {"text": "1 min", "value": 75}, "end_location": {"lat": 29.8033907, "lng": -95.3684799}, "html_instructions": "Head <b>north</b> on <b>Fulton St</b> toward <b>Cavalcade St</b>", "polyline": {"points": "}y{tDnraeQ]JYJ]NOHE@MFMD?Q"}, "start_location": {"lat": 29.8027124, "lng": -95.36824179999999}, "travel_mode": "WALKING"}, {"distance": {"text": "121 ft", "value": 37}, "duration": {"text": "1 min", "value": 57}, "end_location": {"lat": 29.80337, "lng": -95.3681249}, "html_instructions": "Turn <b>right</b> onto <b>Cavalcade St</b>", "maneuver": "turn-right", "polyline": {"points": "e~{tD~saeQ@Q?O@Q?S"}, "start_location": {"lat": 29.8033907, "lng": -95.3684799}, "travel_mode": "WALKING"}], "travel_mode": "WALKING"}, {"distance": {"text": "5.2 mi", "value": 8421}, "duration": {"text": "19 mins", "value": 1120}, "end_location": {"lat": 29.80163, "lng": -95.454342}, "html_instructions": "Bus towards Memorial City", "polyline": {"points": "a~{tDvqaeQF@AV?LANAT?RAXCR?@CXQ|@Kf@Sz@ENOr@CRE\\Cb@KfCARCpAAv@AXCf@?DAT?LAHCfAAd@?D?lB?h@?VBjC?lB?x@@z@@fB?fD@fDE`BA|@?HA\\@V?lA@L?\\?x@?V@j@@t@?L?JB`@@T@NBN@N@V?f@@f@?`A?r@?L?xBAP?JALAPANIbAEb@?TAR?V?fH?p@@vD@xAC^C^CRA@ETC\\Af@?P?P?LA`@@\\BpA?^@j@?H@tA?n@?b@@b@?X?P?V@`A?v@@dA?V?vA@T?lB@jB@tA?XB|E?~A@zB@nB?V?V@t@?L?R?L@R?N?f@?h@@|@?\\?d@?b@@n@?pA@|B?d@?`@@t@?T?pA@v@@rA?v@@bD@~@?nA@H?tB@^@dC?P?j@@x@?x@?t@@P?dA@|A?\\?^@dC@zB?xA?N@V?fA@`ABfE?tABtJ?pB@rA?r@?H?|@?jB?@?j@@h@AL?\\?J@f@?|B?h@?|@?n@?N?|G?J@tE?d@@dC?p@AL@J?V@P@H?B?D@F@HBH@JDPDLDLDHDJDJHLFHFHLL?@TVTVn@v@NRh@h@NPVX^f@BJBFBFf@v@P`@DZDVBT@F?D@F?H?P@P?X?N?F?j@@pAIpB@f@?V?fA?j@?V@h@AjA?h@@~@?b@@^Af@@d@?X?bA?jA?b@@nC?J?d@Aj@?v@?P@dB?jA?bC?`A?\\@dH?`D?dC@fE?jD?T@`F@vB?jD?vC?X?`E@V@zCAb@?fAAX@fB@fA?T@|B?l@A~A?x@?XAzB?`A?dB?l@?P?F?H@^?Z?@?H?@?Z?h@?f@?j@?^?t@@j@BnAAV@|@@fB?bBG?"}, "start_location": {"lat": 29.803368, "lng": -95.368125}, "transit_details": {"arrival_stop": {"location": {"lat": 29.80163, "lng": -95.454342}, "name": "W 18th St @ Northwest Fwy"}, "arrival_time": {"text": "4:48pm", "time_zone": "America/Chicago", "value": 1642027720}, "departure_stop": {"location": {"lat": 29.803368, "lng": -95.368125}, "name": "Cavalcade St @ Fulton St"}, "departure_time": {"text": "4:30pm", "time_zone": "America/Chicago", "value": 1642026600}, "headsign": "Memorial City", "line": {"agencies": [{"name": "Metropolitan Transit Authority of Harris County", "phone": "1 (713) 635-4000", "url": "http://www.ridemetro.org/"}], "color": "#004080", "name": "Long Point / Cavalcade", "short_name": "26", "text_color": "#ffffff", "url": "https://www.ridemetro.org/MetroPDFs/Schedules/BusSchedules/n026-Long-Point-Cavalcade.pdf", "vehicle": {"icon": "//maps.gstatic.com/mapfiles/transit/iw2/6/bus2.png", "name": "Bus", "type": "BUS"}}, "num_stops": 31, "trip_short_name": "LONGPOINT"}, "travel_mode": "TRANSIT"}, {"distance": {"text": "322 ft", "value": 98}, "duration": {"text": "1 min", "value": 77}, "end_location": {"lat": 29.8019199, "lng": -95.45428179999999}, "html_instructions": "Walk to 4400 W 18th St, Houston, TX 77092, USA", "polyline": {"points": "es{tDrlreQ?z@YEc@E?G@Q@a@"}, "start_location": {"lat": 29.8016264, "lng": -95.454342}, "steps": [{"distance": {"text": "95 ft", "value": 29}, "duration": {"text": "1 min", "value": 22}, "end_location": {"lat": 29.8016252, "lng": -95.45463819999999}, "html_instructions": "Head <b>west</b> on <b>W 18th St</b>/<wbr/><b>NW Mall</b>", "polyline": {"points": "es{tDrlreQ?z@"}, "start_location": {"lat": 29.8016264, "lng": -95.454342}, "travel_mode": "WALKING"}, {"distance": {"text": "131 ft", "value": 40}, "duration": {"text": "1 min", "value": 33}, "end_location": {"lat": 29.8019405, "lng": -95.4545788}, "html_instructions": "Turn <b>right</b><div style=\"font-size:0.9em\">Restricted usage road</div>", "maneuver": "turn-right", "polyline": {"points": "es{tDnnreQYEc@E"}, "start_location": {"lat": 29.8016252, "lng": -95.45463819999999}, "travel_mode": "WALKING"}, {"distance": {"text": "95 ft", "value": 29}, "duration": {"text": "1 min", "value": 22}, "end_location": {"lat": 29.8019199, "lng": -95.45428179999999}, "html_instructions": "Turn <b>right</b><div style=\"font-size:0.9em\">Restricted usage road</div><div style=\"font-size:0.9em\">Destination will be on the left</div>", "maneuver": "turn-right", "polyline": {"points": "cu{tDbnreQ?G@Q@a@"}, "start_location": {"lat": 29.8019405, "lng": -95.4545788}, "travel_mode": "WALKING"}], "travel_mode": "WALKING"}], "traffic_speed_entry": [], "via_waypoint": []}], "overview_polyline": {"points": "k}wtDhu_eQdA~Df@pB}EjBmBn@iAPU@ECGCe@E]?g@KcBOBTMEqD]{AMsCOeBEoE@eBEy@?]BYJgJtEu@f@WXc@v@gCfEcDpEgCfDuBrCuAlBk@~@sApBeApAYT_@N_@Ha@BuDAiB@wCHwGAuFAUDkA\\?@FZ]Jw@Zq@XBeA?SF@AVA\\Ah@IhA]dBYjASfAI`ASdHG|AGdC?tDDnJ@nG@fDE`BAfA?t@@rDBfCFrAD^BhDAlEEz@OfBAh@@hPAxBGr@GVEdAArAFzDBzGPhf@HfT`@ncAFnd@@lU@pEBv@F`@Rx@Zn@\\b@|DpE^f@BJFNf@v@P`@Jr@Fj@@fA@tCIpB@f@?~A?xDBlD@vL?rODve@BnZ@pG@rCAlCApG?lD@xC?hDDpE@jEG??z@YEc@E?GBs@"}, "summary": "", "warnings": ["Walking directions are in beta. Use caution \u2013 This route may be missing sidewalks or pedestrian paths."], "waypoint_order": []}, {"bounds": {"northeast": {"lat": 29.804135, "lng": -95.3584465}, "southwest": {"lat": 29.7822256, "lng": -95.45463819999999}}, "copyrights": "Map data \u00a92022", "legs": [{"arrival_time": {"text": "4:34pm", "time_zone": "America/Chicago", "value": 1642026897}, "departure_time": {"text": "3:54pm", "time_zone": "America/Chicago", "value": 1642024462}, "distance": {"text": "7.1 mi", "value": 11414}, "duration": {"text": "41 mins", "value": 2435}, "end_address": "4400 W 18th St, Houston, TX 77092, USA", "end_location": {"lat": 29.8019199, "lng": -95.45428179999999}, "start_address": "1101 Quitman St, Houston, TX 77009, USA", "start_location": {"lat": 29.7827756, "lng": -95.3584465}, "steps": [{"distance": {"text": "0.3 mi", "value": 554}, "duration": {"text": "7 mins", "value": 406}, "end_location": {"lat": 29.7854795, "lng": -95.36064999999999}, "html_instructions": "Walk to Fulton/North Central NB", "polyline": {"points": "k}wtDhu_eQ\\nAZjADLDTTz@Pt@uDvAg@Rk@PKDg@PMDUDOBOBSBU@ECCACAGAGAIAK?G?G?G?E?C@CCE?YIcBO"}, "start_location": {"lat": 29.7827756, "lng": -95.3584465}, "steps": [{"distance": {"text": "0.1 mi", "value": 164}, "duration": {"text": "2 mins", "value": 119}, "end_location": {"lat": 29.7822256, "lng": -95.35997780000001}, "html_instructions": "Head <b>southwest</b> on <b>Quitman St</b> toward <b>Tackaberry St</b>", "polyline": {"points": "k}wtDhu_eQ\\nAZjADLDTTz@Pt@"}, "start_location": {"lat": 29.7827756, "lng": -95.3584465}, "travel_mode": "WALKING"}, {"distance": {"text": "0.2 mi", "value": 261}, "duration": {"text": "3 mins", "value": 193}, "end_location": {"lat": 29.7843709, "lng": -95.3608562}, "html_instructions": "Turn <b>right</b> onto <b>Fulton St</b>", "maneuver": "turn-right", "polyline": {"points": "}ywtDz~_eQuDvAg@Rk@PKDg@PMDUDOBOBSBU@"}, "start_location": {"lat": 29.7822256, "lng": -95.35997780000001}, "travel_mode": "WALKING"}, {"distance": {"text": "157 ft", "value": 48}, "duration": {"text": "1 min", "value": 35}, "end_location": {"lat": 29.7847986, "lng": -95.3607961}, "html_instructions": "Slight <b>right</b> toward <b>Fulton St</b>", "maneuver": "turn-slight-right", "polyline": {"points": "igxtDjd`eQECCACAGAGAIAK?G?G?G?E?C@"}, "start_location": {"lat": 29.7843709, "lng": -95.3608562}, "travel_mode": "WALKING"}, {"distance": {"text": "266 ft", "value": 81}, "duration": {"text": "1 min", "value": 59}, "end_location": {"lat": 29.7854795, "lng": -95.36064999999999}, "html_instructions": "Continue onto <b>Fulton St</b><div style=\"font-size:0.9em\">Destination will be on the right</div>", "polyline": {"points": "_jxtD~c`eQCCE?YIcBO"}, "start_location": {"lat": 29.7847986, "lng": -95.3607961}, "travel_mode": "WALKING"}], "travel_mode": "WALKING"}, {"distance": {"text": "1.4 mi", "value": 2227}, "duration": {"text": "4 mins", "value": 240}, "end_location": {"lat": 29.802746, "lng": -95.36810299999999}, "html_instructions": "Light rail towards Northline TC", "polyline": {"points": "cnxtDvc`eQ@COAc@EMA{AOc@EE?o@GSCQAOASASA{AIWASAW?a@A_DAU@M@K?UCoAAM?k@?O@M@MDKDsBdA{At@]PyBfAQJKDKJKHKJKLIJYj@_@p@i@|@U\\g@x@IJc@p@QTcB|B{ArBSXMLIJOPORONeA|AiAzAKPINa@n@KPKPKNo@|@_@f@IJMNMLMJKHOFOFODOBQ@O@Q?kBAW?_@?o@?U?S@O?{AFM?W@U?M?{B?{BAQ?}BAaBAK?I@I@KBkA\\?@"}, "start_location": {"lat": 29.785456, "lng": -95.360757}, "transit_details": {"arrival_stop": {"location": {"lat": 29.802746, "lng": -95.36810299999999}, "name": "Cavalcade"}, "arrival_time": {"text": "4:06pm", "time_zone": "America/Chicago", "value": 1642025160}, "departure_stop": {"location": {"lat": 29.785456, "lng": -95.360757}, "name": "Fulton/North Central NB"}, "departure_time": {"text": "4:02pm", "time_zone": "America/Chicago", "value": 1642024920}, "headsign": "Northline TC", "line": {"agencies": [{"name": "Metropolitan Transit Authority of Harris County", "phone": "1 (713) 635-4000", "url": "http://www.ridemetro.org/"}], "color": "#e60f33", "name": "Metrorail Red Line", "short_name": "Red", "text_color": "#ffffff", "url": "https://www.ridemetro.org/Pages/RedLine.aspx", "vehicle": {"icon": "//maps.gstatic.com/mapfiles/transit/iw2/6/tram2.png", "name": "Light rail", "type": "TRAM"}}, "num_stops": 2}, "travel_mode": "TRANSIT"}, {"distance": {"text": "374 ft", "value": 114}, "duration": {"text": "2 mins", "value": 132}, "end_location": {"lat": 29.80337, "lng": -95.3681249}, "html_instructions": "Walk to Cavalcade St @ Fulton St", "polyline": {"points": "}y{tDnraeQ]JYJ]NOHE@MFMD?Q@Q?O@Q?S"}, "start_location": {"lat": 29.8027124, "lng": -95.36824179999999}, "steps": [{"distance": {"text": "253 ft", "value": 77}, "duration": {"text": "1 min", "value": 75}, "end_location": {"lat": 29.8033907, "lng": -95.3684799}, "html_instructions": "Head <b>north</b> on <b>Fulton St</b> toward <b>Cavalcade St</b>", "polyline": {"points": "}y{tDnraeQ]JYJ]NOHE@MFMD?Q"}, "start_location": {"lat": 29.8027124, "lng": -95.36824179999999}, "travel_mode": "WALKING"}, {"distance": {"text": "121 ft", "value": 37}, "duration": {"text": "1 min", "value": 57}, "end_location": {"lat": 29.80337, "lng": -95.3681249}, "html_instructions": "Turn <b>right</b> onto <b>Cavalcade St</b>", "maneuver": "turn-right", "polyline": {"points": "e~{tD~saeQ@Q?O@Q?S"}, "start_location": {"lat": 29.8033907, "lng": -95.3684799}, "travel_mode": "WALKING"}], "travel_mode": "WALKING"}, {"distance": {"text": "5.2 mi", "value": 8421}, "duration": {"text": "19 mins", "value": 1120}, "end_location": {"lat": 29.80163, "lng": -95.454342}, "html_instructions": "Bus towards Memorial City", "polyline": {"points": "a~{tDvqaeQF@AV?LANAT?RAXCR?@CXQ|@Kf@Sz@ENOr@CRE\\Cb@KfCARCpAAv@AXCf@?DAT?LAHCfAAd@?D?lB?h@?VBjC?lB?x@@z@@fB?fD@fDE`BA|@?HA\\@V?lA@L?\\?x@?V@j@@t@?L?JB`@@T@NBN@N@V?f@@f@?`A?r@?L?xBAP?JALAPANIbAEb@?TAR?V?fH?p@@vD@xAC^C^CRA@ETC\\Af@?P?P?LA`@@\\BpA?^@j@?H@tA?n@?b@@b@?X?P?V@`A?v@@dA?V?vA@T?lB@jB@tA?XB|E?~A@zB@nB?V?V@t@?L?R?L@R?N?f@?h@@|@?\\?d@?b@@n@?pA@|B?d@?`@@t@?T?pA@v@@rA?v@@bD@~@?nA@H?tB@^@dC?P?j@@x@?x@?t@@P?dA@|A?\\?^@dC@zB?xA?N@V?fA@`ABfE?tABtJ?pB@rA?r@?H?|@?jB?@?j@@h@AL?\\?J@f@?|B?h@?|@?n@?N?|G?J@tE?d@@dC?p@AL@J?V@P@H?B?D@F@HBH@JDPDLDLDHDJDJHLFHFHLL?@TVTVn@v@NRh@h@NPVX^f@BJBFBFf@v@P`@DZDVBT@F?D@F?H?P@P?X?N?F?j@@pAIpB@f@?V?fA?j@?V@h@AjA?h@@~@?b@@^Af@@d@?X?bA?jA?b@@nC?J?d@Aj@?v@?P@dB?jA?bC?`A?\\@dH?`D?dC@fE?jD?T@`F@vB?jD?vC?X?`E@V@zCAb@?fAAX@fB@fA?T@|B?l@A~A?x@?XAzB?`A?dB?l@?P?F?H@^?Z?@?H?@?Z?h@?f@?j@?^?t@@j@BnAAV@|@@fB?bBG?"}, "start_location": {"lat": 29.803368, "lng": -95.368125}, "transit_details": {"arrival_stop": {"location": {"lat": 29.80163, "lng": -95.454342}, "name": "W 18th St @ Northwest Fwy"}, "arrival_time": {"text": "4:33pm", "time_zone": "America/Chicago", "value": 1642026820}, "departure_stop": {"location": {"lat": 29.803368, "lng": -95.368125}, "name": "Cavalcade St @ Fulton St"}, "departure_time": {"text": "4:15pm", "time_zone": "America/Chicago", "value": 1642025700}, "headsign": "Memorial City", "line": {"agencies": [{"name": "Metropolitan Transit Authority of Harris County", "phone": "1 (713) 635-4000", "url": "http://www.ridemetro.org/"}], "color": "#004080", "name": "Long Point / Cavalcade", "short_name": "26", "text_color": "#ffffff", "url": "https://www.ridemetro.org/MetroPDFs/Schedules/BusSchedules/n026-Long-Point-Cavalcade.pdf", "vehicle": {"icon": "//maps.gstatic.com/mapfiles/transit/iw2/6/bus2.png", "name": "Bus", "type": "BUS"}}, "num_stops": 31, "trip_short_name": "LONGPOINT"}, "travel_mode": "TRANSIT"}, {"distance": {"text": "322 ft", "value": 98}, "duration": {"text": "1 min", "value": 77}, "end_location": {"lat": 29.8019199, "lng": -95.45428179999999}, "html_instructions": "Walk to 4400 W 18th St, Houston, TX 77092, USA", "polyline": {"points": "es{tDrlreQ?z@YEc@E?G@Q@a@"}, "start_location": {"lat": 29.8016264, "lng": -95.454342}, "steps": [{"distance": {"text": "95 ft", "value": 29}, "duration": {"text": "1 min", "value": 22}, "end_location": {"lat": 29.8016252, "lng": -95.45463819999999}, "html_instructions": "Head <b>west</b> on <b>W 18th St</b>/<wbr/><b>NW Mall</b>", "polyline": {"points": "es{tDrlreQ?z@"}, "start_location": {"lat": 29.8016264, "lng": -95.454342}, "travel_mode": "WALKING"}, {"distance": {"text": "131 ft", "value": 40}, "duration": {"text": "1 min", "value": 33}, "end_location": {"lat": 29.8019405, "lng": -95.4545788}, "html_instructions": "Turn <b>right</b><div style=\"font-size:0.9em\">Restricted usage road</div>", "maneuver": "turn-right", "polyline": {"points": "es{tDnnreQYEc@E"}, "start_location": {"lat": 29.8016252, "lng": -95.45463819999999}, "travel_mode": "WALKING"}, {"distance": {"text": "95 ft", "value": 29}, "duration": {"text": "1 min", "value": 22}, "end_location": {"lat": 29.8019199, "lng": -95.45428179999999}, "html_instructions": "Turn <b>right</b><div style=\"font-size:0.9em\">Restricted usage road</div><div style=\"font-size:0.9em\">Destination will be on the left</div>", "maneuver": "turn-right", "polyline": {"points": "cu{tDbnreQ?G@Q@a@"}, "start_location": {"lat": 29.8019405, "lng": -95.4545788}, "travel_mode": "WALKING"}], "travel_mode": "WALKING"}], "traffic_speed_entry": [], "via_waypoint": []}], "overview_polyline": {"points": "k}wtDhu_eQdA~Df@pB}EjBmBn@iAPU@ECGCe@E]?g@KcBOBTMEqD]{AMsCOeBEoE@eBEy@?]BYJgJtEu@f@WXc@v@gCfEcDpEgCfDuBrCuAlBk@~@sApBeApAYT_@N_@Ha@BuDAiB@wCHwGAuFAUDkA\\?@FZ]Jw@Zq@XBeA?SF@AVA\\Ah@IhA]dBYjASfAI`ASdHG|AGdC?tDDnJ@nG@fDE`BAfA?t@@rDBfCFrAD^BhDAlEEz@OfBAh@@hPAxBGr@GVEdAArAFzDBzGPhf@HfT`@ncAFnd@@lU@pEBv@F`@Rx@Zn@\\b@|DpE^f@BJFNf@v@P`@Jr@Fj@@fA@tCIpB@f@?~A?xDBlD@vL?rODve@BnZ@pG@rCAlCApG?lD@xC?hDDpE@jEG??z@YEc@E?GBs@"}, "summary": "", "warnings": ["Walking directions are in beta. Use caution \u2013 This route may be missing sidewalks or pedestrian paths."], "waypoint_order": []}], "status": "OK"}