{"geocoded_waypoints": [{"geocoder_status": "OK", "place_id": "ChIJOVxSQWC7QIYRk1trHTtvlCs", "types": ["establishment", "point_of_interest", "school", "secondary_school"]}, {"geocoder_status": "OK", "place_id": "ChIJ9_tphxzHQIYRIMyPy_d3VZU", "types": ["establishment", "point_of_interest"]}], "routes": [{"bounds": {"northeast": {"lat": 29.8144283, "lng": -95.24646620000001}, "southwest": {"lat": 29.7737917, "lng": -95.45463819999999}}, "copyrights": "Map data \u00a92022", "legs": [{"arrival_time": {"text": "4:34pm", "time_zone": "America/Chicago", "value": 1642026897}, "departure_time": {"text": "3:14pm", "time_zone": "America/Chicago", "value": 1642022092}, "distance": {"text": "16.8 mi", "value": 27116}, "duration": {"text": "1 hour 20 mins", "value": 4805}, "end_address": "4400 W 18th St, Houston, TX 77092, USA", "end_location": {"lat": 29.8019199, "lng": -95.45428179999999}, "start_address": "500 Mercury Dr, Houston, TX 77013, USA", "start_location": {"lat": 29.7785648, "lng": -95.2470618}, "steps": [{"distance": {"text": "0.4 mi", "value": 580}, "duration": {"text": "7 mins", "value": 428}, "end_location": {"lat": 29.7741253, "lng": -95.2464664}, "html_instructions": "Walk to East Fwy @ Mercury Dr", "polyline": {"points": "_cwtDb}idQL@j@D|ANbD\\bDLzC?LHD?@ONEPAxAGh@A~@E?s@?iAA]"}, "start_location": {"lat": 29.7785648, "lng": -95.2470618}, "steps": [{"distance": {"text": "0.2 mi", "value": 369}, "duration": {"text": "5 mins", "value": 273}, "end_location": {"lat": 29.7752745, "lng": -95.2473672}, "html_instructions": "Head <b>south</b> on <b>Mercury Dr</b> toward <b>Lafferty Oaks St</b>", "polyline": {"points": "_cwtDb}idQL@j@D|ANbD\\bDLzC?LHD?@O"}, "start_location": {"lat": 29.7785648, "lng": -95.2470618}, "travel_mode": "WALKING"}, {"distance": {"text": "433 ft", "value": 132}, "duration": {"text": "2 mins", "value": 98}, "end_location": {"lat": 29.7741191, "lng": -95.2472493}, "html_instructions": "Slight <b>left</b> to stay on <b>Mercury Dr</b>", "maneuver": "turn-slight-left", "polyline": {"points": "mnvtD`_jdQNEPAxAGh@A~@E"}, "start_location": {"lat": 29.7752745, "lng": -95.2473672}, "travel_mode": "WALKING"}, {"distance": {"text": "259 ft", "value": 79}, "duration": {"text": "1 min", "value": 57}, "end_location": {"lat": 29.7741253, "lng": -95.2464664}, "html_instructions": "Turn <b>left</b> onto <b>East Fwy</b>/<wbr/><b>E Freeway Service Rd</b>", "maneuver": "turn-left", "polyline": {"points": "ggvtDh~idQ?s@?iAA]"}, "start_location": {"lat": 29.7741191, "lng": -95.2472493}, "travel_mode": "WALKING"}], "travel_mode": "WALKING"}, {"distance": {"text": "4.3 mi", "value": 6859}, "duration": {"text": "8 mins", "value": 480}, "end_location": {"lat": 29.77535, "lng": -95.31537499999999}, "html_instructions": "Bus towards Downtown", "polyline": {"points": "ogvtDlyidQL??\\@hA?z@?Z?l@@x@?l@?j@@vABF@F@L@\\Fj@Fl@@J?J@JBP?JDl@?Z?@?`@?D?^@NBJFPAPAp@Cx@CpAGhAGjAOzBG~@QrBShCEn@]lDG|@Ix@E`@W`DAJABo@hHIz@UjC{@tJC\\EPc@bF?@Ef@Eh@A@?B?BAFC\\E^ANADc@~E_@bEa@rEMxAIp@CXC\\OxAQtBQdBSxBMnAEb@ADQxBAJM|AGf@Gp@I|@AH_@jEE\\Eh@KnAEV_@rDWrCg@dGOnCQhD?rCAh@?|@?dA?^?Z@d@?tABtC@h@@pA?`@?J@b@?@?B?b@?P?@?R@pB?X@v@?z@@pA?V?r@@`A@`@?h@@pA?dA@h@?h@?f@?h@@~@@bB?@?N@`A?JBr@?J?LBd@Dt@Dz@D^?BHp@Fn@@BBPL~@Hf@@BF^Ll@J`@\\lA?@HVDLNh@L^BHJZHTVx@bC`IBHNf@^hAfCnI@Bf@dBBHDPLb@R|@Jj@Hb@Hb@BR@HBPJl@Jl@Dl@Dn@DlBBhB?~A?lB?xD?vB?dC?bC?|@?~A?d@?B?L?N?d@?dDAzD?dC@tD?lEC~BQb@ATAXGrAE^Ep@CTAVANAZAN?@?f@?h@?p@u@@W@E?m@@G`@?A"}, "start_location": {"lat": 29.7741562, "lng": -95.2464667}, "transit_details": {"arrival_stop": {"location": {"lat": 29.77535, "lng": -95.31537499999999}, "name": "Fifth Ward/Denver Harbor Transit Center"}, "arrival_time": {"text": "3:30pm", "time_zone": "America/Chicago", "value": 1642023000}, "departure_stop": {"location": {"lat": 29.7741562, "lng": -95.2464667}, "name": "East Fwy @ Mercury Dr"}, "departure_time": {"text": "3:22pm", "time_zone": "America/Chicago", "value": 1642022520}, "headsign": "Downtown", "line": {"agencies": [{"name": "Metropolitan Transit Authority of Harris County", "phone": "1 (713) 635-4000", "url": "http://www.ridemetro.org/"}], "color": "#004080", "name": "Northshore Express", "short_name": "137", "text_color": "#ffffff", "url": "https://www.ridemetro.org/MetroPDFs/Schedules/BusSchedules/n137-Northshore-Express.pdf", "vehicle": {"icon": "//maps.gstatic.com/mapfiles/transit/iw2/6/bus2.png", "name": "Bus", "type": "BUS"}}, "num_stops": 1, "trip_short_name": "NORTHSHO"}, "travel_mode": "TRANSIT"}, {"distance": {"text": "420 ft", "value": 128}, "duration": {"text": "2 mins", "value": 103}, "end_location": {"lat": 29.7762979, "lng": -95.3152978}, "html_instructions": "Walk to Lockwood Dr @ Lyons Ave", "polyline": {"points": "}nvtDbhwdQDY@O]@{@Bc@D[Dk@F"}, "start_location": {"lat": 29.7753454, "lng": -95.31537639999999}, "steps": [{"distance": {"text": "56 ft", "value": 17}, "duration": {"text": "1 min", "value": 12}, "end_location": {"lat": 29.7753077, "lng": -95.315167}, "html_instructions": "Head <b>east</b> toward <b>Lockwood Dr</b>", "polyline": {"points": "}nvtDbhwdQDY@O"}, "start_location": {"lat": 29.7753454, "lng": -95.31537639999999}, "travel_mode": "WALKING"}, {"distance": {"text": "364 ft", "value": 111}, "duration": {"text": "2 mins", "value": 91}, "end_location": {"lat": 29.7762979, "lng": -95.3152978}, "html_instructions": "Turn <b>left</b> onto <b>Lockwood Dr</b><div style=\"font-size:0.9em\">Pass by Taco Bell (on the right in 75&nbsp;ft)</div><div style=\"font-size:0.9em\">Destination will be on the right</div>", "maneuver": "turn-left", "polyline": {"points": "unvtDxfwdQ]@{@Bc@D[Dk@F"}, "start_location": {"lat": 29.7753077, "lng": -95.315167}, "travel_mode": "WALKING"}], "travel_mode": "WALKING"}, {"distance": {"text": "3.3 mi", "value": 5378}, "duration": {"text": "11 mins", "value": 660}, "end_location": {"lat": 29.81412, "lng": -95.327876}, "html_instructions": "Bus towards Kashmere TC", "polyline": {"points": "{tvtDpgwdQ@H_@DkCf@yA\\w@Jo@B_@@O@_E@oD?O?iDDW?}D@eD@[?{@?i@Ac@?WAE?YCwBCCBA?A?A@A?C?W?iABuA?sD@S@E?M?I?A?O?M?cC?G?E?U?[?C?I@m@?wE@gA@[?G@MDoBD[@_DTI?M?S?oEBW?k@BY?C?I@K@_@BQ@S?SHKDi@VMFm@\\C?ULYLUJi@PmABS?mF@Q?s@@eB@gD@g@@Y?s@@e@?W@_@KKEaA@U?a@@k@@]?]?o@?sB?{BHGBUD}@?m@@E?c@?C?Y?U?]?W?W?a@?c@@w@?S?aIDi@@{@@i@@UGg@Aa@AQ?A?q@?k@?_@?]?QAMCQ@kA@Q?m@@Q?c@?K?W?M?U?c@?{@?kA@I?G?cB@kC@C?gA@i@?eCBmA@q@@?^BzI@~IB~I@hA@zGBbH@~G?lAi@b@u@l@y@l@OWCIAA@QDG@Aj@YFN"}, "start_location": {"lat": 29.77629899999999, "lng": -95.31528899999999}, "transit_details": {"arrival_stop": {"location": {"lat": 29.81412, "lng": -95.327876}, "name": "Kashmere Transit Center"}, "arrival_time": {"text": "3:50pm", "time_zone": "America/Chicago", "value": 1642024200}, "departure_stop": {"location": {"lat": 29.77629899999999, "lng": -95.31528899999999}, "name": "Lockwood Dr @ Lyons Ave"}, "departure_time": {"text": "3:39pm", "time_zone": "America/Chicago", "value": 1642023540}, "headsign": "Kashmere TC", "line": {"agencies": [{"name": "Metropolitan Transit Authority of Harris County", "phone": "1 (713) 635-4000", "url": "http://www.ridemetro.org/"}], "color": "#004080", "name": "MLK / Lockwood", "short_name": "80", "text_color": "#ffffff", "url": "https://www.ridemetro.org/MetroPDFs/Schedules/BusSchedules/n080-MLK-Lockwood.pdf", "vehicle": {"icon": "//maps.gstatic.com/mapfiles/transit/iw2/6/bus2.png", "name": "Bus", "type": "BUS"}}, "num_stops": 19, "trip_short_name": "MLKLOCK"}, "travel_mode": "TRANSIT"}, {"distance": {"text": "8.7 mi", "value": 14073}, "duration": {"text": "34 mins", "value": 2020}, "end_location": {"lat": 29.80163, "lng": -95.454342}, "html_instructions": "Bus towards Memorial City", "polyline": {"points": "ga~tDfvydQGOp@s@RB@@HLA\\u@l@y@l@AzAl@?DAjBAr@?vFC?L|DCdEAV?~@Av@?BAX?ZAHAJ?NCVEHAD?DAVAJA@?D?r@ErAMBAb@Cl@Ez@CN?B?L?@?fAAt@?|@AP?tHCd@AX?V?\\?zFEdA?H?z@Ah@?v@?vAAb@?t@??n@?j@@bD?p@@hA?X?x@DvCFpD?rA@zBGvAEpAGjBARC\\K`AEb@]fBKb@EPGVYdAUdAMx@W|AOjAMx@EZGd@WbBKj@Ib@EVAFIf@ADKn@Kz@In@K|@SdBK|@Gb@K~@AHW|Bc@jEo@fFWlBK|@EVSbBQpAGr@Mp@Eb@CNOrAKdBCf@?HAx@?xB@d@@j@?pA@nA?X@dB?T@fAB~D@bD@ZBbEBzB@fAGrAAXGvA@vD@xC@^@tD@x@?V?v@?l@?\\BpD@nB?fA@jA?tA?T?\\?lA@nA?tA@dA?Z@bA?pB@vDAlBAV?LANAT?RAXCR?@CXQ|@Kf@Sz@ENOr@CRE\\Cb@KfCARCpAAv@AXCf@?DAT?LAHCfAAd@?D?lB?h@?VBjC?lB?x@@z@@fB?fD@fDE`BA|@?HA\\@V?lA@L?\\?x@?V@j@@t@?L?JB`@@T@NBN@N@V?f@@f@?`A?r@?L?xBAP?JALAPANIbAEb@?TAR?V?fH?p@@vD@xAC^C^CRA@ETC\\Af@?P?P?LA`@@\\BpA?^@j@?H@tA?n@?b@@b@?X?P?V@`A?v@@dA?V?vA@T?lB@jB@tA?XB|E?~A@zB@nB?V?V@t@?L?R?L@R?N?f@?h@@|@?\\?d@?b@@n@?pA@|B?d@?`@@t@?T?pA@v@@rA?v@@bD@~@?nA@H?tB@^@dC?P?j@@x@?x@?t@@P?dA@|A?\\?^@dC@zB?xA?N@V?fA@`ABfE?tABtJ?pB@rA?r@?H?|@?jB?@?j@@h@AL?\\?J@f@?|B?h@?|@?n@?N?|G?J@tE?d@@dC?p@AL@J?V@P@H?B?D@F@HBH@JDPDLDLDHDJDJHLFHFHLL?@TVTVn@v@NRh@h@NPVX^f@BJBFBFf@v@P`@DZDVBT@F?D@F?H?P@P?X?N?F?j@@pAIpB@f@?V?fA?j@?V@h@AjA?h@@~@?b@@^Af@@d@?X?bA?jA?b@@nC?J?d@Aj@?v@?P@dB?jA?bC?`A?\\@dH?`D?dC@fE?jD?T@`F@vB?jD?vC?X?`E@V@zCAb@?fAAX@fB@fA?T@|B?l@A~A?x@?XAzB?`A?dB?l@?P?F?H@^?Z?@?H?@?Z?h@?f@?j@?^?t@@j@BnAAV@|@@fB?bBG?"}, "start_location": {"lat": 29.81412, "lng": -95.327876}, "transit_details": {"arrival_stop": {"location": {"lat": 29.80163, "lng": -95.454342}, "name": "W 18th St @ Northwest Fwy"}, "arrival_time": {"text": "4:33pm", "time_zone": "America/Chicago", "value": 1642026820}, "departure_stop": {"location": {"lat": 29.81412, "lng": -95.327876}, "name": "Kashmere Transit Center"}, "departure_time": {"text": "4:00pm", "time_zone": "America/Chicago", "value": 1642024800}, "headsign": "Memorial City", "line": {"agencies": [{"name": "Metropolitan Transit Authority of Harris County", "phone": "1 (713) 635-4000", "url": "http://www.ridemetro.org/"}], "color": "#004080", "name": "Long Point / Cavalcade", "short_name": "26", "text_color": "#ffffff", "url": "https://www.ridemetro.org/MetroPDFs/Schedules/BusSchedules/n026-Long-Point-Cavalcade.pdf", "vehicle": {"icon": "//maps.gstatic.com/mapfiles/transit/iw2/6/bus2.png", "name": "Bus", "type": "BUS"}}, "num_stops": 52, "trip_short_name": "LONGPOINT"}, "travel_mode": "TRANSIT"}, {"distance": {"text": "322 ft", "value": 98}, "duration": {"text": "1 min", "value": 77}, "end_location": {"lat": 29.8019199, "lng": -95.45428179999999}, "html_instructions": "Walk to 4400 W 18th St, Houston, TX 77092, USA", "polyline": {"points": "es{tDrlreQ?z@YEc@E?G@Q@a@"}, "start_location": {"lat": 29.8016264, "lng": -95.454342}, "steps": [{"distance": {"text": "95 ft", "value": 29}, "duration": {"text": "1 min", "value": 22}, "end_location": {"lat": 29.8016252, "lng": -95.45463819999999}, "html_instructions": "Head <b>west</b> on <b>W 18th St</b>/<wbr/><b>NW Mall</b>", "polyline": {"points": "es{tDrlreQ?z@"}, "start_location": {"lat": 29.8016264, "lng": -95.454342}, "travel_mode": "WALKING"}, {"distance": {"text": "131 ft", "value": 40}, "duration": {"text": "1 min", "value": 33}, "end_location": {"lat": 29.8019405, "lng": -95.4545788}, "html_instructions": "Turn <b>right</b><div style=\"font-size:0.9em\">Restricted usage road</div>", "maneuver": "turn-right", "polyline": {"points": "es{tDnnreQYEc@E"}, "start_location": {"lat": 29.8016252, "lng": -95.45463819999999}, "travel_mode": "WALKING"}, {"distance": {"text": "95 ft", "value": 29}, "duration": {"text": "1 min", "value": 22}, "end_location": {"lat": 29.8019199, "lng": -95.45428179999999}, "html_instructions": "Turn <b>right</b><div style=\"font-size:0.9em\">Restricted usage road</div><div style=\"font-size:0.9em\">Destination will be on the left</div>", "maneuver": "turn-right", "polyline": {"points": "cu{tDbnreQ?G@Q@a@"}, "start_location": {"lat": 29.8019405, "lng": -95.4545788}, "travel_mode": "WALKING"}], "travel_mode": "WALKING"}], "traffic_speed_entry": [], "via_waypoint": []}], "overview_polyline": {"points": "_cwtDb}idQzHt@bDLzC?RH@ONEjBIhBG?}BA]E?L??\\@dC?hABjFDNBj@PpBJvA?dA@n@J\\KnEOtCWzDiAzMo@zH}@tJqA`OIn@o@vHCPsBjUgBrRgAvLq@pHw@dI_AxKa@xHA`IHjND`KL~WDlCNdDVdC\\|Bb@rBl@tBvEjOxDdM~@dDr@pDT|APzAJ|CBhE?fH?~L?vCAvKAhSQb@ATIlBQ~BE|@?pA?p@u@@]@m@@G`@Fi@yAD_AJk@D@H_@DeFdAgBN_LDoKFgH?{AEwBCCBC?_@@gJF}@?_G@cIDMDoBD{DV{FBaBBgAHS?SHu@\\uAr@o@Xi@PmABaG@eA@oIDyA@W@_@KKEaA@w@@wC@sB?{BH]HuC@qA?mPHeBBUGg@As@As@?kA?o@A}B?oE@uMFoHFHz`@FhS@lJ_BpAy@l@OWEK@QDGl@[FNGOp@s@RBJNA\\u@l@y@l@AzAr@A~CAvFC?LbKEvAApBCTAf@Il@ERAnDY|BIxPI`OGrDAt@??n@@nE@nELhI@nEWhHO~AEb@]fBQt@a@|Ac@~Bg@hDs@~E[fBYdBu@nGa@jD{@hIgAtIw@jG_@xCOrAKdBCp@ArDBpAB`HF`MJbLIlBGvA@vDBxDBnF?zCFlSBfG@tD?dHEjAEbAUvA_@bBUbAIp@OjDEdBG~BGtBAbEH~XIfEBpCBrDDpAFn@BfB?|FE|@QlCAdKBpGG~@OhAAxABpDDnHPhf@Xnt@Lv]Ht]@bH@dX?jFD~@BZPt@Vn@f@n@dDxDv@`AFRj@~@V|@Jz@Bt@?|A@pAIpB@~@@tDAtB@bB@fC@bI?|MBv`@BxI?bIBnKAlFBhGCnH?fF@vBBfJBdD?bBG??z@}@KB{@"}, "summary": "", "warnings": ["Walking directions are in beta. Use caution \u2013 This route may be missing sidewalks or pedestrian paths."], "waypoint_order": []}, {"bounds": {"northeast": {"lat": 29.8026498, "lng": -95.24646620000001}, "southwest": {"lat": 29.7496902, "lng": -95.4593211}}, "copyrights": "Map data \u00a92022", "legs": [{"arrival_time": {"text": "4:49pm", "time_zone": "America/Chicago", "value": 1642027775}, "departure_time": {"text": "3:14pm", "time_zone": "America/Chicago", "value": 1642022092}, "distance": {"text": "18.6 mi", "value": 29973}, "duration": {"text": "1 hour 35 mins", "value": 5683}, "end_address": "4400 W 18th St, Houston, TX 77092, USA", "end_location": {"lat": 29.8019199, "lng": -95.45428179999999}, "start_address": "500 Mercury Dr, Houston, TX 77013, USA", "start_location": {"lat": 29.7785648, "lng": -95.2470618}, "steps": [{"distance": {"text": "0.4 mi", "value": 580}, "duration": {"text": "7 mins", "value": 428}, "end_location": {"lat": 29.7741253, "lng": -95.2464664}, "html_instructions": "Walk to East Fwy @ Mercury Dr", "polyline": {"points": "_cwtDb}idQL@j@D|ANbD\\bDLzC?LHD?@ONEPAxAGh@A~@E?s@?iAA]"}, "start_location": {"lat": 29.7785648, "lng": -95.2470618}, "steps": [{"distance": {"text": "0.2 mi", "value": 369}, "duration": {"text": "5 mins", "value": 273}, "end_location": {"lat": 29.7752745, "lng": -95.2473672}, "html_instructions": "Head <b>south</b> on <b>Mercury Dr</b> toward <b>Lafferty Oaks St</b>", "polyline": {"points": "_cwtDb}idQL@j@D|ANbD\\bDLzC?LHD?@O"}, "start_location": {"lat": 29.7785648, "lng": -95.2470618}, "travel_mode": "WALKING"}, {"distance": {"text": "433 ft", "value": 132}, "duration": {"text": "2 mins", "value": 98}, "end_location": {"lat": 29.7741191, "lng": -95.2472493}, "html_instructions": "Slight <b>left</b> to stay on <b>Mercury Dr</b>", "maneuver": "turn-slight-left", "polyline": {"points": "mnvtD`_jdQNEPAxAGh@A~@E"}, "start_location": {"lat": 29.7752745, "lng": -95.2473672}, "travel_mode": "WALKING"}, {"distance": {"text": "259 ft", "value": 79}, "duration": {"text": "1 min", "value": 57}, "end_location": {"lat": 29.7741253, "lng": -95.2464664}, "html_instructions": "Turn <b>left</b> onto <b>East Fwy</b>/<wbr/><b>E Freeway Service Rd</b>", "maneuver": "turn-left", "polyline": {"points": "ggvtDh~idQ?s@?iAA]"}, "start_location": {"lat": 29.7741191, "lng": -95.2472493}, "travel_mode": "WALKING"}], "travel_mode": "WALKING"}, {"distance": {"text": "8.7 mi", "value": 13924}, "duration": {"text": "25 mins", "value": 1474}, "end_location": {"lat": 29.750178, "lng": -95.370002}, "html_instructions": "Bus towards Downtown", "polyline": {"points": "ogvtDlyidQL??\\@hA?z@?Z?l@@x@?l@?j@@vABF@F@L@\\Fj@Fl@@J?J@JBP?JDl@?Z?@?`@?D?^@NBJFPAPAp@Cx@CpAGhAGjAOzBG~@QrBShCEn@]lDG|@Ix@E`@W`DAJABo@hHIz@UjC{@tJC\\EPc@bF?@Ef@Eh@A@?B?BAFC\\E^ANADc@~E_@bEa@rEMxAIp@CXC\\OxAQtBQdBSxBMnAEb@ADQxBAJM|AGf@Gp@I|@AH_@jEE\\Eh@KnAEV_@rDWrCg@dGOnCQhD?rCAh@?|@?dA?^?Z@d@?tABtC@h@@pA?`@?J@b@?@?B?b@?P?@?R@pB?X@v@?z@@pA?V?r@@`A@`@?h@@pA?dA@h@?h@?f@?h@@~@@bB?@?N@`A?JBr@?J?LBd@Dt@Dz@D^?BHp@Fn@@BBPL~@Hf@@BF^Ll@J`@\\lA?@HVDLNh@L^BHJZHTVx@bC`IBHNf@^hAfCnI@Bf@dBBHDPLb@R|@Jj@Hb@Hb@BR@HBPJl@Jl@Dl@Dn@DlBBhB?~A?lB?xD?vB?dC?bC?|@?~A?d@?B?L?N?d@?dDAzD?dC@tD?lEC~BQb@ATAXGrAE^Ep@CTAVANAZAN?@?f@?h@?p@u@@W@E?m@@G`@Kr@XAP?T?PA`A?@n@?n@?jAAzA?V?d@?p@?LHB?NB^@P?N?T@T?r@?bA?L@\\?N@~@?B@V?j@@J?P?H@b@?B@Z@H?T?T@z@@T?D@DPb@@f@@`@@ZB`@B\\Fp@B^F^Jr@F\\Nz@Nv@Lh@T~@Pp@FTFTLd@Tt@~@bDFRFRJ\\BD@FDLBJBJ@Db@vAV|@T`A`@rAb@`BNf@@JjA|DhBpGHXDPN^J\\Jh@j@pBj@jB^tAV`Aj@nB^tAFLFRPl@DPDLHZFVH\\FXDXAD@JDXJxAFpABpA?FBrCDH@D@F@F@H?R?Z?^?f@@h@?f@?j@@Z?H?^AP?Z@j@?N?XBx@@^Dv@@T@DAH@VBr@BZDd@H|@DVFd@Lr@Jn@Pt@VhA@B\\tARv@Vx@Rp@Ph@FTd@rAj@dBBFN^Pd@P`@HPJPR\\NVLTR^TZ^f@j@n@f@f@b@\\b@\\JFl@`@B@@@^RPLVNF@TLNFb@Pb@LPH\\H@@D@VFtAV|ARRJt@Ld@JXDB@`AP@?`@F@?^HD@h@Hf@HPBf@BJBv@R@?RFJD@?^N?@RHLHf@Zb@f@x@n@\\VXRfAt@PLJFn@b@hAz@h@^^Zm@nAc@z@S`@y@`B]n@GLCFw@zAQ^KPO\\U`@KPSb@OVYj@KRo@nAs@tAw@zAGJ[l@EJGHcBnDOXs@tACH]l@vB~AVRJHbAt@dAx@~B`B\\XfCjBRNFDlBvAZRvCxBRLjBrARNxCvBrB|AZT`At@@@JFdAv@lBtAJFZVn@d@bBnAzBdBXTtCrBhAz@p@d@VRx@l@~AhAi@`AU`@CDOZMK"}, "start_location": {"lat": 29.7741562, "lng": -95.2464667}, "transit_details": {"arrival_stop": {"location": {"lat": 29.750178, "lng": -95.370002}, "name": "St Joseph Pkwy @ Main St"}, "arrival_time": {"text": "3:46pm", "time_zone": "America/Chicago", "value": 1642023994}, "departure_stop": {"location": {"lat": 29.7741562, "lng": -95.2464667}, "name": "East Fwy @ Mercury Dr"}, "departure_time": {"text": "3:22pm", "time_zone": "America/Chicago", "value": 1642022520}, "headsign": "Downtown", "line": {"agencies": [{"name": "Metropolitan Transit Authority of Harris County", "phone": "1 (713) 635-4000", "url": "http://www.ridemetro.org/"}], "color": "#004080", "name": "Northshore Express", "short_name": "137", "text_color": "#ffffff", "url": "https://www.ridemetro.org/MetroPDFs/Schedules/BusSchedules/n137-Northshore-Express.pdf", "vehicle": {"icon": "//maps.gstatic.com/mapfiles/transit/iw2/6/bus2.png", "name": "Bus", "type": "BUS"}}, "num_stops": 14, "trip_short_name": "NORTHSHO"}, "travel_mode": "TRANSIT"}, {"distance": {"text": "9.2 mi", "value": 14731}, "duration": {"text": "36 mins", "value": 2148}, "end_location": {"lat": 29.801027, "lng": -95.45922999999999}, "html_instructions": "Bus towards Greenspoint TC", "polyline": {"points": "sqqtDn}aeQLJQZCDEJCDCFk@lAMXMRU`@]p@OXOVg@bA}@dBOXYh@wCuBu@i@a@[g@]UQ_@W]WwAeAEEuB}AWSwAeAy@m@gAy@g@_@KGWOi@c@[WIEg@_@_@W_CeBUOwAgA}@q@]Wm@c@e@]MISMmCsBGC{BcBQMCCi@_@QMUQkA{@aCiB[UqCqBAAqCqBa@v@k@dAINIJGHA@A@GJGDC@C@C@E?M?C?Q?M?ICIEAAEGC\\SdBGd@E^O`A?BM|@M|@EZOjAALGX?@?@CJALGl@?@A@?BAHAJAHShAETCJEPCHCLGVWdAKXQh@O`@GTGLS^IPS\\AB}@~AGFADABMv@EV?@OfAOnAEXAPGd@Gn@?XGrACb@Cr@Ev@ALEp@AVEv@ALGrAEt@G~@?BGdAATGlACj@ItACb@AT?TAFG`AATCb@GzAGtAMfCANGfA?DKtBAHMfCEbAANALCr@AVAr@Al@?d@CrAAx@Cx@?NCzBAJAz@Cv@GnAQvCEz@EbAM~B?HAp@C|@GjCCj@MtFGHAB?BALCb@Af@?R?TA`@A`@ARGt@AVGp@AXGz@KtBCZ?B?@@D?B@D@FGlACd@A`@GtACZA\\KfBG|@Ez@C`@C\\A`@El@El@Cb@CZCf@Cd@AREp@APIzACXANATALANAHC\\AZATC\\A`@IbBEp@ALCp@GfAG~@G~@Cj@AXCVAL?BCd@AL?NCl@Cd@El@Ab@Ev@ANMxCCXAXAXQtCCl@?z@@dA?|A@d@?~B@d@?N?zA?P?N@d@?b@?X?\\?^?X?N?j@?b@@`@?t@@j@?j@?N@`@?z@@dC?V@h@?RARAr@AJ?NAP?RCZAV?FCxA?XExACpAClACnAAj@CvAC|@?NA`@Ab@GxAAVIhAI|BEf@KnDEv@Cv@EpAGlACz@?DA`@APCvAAPCDABCHC`AAPAF@JC@A@A@A@A@A@?@CBc@FKDG@C?IBC@C@C@C@A@EBMLwAlAc@\\sAhA_Av@MJa@^sBbB_Av@QLq@h@IHKHOLw@p@w@n@]Z_@ZSPGFIFaAz@EBe@b@QRUVY\\q@~@s@`AOPGF?@o@v@?@CB}@hAQPKNYd@c@|@ILg@bAU`@IPA@S`@g@bAw@zAq@rA}AxCkA|Bc@v@IPYh@Uf@IP?`@?DCHI\\I`@I`@CVATARA^?\\Ar@?^@`@@@?b@?@@^@hB?f@?XCjA?D?XCXCZEVId@Ot@Ot@GVUfAAD{@`E?@Mj@?@K^[|AMn@Sx@On@I`@I^[xAGZMn@Mh@Kf@Qx@Qr@_@rBg@`DKl@Gd@CXMdA?BALGj@CXCVCXE`@IfAMzBE|AAr@AXC?Ar@CbDAjCCpF@l@@v@AzG~@@X?V?Z^?r@Ap@?bAAtA?R?d@?XEAw@B?u@@S?_@AcA@cA@w@@k@ZA^@DA`AAN??H?P?f@?j@?l@?d@JCF@D?DABA@CDIDSB[@g@BUBM@AN]FGJY@K?MCUCKCCA?OGQAGAE?E@GDQJOPMD[BY@W?aAAY@c@?AVAzAAb@?f@?L?ZAn@?`B?R?f@sBNO@Q@Y?W?K@wA@y@@K?u@?wA@U?O?}@@I?Y?_@?_@@oA@oD@eABM?A?a@?c@?qA@W?w@?cA@s@?c@@_@?uA@a@?OAY?q@@c@?_@?[@cA@a@?U?G?C?E?]@S?S@]@c@?}@@M?w@@]?mA@_B@W?E?e@Aa@EQEWG[OUM[QIG_@Ui@i@e@_@OQQQOMCCc@a@MR{A|BU\\W`@sBtCg@z@a@L{@vA]b@Sd@w@lAYh@OQ"}, "start_location": {"lat": 29.750178, "lng": -95.370002}, "transit_details": {"arrival_stop": {"location": {"lat": 29.801027, "lng": -95.45922999999999}, "name": "Hempstead Rd @ W 18th St"}, "arrival_time": {"text": "4:39pm", "time_zone": "America/Chicago", "value": 1642027188}, "departure_stop": {"location": {"lat": 29.750178, "lng": -95.370002}, "name": "St Joseph Pkwy @ Main St"}, "departure_time": {"text": "4:04pm", "time_zone": "America/Chicago", "value": 1642025040}, "headsign": "Greenspoint TC", "line": {"agencies": [{"name": "Metropolitan Transit Authority of Harris County", "phone": "1 (713) 635-4000", "url": "http://www.ridemetro.org/"}], "color": "#004080", "name": "Antoine / Washington", "short_name": "85", "text_color": "#ffffff", "url": "https://www.ridemetro.org/MetroPDFs/Schedules/BusSchedules/n085-Antoine-Washington.pdf", "vehicle": {"icon": "//maps.gstatic.com/mapfiles/transit/iw2/6/bus2.png", "name": "Bus", "type": "BUS"}}, "num_stops": 51, "trip_short_name": "ANTOINWAS"}, "travel_mode": "TRANSIT"}, {"distance": {"text": "0.5 mi", "value": 738}, "duration": {"text": "10 mins", "value": 587}, "end_location": {"lat": 29.8019199, "lng": -95.45428179999999}, "html_instructions": "Walk to 4400 W 18th St, Houston, TX 77092, USA", "polyline": {"points": "mo{tDdkseQKPKKKAK?I@IB?Q?aA?M?QAO?OM?M@M?mED@[Ae@?g@ASDKP]d@}@Xq@B]QOIIOMEKKAQUGGEIAE?C?A@C@EBEV_@KMNWHMJSRa@Ts@R}@Jy@Hy@?G@Q@a@"}, "start_location": {"lat": 29.8010254, "lng": -95.4592253}, "steps": [{"distance": {"text": "49 ft", "value": 15}, "duration": {"text": "1 min", "value": 11}, "end_location": {"lat": 29.8011512, "lng": -95.4592626}, "html_instructions": "Head <b>northwest</b>", "polyline": {"points": "mo{tDdkseQKPKK"}, "start_location": {"lat": 29.8010254, "lng": -95.4592253}, "travel_mode": "WALKING"}, {"distance": {"text": "102 ft", "value": 31}, "duration": {"text": "1 min", "value": 23}, "end_location": {"lat": 29.8013705, "lng": -95.4592806}, "html_instructions": "Turn <b>right</b> toward <b>W 18th St</b>", "maneuver": "turn-right", "polyline": {"points": "ep{tDjkseQKAK?I@IB"}, "start_location": {"lat": 29.8011512, "lng": -95.4592626}, "travel_mode": "WALKING"}, {"distance": {"text": "240 ft", "value": 73}, "duration": {"text": "1 min", "value": 61}, "end_location": {"lat": 29.8014508, "lng": -95.4585436}, "html_instructions": "Turn <b>right</b> onto <b>W 18th St</b>", "maneuver": "turn-right", "polyline": {"points": "qq{tDnkseQ?Q?aA?M?QAO?OM?"}, "start_location": {"lat": 29.8013705, "lng": -95.4592806}, "travel_mode": "WALKING"}, {"distance": {"text": "440 ft", "value": 134}, "duration": {"text": "2 mins", "value": 127}, "end_location": {"lat": 29.80261729999999, "lng": -95.45858140000001}, "html_instructions": "Turn <b>left</b> onto <b>Mangum Rd</b>", "maneuver": "turn-left", "polyline": {"points": "ar{tDzfseQM@M?mED"}, "start_location": {"lat": 29.8014508, "lng": -95.4585436}, "travel_mode": "WALKING"}, {"distance": {"text": "0.1 mi", "value": 168}, "duration": {"text": "2 mins", "value": 133}, "end_location": {"lat": 29.8021725, "lng": -95.45703209999999}, "html_instructions": "Turn <b>right</b>", "maneuver": "turn-right", "polyline": {"points": "ky{tDbgseQ@[Ae@?g@ASDKP]d@}@Xq@B]"}, "start_location": {"lat": 29.80261729999999, "lng": -95.45858140000001}, "travel_mode": "WALKING"}, {"distance": {"text": "348 ft", "value": 106}, "duration": {"text": "1 min", "value": 80}, "end_location": {"lat": 29.8024852, "lng": -95.4562641}, "html_instructions": "Turn <b>left</b><div style=\"font-size:0.9em\">Partial restricted usage road</div>", "maneuver": "turn-left", "polyline": {"points": "qv{tDl}reQQOIIOMEKKAQUGGEIAE?C?A@C@EBEV_@"}, "start_location": {"lat": 29.8021725, "lng": -95.45703209999999}, "travel_mode": "WALKING"}, {"distance": {"text": "33 ft", "value": 10}, "duration": {"text": "1 min", "value": 8}, "end_location": {"lat": 29.8025494, "lng": -95.456192}, "html_instructions": "Turn <b>left</b><div style=\"font-size:0.9em\">Restricted usage road</div>", "maneuver": "turn-left", "polyline": {"points": "qx{tDrxreQKM"}, "start_location": {"lat": 29.8024852, "lng": -95.4562641}, "travel_mode": "WALKING"}, {"distance": {"text": "0.1 mi", "value": 201}, "duration": {"text": "2 mins", "value": 144}, "end_location": {"lat": 29.8019199, "lng": -95.45428179999999}, "html_instructions": "Turn <b>right</b><div style=\"font-size:0.9em\">Restricted usage road</div><div style=\"font-size:0.9em\">Destination will be on the left</div>", "maneuver": "turn-right", "polyline": {"points": "}x{tDdxreQNWHMJSRa@Ts@R}@Jy@Hy@?G@Q@a@"}, "start_location": {"lat": 29.8025494, "lng": -95.456192}, "travel_mode": "WALKING"}], "travel_mode": "WALKING"}], "traffic_speed_entry": [], "via_waypoint": []}], "overview_polyline": {"points": "_cwtDb}idQzHt@bDLzC?RH@ONEjBIhBG?}BA]E?L??\\@dC?hABjFDNBj@PpBJvA?dA@n@J\\KnEOtCWzDiAzMo@zH}@tJqA`OIn@o@vHCPsBjUgBrRgAvLq@pHw@dI_AxKa@xHA`IHjND`KL~WDlCNdDVdC\\|Bb@rBl@tBvEjOxDdM~@dDr@pDT|APzAJ|CBhE?fH?~L?vCAvKAhSQb@ATIlBQ~BE|@?pA?p@u@@]@m@@G`@Kr@XAf@?rAA@~AAdF?~@HB?NDp@?N@bDBzBDvCHnDPb@@f@B|@RpCj@lDdArEnCpJpAnEjB~G`EtNTp@VfAnCtJzAfFf@hB^hBPdCJbDBzCJ^B~F@hERbGXvCTxA\\dBjAzEdAjDdB`Fx@jBdAjBt@bArAvAfAz@x@h@v@d@dAf@vBr@tBb@|ARRJzAX`BXhARpARx@FxA^l@V`@Rf@Zb@f@vAfA`BhAvCtBhAz@qAjCsB`E_DjGuFrKaC~Ew@~A]l@vB~Ab@\\hCnBxHvFhHjFlHhF~KhIjHrFjHjFpA`A~AhAi@`AYf@OZMKLJQZIPaAtBwE|IYh@wCuBwAeA{B_BeMkJcFqDcX}R_GmEsCsBqCqBa@v@u@tAQTSTQDq@?SIGIe@hEkApIMlACN]tBQt@_@|A]bAWv@[l@}ArCILOz@e@pDOpAGn@?XKvBQjDQpDm@dL]nH{@bQMtCE~CUrMe@fJMhCEnBKvDMtFGHAFEp@CrBMbC]|FAf@@HEtAQxDk@nK_@rG{@hPc@vH[`HU|ESnDCl@?z@@bD@dD@bD@zEDpHBbGEfBKdF[zOMvDSfEQvEWnGGtBEhBEHKdBALCBEF{@RUFOH}EbEcFfEmCxBeFjEwBjBg@j@kA|AkA|As@|@oAzAe@t@kBpD{I`Q}AzCIP?`@CNS~@Mx@EfBDfHCrCCr@Ir@q@hDsApGqBfJyBdKgAtGSrASpBSvBOhBSxEClAC?Ar@EnHA~G?rIxA@V?Z^AdBArE?XEAw@B?u@@s@?gCBcBz@?fACN??H?x@?xA?d@JCL@HCFMHo@D}@DOVe@Le@Cc@GOQGYCK@YPOPMDu@DyAA}@@CrBAtBAlEoDRuDDaHBwLHaKDaD?qCB_EBeIHcD?s@Ks@W{A}@qBmBSQc@a@MRqBzCkCvDg@z@a@L{@vA]b@Sd@w@lAYh@OQKPKKKAU@IB?Q?oAAa@?OM?[@mED@[AmAB_@v@{AXq@B][YUYKAQUMQAIFQV_@KMXe@^u@Ts@^wBHaABs@"}, "summary": "", "warnings": ["Walking directions are in beta. Use caution \u2013 This route may be missing sidewalks or pedestrian paths."], "waypoint_order": []}, {"bounds": {"northeast": {"lat": 29.804029, "lng": -95.24646620000001}, "southwest": {"lat": 29.755077, "lng": -95.45463819999999}}, "copyrights": "Map data \u00a92022", "legs": [{"arrival_time": {"text": "4:34pm", "time_zone": "America/Chicago", "value": 1642026897}, "departure_time": {"text": "3:14pm", "time_zone": "America/Chicago", "value": 1642022092}, "distance": {"text": "17.5 mi", "value": 28147}, "duration": {"text": "1 hour 20 mins", "value": 4805}, "end_address": "4400 W 18th St, Houston, TX 77092, USA", "end_location": {"lat": 29.8019199, "lng": -95.45428179999999}, "start_address": "500 Mercury Dr, Houston, TX 77013, USA", "start_location": {"lat": 29.7785648, "lng": -95.2470618}, "steps": [{"distance": {"text": "0.4 mi", "value": 580}, "duration": {"text": "7 mins", "value": 428}, "end_location": {"lat": 29.7741253, "lng": -95.2464664}, "html_instructions": "Walk to East Fwy @ Mercury Dr", "polyline": {"points": "_cwtDb}idQL@j@D|ANbD\\bDLzC?LHD?@ONEPAxAGh@A~@E?s@?iAA]"}, "start_location": {"lat": 29.7785648, "lng": -95.2470618}, "steps": [{"distance": {"text": "0.2 mi", "value": 369}, "duration": {"text": "5 mins", "value": 273}, "end_location": {"lat": 29.7752745, "lng": -95.2473672}, "html_instructions": "Head <b>south</b> on <b>Mercury Dr</b> toward <b>Lafferty Oaks St</b>", "polyline": {"points": "_cwtDb}idQL@j@D|ANbD\\bDLzC?LHD?@O"}, "start_location": {"lat": 29.7785648, "lng": -95.2470618}, "travel_mode": "WALKING"}, {"distance": {"text": "433 ft", "value": 132}, "duration": {"text": "2 mins", "value": 98}, "end_location": {"lat": 29.7741191, "lng": -95.2472493}, "html_instructions": "Slight <b>left</b> to stay on <b>Mercury Dr</b>", "maneuver": "turn-slight-left", "polyline": {"points": "mnvtD`_jdQNEPAxAGh@A~@E"}, "start_location": {"lat": 29.7752745, "lng": -95.2473672}, "travel_mode": "WALKING"}, {"distance": {"text": "259 ft", "value": 79}, "duration": {"text": "1 min", "value": 57}, "end_location": {"lat": 29.7741253, "lng": -95.2464664}, "html_instructions": "Turn <b>left</b> onto <b>East Fwy</b>/<wbr/><b>E Freeway Service Rd</b>", "maneuver": "turn-left", "polyline": {"points": "ggvtDh~idQ?s@?iAA]"}, "start_location": {"lat": 29.7741191, "lng": -95.2472493}, "travel_mode": "WALKING"}], "travel_mode": "WALKING"}, {"distance": {"text": "8.2 mi", "value": 13120}, "duration": {"text": "23 mins", "value": 1380}, "end_location": {"lat": 29.7551357, "lng": -95.3652108}, "html_instructions": "Bus towards Downtown", "polyline": {"points": "ogvtDlyidQL??\\@hA?z@?Z?l@@x@?l@?j@@vABF@F@L@\\Fj@Fl@@J?J@JBP?JDl@?Z?@?`@?D?^@NBJFPAPAp@Cx@CpAGhAGjAOzBG~@QrBShCEn@]lDG|@Ix@E`@W`DAJABo@hHIz@UjC{@tJC\\EPc@bF?@Ef@Eh@A@?B?BAFC\\E^ANADc@~E_@bEa@rEMxAIp@CXC\\OxAQtBQdBSxBMnAEb@ADQxBAJM|AGf@Gp@I|@AH_@jEE\\Eh@KnAEV_@rDWrCg@dGOnCQhD?rCAh@?|@?dA?^?Z@d@?tABtC@h@@pA?`@?J@b@?@?B?b@?P?@?R@pB?X@v@?z@@pA?V?r@@`A@`@?h@@pA?dA@h@?h@?f@?h@@~@@bB?@?N@`A?JBr@?J?LBd@Dt@Dz@D^?BHp@Fn@@BBPL~@Hf@@BF^Ll@J`@\\lA?@HVDLNh@L^BHJZHTVx@bC`IBHNf@^hAfCnI@Bf@dBBHDPLb@R|@Jj@Hb@Hb@BR@HBPJl@Jl@Dl@Dn@DlBBhB?~A?lB?xD?vB?dC?bC?|@?~A?d@?B?L?N?d@?dDAzD?dC@tD?lEC~BQb@ATAXGrAE^Ep@CTAVANAZAN?@?f@?h@?p@u@@W@E?m@@G`@Kr@XAP?T?PA`A?@n@?n@?jAAzA?V?d@?p@?LHB?NB^@P?N?T@T?r@?bA?L@\\?N@~@?B@V?j@@J?P?H@b@?B@Z@H?T?T@z@@T?D@DPb@@f@@`@@ZB`@B\\Fp@B^F^Jr@F\\Nz@Nv@Lh@T~@Pp@FTFTLd@Tt@~@bDFRFRJ\\BD@FDLBJBJ@Db@vAV|@T`A`@rAb@`BNf@@JjA|DhBpGHXDPN^J\\Jh@j@pBj@jB^tAV`Aj@nB^tAFLFRPl@DPDLHZFVH\\FXDXAD@JDXJxAFpABpA?FBrCDH@D@F@F@H?R?Z?^?f@@h@?f@?j@@Z?H?^AP?Z@j@?N?XBx@@^Dv@@T@DAH@VBr@BZDd@H|@DVFd@Lr@Jn@Pt@VhA@B\\tARv@Vx@Rp@Ph@FTd@rAj@dBBFN^Pd@P`@HPJPR\\NVLTR^TZ^f@j@n@f@f@b@\\b@\\JFl@`@B@@@^RPLVNF@TLNFb@Pb@LPH\\H@@D@VFtAV|ARRJt@Ld@JXDB@`AP@?`@F@?^HD@h@Hf@HPBf@BJBv@R@?RFJD@?^N?@RHLHf@Zb@f@x@n@\\VXRfAt@PLJFn@b@hAz@h@^^Zm@nAc@z@S`@y@`B]n@GLCFw@zAQ^KPO\\U`@KPSb@OVYj@KRo@nAs@tAw@zAGJ[l@EJGHcBnDOXs@tACH]l@vB~AVRJHbAt@dAx@~B`B\\XfCjBRNFDlBvAZRvCxBRLjBrARNxCvBrB|AKR"}, "start_location": {"lat": 29.7741562, "lng": -95.2464667}, "transit_details": {"arrival_stop": {"location": {"lat": 29.7551357, "lng": -95.3652108}, "name": "Fannin St @ Dallas St"}, "arrival_time": {"text": "3:45pm", "time_zone": "America/Chicago", "value": 1642023900}, "departure_stop": {"location": {"lat": 29.7741562, "lng": -95.2464667}, "name": "East Fwy @ Mercury Dr"}, "departure_time": {"text": "3:22pm", "time_zone": "America/Chicago", "value": 1642022520}, "headsign": "Downtown", "line": {"agencies": [{"name": "Metropolitan Transit Authority of Harris County", "phone": "1 (713) 635-4000", "url": "http://www.ridemetro.org/"}], "color": "#004080", "name": "Northshore Express", "short_name": "137", "text_color": "#ffffff", "url": "https://www.ridemetro.org/MetroPDFs/Schedules/BusSchedules/n137-Northshore-Express.pdf", "vehicle": {"icon": "//maps.gstatic.com/mapfiles/transit/iw2/6/bus2.png", "name": "Bus", "type": "BUS"}}, "num_stops": 10, "trip_short_name": "NORTHSHO"}, "travel_mode": "TRANSIT"}, {"distance": {"text": "0.1 mi", "value": 165}, "duration": {"text": "2 mins", "value": 121}, "end_location": {"lat": 29.7561365, "lng": -95.36533639999999}, "html_instructions": "Walk to Lamar St @ Main St", "polyline": {"points": "kprtDd_aeQmByAKIMTgArB"}, "start_location": {"lat": 29.7550966, "lng": -95.3651496}, "steps": [{"distance": {"text": "262 ft", "value": 80}, "duration": {"text": "1 min", "value": 57}, "end_location": {"lat": 29.7557126, "lng": -95.36465249999999}, "html_instructions": "Head <b>northeast</b> on <b>Fannin St</b> toward <b>Lamar St</b>", "polyline": {"points": "kprtDd_aeQmByAKI"}, "start_location": {"lat": 29.7550966, "lng": -95.3651496}, "travel_mode": "WALKING"}, {"distance": {"text": "279 ft", "value": 85}, "duration": {"text": "1 min", "value": 64}, "end_location": {"lat": 29.7561365, "lng": -95.36533639999999}, "html_instructions": "Turn <b>left</b> onto <b>Lamar St</b><div style=\"font-size:0.9em\">Destination will be on the right</div>", "maneuver": "turn-left", "polyline": {"points": "etrtD`|`eQMTgArB"}, "start_location": {"lat": 29.7557126, "lng": -95.36465249999999}, "travel_mode": "WALKING"}], "travel_mode": "WALKING"}, {"distance": {"text": "5.4 mi", "value": 8742}, "duration": {"text": "23 mins", "value": 1380}, "end_location": {"lat": 29.804029, "lng": -95.398901}, "html_instructions": "Bus towards N Shepherd P&R", "polyline": {"points": "awrtDd`aeQJHMTADABCFA@OVwAnCuAnCMT_@x@gAtB]p@{@bB?@KViBdDIRMTkA|BdAz@t@f@RNbBnAj@r@Lj@BvA?TBVGT?b@?bBB|A@n@?L?B?@?f@?B?Z?@?F@b@?B?DAX@l@@T?\\@nA?h@?h@A|A@V?\\?nA?f@@d@AJAL?HCJGTEREp@C`@ANAd@?@?h@?nA@tA?R@dB?F@v@?H?T?JBt@BTDRLp@D^Dn@?b@@tA?`@@x@?h@@d@?X@`AB|C?v@@n@@R?H?P@p@?~@@dA@h@?rA@F?^@rA@f@@|B?lA?p@@P?LB|D@`C@lB@P?@?F@\\?Z?dA@fA@vABjB@dA?`@?^@T?hB@p@@|B@^B|C@rA?R?V?r@_B@{ABk@@uA@yAAa@A{A?O?aC?Y?O?I?Y@[@A?G@E?G@UBMDMFOF}@^_A^QHSH]NQFC@MBEB[DWDW@Y@m@Em@GMCIACAOCEAMCe@QSISIUM_@Q[KGEWMCAUMCCAAWQ[UECSOYUOKGG[WSKSIYMKCKEqCm@c@E_ABq@@yB@O?k@Bc@BQJO@Q@MBWNB[y@?c@?[?o@?oA@qA@S?O@G?cA?{EDm@?{ABa@@C?eA?[?aB?YAmA@kA@S@C?O@g@?[?s@BG?C?U?M?E?s@A}@@}A@I?gJDI?sHD{@@eJDK?S?E?{@@m@@yEBO?_JFS?gIFW?M?yDB{C@Y?kFBsB@Q?aC@mB@iB@W?yB@c@@_E@S?cJHK?qHF]?O?O@iE?_EDK?{@?i@@cB?gBBs@@_@?Q??R?L@R?N?f@?h@@|@M?"}, "start_location": {"lat": 29.756171, "lng": -95.365308}, "transit_details": {"arrival_stop": {"location": {"lat": 29.804029, "lng": -95.398901}, "name": "W 20th St @ Yale St"}, "arrival_time": {"text": "4:16pm", "time_zone": "America/Chicago", "value": 1642025760}, "departure_stop": {"location": {"lat": 29.756171, "lng": -95.365308}, "name": "Lamar St @ Main St"}, "departure_time": {"text": "3:53pm", "time_zone": "America/Chicago", "value": 1642024380}, "headsign": "N Shepherd P&R", "line": {"agencies": [{"name": "Metropolitan Transit Authority of Harris County", "phone": "1 (713) 635-4000", "url": "http://www.ridemetro.org/"}], "color": "#004080", "name": "Telephone / Heights", "short_name": "40", "text_color": "#ffffff", "url": "https://www.ridemetro.org/MetroPDFs/Schedules/BusSchedules/n040-Telephone-Heights.pdf", "vehicle": {"icon": "//maps.gstatic.com/mapfiles/transit/iw2/6/bus2.png", "name": "Bus", "type": "BUS"}}, "num_stops": 39, "trip_short_name": "TELEHEIGHT"}, "travel_mode": "TRANSIT"}, {"distance": {"text": "3.4 mi", "value": 5442}, "duration": {"text": "12 mins", "value": 725}, "end_location": {"lat": 29.80163, "lng": -95.454342}, "html_instructions": "Bus towards Memorial City", "polyline": {"points": "eb|tDbrgeQL??\\?d@?b@@n@?pA@|B?d@?`@@t@?T?pA@v@@rA?v@@bD@~@?nA@H?tB@^@dC?P?j@@x@?x@?t@@P?dA@|A?\\?^@dC@zB?xA?N@V?fA@`ABfE?tABtJ?pB@rA?r@?H?|@?jB?@?j@@h@AL?\\?J@f@?|B?h@?|@?n@?N?|G?J@tE?d@@dC?p@AL@J?V@P@H?B?D@F@HBH@JDPDLDLDHDJDJHLFHFHLL?@TVTVn@v@NRh@h@NPVX^f@BJBFBFf@v@P`@DZDVBT@F?D@F?H?P@P?X?N?F?j@@pAIpB@f@?V?fA?j@?V@h@AjA?h@@~@?b@@^Af@@d@?X?bA?jA?b@@nC?J?d@Aj@?v@?P@dB?jA?bC?`A?\\@dH?`D?dC@fE?jD?T@`F@vB?jD?vC?X?`E@V@zCAb@?fAAX@fB@fA?T@|B?l@A~A?x@?XAzB?`A?dB?l@?P?F?H@^?Z?@?H?@?Z?h@?f@?j@?^?t@@j@BnAAV@|@@fB?bBG?"}, "start_location": {"lat": 29.804029, "lng": -95.398901}, "transit_details": {"arrival_stop": {"location": {"lat": 29.80163, "lng": -95.454342}, "name": "W 18th St @ Northwest Fwy"}, "arrival_time": {"text": "4:33pm", "time_zone": "America/Chicago", "value": 1642026820}, "departure_stop": {"location": {"lat": 29.804029, "lng": -95.398901}, "name": "W 20th St @ Yale St"}, "departure_time": {"text": "4:21pm", "time_zone": "America/Chicago", "value": 1642026095}, "headsign": "Memorial City", "line": {"agencies": [{"name": "Metropolitan Transit Authority of Harris County", "phone": "1 (713) 635-4000", "url": "http://www.ridemetro.org/"}], "color": "#004080", "name": "Long Point / Cavalcade", "short_name": "26", "text_color": "#ffffff", "url": "https://www.ridemetro.org/MetroPDFs/Schedules/BusSchedules/n026-Long-Point-Cavalcade.pdf", "vehicle": {"icon": "//maps.gstatic.com/mapfiles/transit/iw2/6/bus2.png", "name": "Bus", "type": "BUS"}}, "num_stops": 18, "trip_short_name": "LONGPOINT"}, "travel_mode": "TRANSIT"}, {"distance": {"text": "322 ft", "value": 98}, "duration": {"text": "1 min", "value": 77}, "end_location": {"lat": 29.8019199, "lng": -95.45428179999999}, "html_instructions": "Walk to 4400 W 18th St, Houston, TX 77092, USA", "polyline": {"points": "es{tDrlreQ?z@YEc@E?G@Q@a@"}, "start_location": {"lat": 29.8016264, "lng": -95.454342}, "steps": [{"distance": {"text": "95 ft", "value": 29}, "duration": {"text": "1 min", "value": 22}, "end_location": {"lat": 29.8016252, "lng": -95.45463819999999}, "html_instructions": "Head <b>west</b> on <b>W 18th St</b>/<wbr/><b>NW Mall</b>", "polyline": {"points": "es{tDrlreQ?z@"}, "start_location": {"lat": 29.8016264, "lng": -95.454342}, "travel_mode": "WALKING"}, {"distance": {"text": "131 ft", "value": 40}, "duration": {"text": "1 min", "value": 33}, "end_location": {"lat": 29.8019405, "lng": -95.4545788}, "html_instructions": "Turn <b>right</b><div style=\"font-size:0.9em\">Restricted usage road</div>", "maneuver": "turn-right", "polyline": {"points": "es{tDnnreQYEc@E"}, "start_location": {"lat": 29.8016252, "lng": -95.45463819999999}, "travel_mode": "WALKING"}, {"distance": {"text": "95 ft", "value": 29}, "duration": {"text": "1 min", "value": 22}, "end_location": {"lat": 29.8019199, "lng": -95.45428179999999}, "html_instructions": "Turn <b>right</b><div style=\"font-size:0.9em\">Restricted usage road</div><div style=\"font-size:0.9em\">Destination will be on the left</div>", "maneuver": "turn-right", "polyline": {"points": "cu{tDbnreQ?G@Q@a@"}, "start_location": {"lat": 29.8019405, "lng": -95.4545788}, "travel_mode": "WALKING"}], "travel_mode": "WALKING"}], "traffic_speed_entry": [], "via_waypoint": []}], "overview_polyline": {"points": "_cwtDb}idQzHt@bDLzC?RH@ONEjBIhBG?}BA]E?L??\\@dC?hABjFDNBj@PpBJvA?dA@n@J\\KnEOtCWzDiAzMo@zH}@tJqA`OIn@o@vHCPsBjUgBrRgAvLq@pHw@dI_AxKa@xHA`IHjND`KL~WDlCNdDVdC\\|Bb@rBl@tBvEjOxDdM~@dDr@pDT|APzAJ|CBhE?fH?~L?vCAvKAhSQb@ATIlBQ~BE|@?pA?p@u@@]@m@@G`@Kr@XAf@?rAA@~AAdF?~@HB?NDp@?N@bDBzBDvCHnDPb@@f@B|@RpCj@lDdArEnCpJpAnEjB~G`EtNTp@VfAnCtJzAfFf@hB^hBPdCJbDBzCJ^B~F@hERbGXvCTxA\\dBjAzEdAjDdB`Fx@jBdAjBt@bArAvAfAz@x@h@v@d@dAf@vBr@tBb@|ARRJzAX`BXhARpARx@FxA^l@V`@Rf@Zb@f@vAfA`BhAvCtBhAz@qAjCsB`E_DjGuFrKaC~Ew@~A]l@vB~Ab@\\hCnBxHvFhHjFlHhFrB|AKRFKmByAKIMTgArBEEJHMTCHmBpDkEtIeBnDmElIrFbEj@r@Lj@BlBBVGT?fCDzC?l@?pBDpD?hE@zDGn@Mh@IrAC`BD~JB`AHh@RpADrABzEF~GFnIT`_@Vh_@@rD}HHgFCuD?cBJmFxBi@PkALgACm@Gk@Ky@Wg@Su@_@_Aa@s@e@oA_AWSo@c@eAa@qCm@c@EqBDiC@oAFQJO@_@DWNB[}A?{C@gPLgC@{BAyCBoAB{AB}AAmOHaYNy^Tq]NcZPoJHqMDiHFq@??`@@tB@|@M?L??\\?hA@`CBzFF~QFvMRjm@BjYB|W@bABZLp@Vp@^l@x@~@hBtBf@j@^f@BJFNf@v@P`@Jr@D\\@h@@bA@|BIpB@f@?~A?bA?tB@hB@pC?zLBdWDvd@@jKA`HDbIA`F?tK?bEDpE@`HG??z@YEc@E?GBs@"}, "summary": "", "warnings": ["Walking directions are in beta. Use caution \u2013 This route may be missing sidewalks or pedestrian paths."], "waypoint_order": []}, {"bounds": {"northeast": {"lat": 29.80194599999999, "lng": -95.24646620000001}, "southwest": {"lat": 29.7737917, "lng": -95.45679299999999}}, "copyrights": "Map data \u00a92022", "legs": [{"arrival_time": {"text": "4:57pm", "time_zone": "America/Chicago", "value": 1642028238}, "departure_time": {"text": "3:14pm", "time_zone": "America/Chicago", "value": 1642022092}, "distance": {"text": "16.8 mi", "value": 27065}, "duration": {"text": "1 hour 42 mins", "value": 6146}, "end_address": "4400 W 18th St, Houston, TX 77092, USA", "end_location": {"lat": 29.8019199, "lng": -95.45428179999999}, "start_address": "500 Mercury Dr, Houston, TX 77013, USA", "start_location": {"lat": 29.7785648, "lng": -95.2470618}, "steps": [{"distance": {"text": "0.4 mi", "value": 580}, "duration": {"text": "7 mins", "value": 428}, "end_location": {"lat": 29.7741253, "lng": -95.2464664}, "html_instructions": "Walk to East Fwy @ Mercury Dr", "polyline": {"points": "_cwtDb}idQL@j@D|ANbD\\bDLzC?LHD?@ONEPAxAGh@A~@E?s@?iAA]"}, "start_location": {"lat": 29.7785648, "lng": -95.2470618}, "steps": [{"distance": {"text": "0.2 mi", "value": 369}, "duration": {"text": "5 mins", "value": 273}, "end_location": {"lat": 29.7752745, "lng": -95.2473672}, "html_instructions": "Head <b>south</b> on <b>Mercury Dr</b> toward <b>Lafferty Oaks St</b>", "polyline": {"points": "_cwtDb}idQL@j@D|ANbD\\bDLzC?LHD?@O"}, "start_location": {"lat": 29.7785648, "lng": -95.2470618}, "travel_mode": "WALKING"}, {"distance": {"text": "433 ft", "value": 132}, "duration": {"text": "2 mins", "value": 98}, "end_location": {"lat": 29.7741191, "lng": -95.2472493}, "html_instructions": "Slight <b>left</b> to stay on <b>Mercury Dr</b>", "maneuver": "turn-slight-left", "polyline": {"points": "mnvtD`_jdQNEPAxAGh@A~@E"}, "start_location": {"lat": 29.7752745, "lng": -95.2473672}, "travel_mode": "WALKING"}, {"distance": {"text": "259 ft", "value": 79}, "duration": {"text": "1 min", "value": 57}, "end_location": {"lat": 29.7741253, "lng": -95.2464664}, "html_instructions": "Turn <b>left</b> onto <b>East Fwy</b>/<wbr/><b>E Freeway Service Rd</b>", "maneuver": "turn-left", "polyline": {"points": "ggvtDh~idQ?s@?iAA]"}, "start_location": {"lat": 29.7741191, "lng": -95.2472493}, "travel_mode": "WALKING"}], "travel_mode": "WALKING"}, {"distance": {"text": "4.3 mi", "value": 6859}, "duration": {"text": "8 mins", "value": 480}, "end_location": {"lat": 29.77535, "lng": -95.31537499999999}, "html_instructions": "Bus towards Downtown", "polyline": {"points": "ogvtDlyidQL??\\@hA?z@?Z?l@@x@?l@?j@@vABF@F@L@\\Fj@Fl@@J?J@JBP?JDl@?Z?@?`@?D?^@NBJFPAPAp@Cx@CpAGhAGjAOzBG~@QrBShCEn@]lDG|@Ix@E`@W`DAJABo@hHIz@UjC{@tJC\\EPc@bF?@Ef@Eh@A@?B?BAFC\\E^ANADc@~E_@bEa@rEMxAIp@CXC\\OxAQtBQdBSxBMnAEb@ADQxBAJM|AGf@Gp@I|@AH_@jEE\\Eh@KnAEV_@rDWrCg@dGOnCQhD?rCAh@?|@?dA?^?Z@d@?tABtC@h@@pA?`@?J@b@?@?B?b@?P?@?R@pB?X@v@?z@@pA?V?r@@`A@`@?h@@pA?dA@h@?h@?f@?h@@~@@bB?@?N@`A?JBr@?J?LBd@Dt@Dz@D^?BHp@Fn@@BBPL~@Hf@@BF^Ll@J`@\\lA?@HVDLNh@L^BHJZHTVx@bC`IBHNf@^hAfCnI@Bf@dBBHDPLb@R|@Jj@Hb@Hb@BR@HBPJl@Jl@Dl@Dn@DlBBhB?~A?lB?xD?vB?dC?bC?|@?~A?d@?B?L?N?d@?dDAzD?dC@tD?lEC~BQb@ATAXGrAE^Ep@CTAVANAZAN?@?f@?h@?p@u@@W@E?m@@G`@?A"}, "start_location": {"lat": 29.7741562, "lng": -95.2464667}, "transit_details": {"arrival_stop": {"location": {"lat": 29.77535, "lng": -95.31537499999999}, "name": "Fifth Ward/Denver Harbor Transit Center"}, "arrival_time": {"text": "3:30pm", "time_zone": "America/Chicago", "value": 1642023000}, "departure_stop": {"location": {"lat": 29.7741562, "lng": -95.2464667}, "name": "East Fwy @ Mercury Dr"}, "departure_time": {"text": "3:22pm", "time_zone": "America/Chicago", "value": 1642022520}, "headsign": "Downtown", "line": {"agencies": [{"name": "Metropolitan Transit Authority of Harris County", "phone": "1 (713) 635-4000", "url": "http://www.ridemetro.org/"}], "color": "#004080", "name": "Northshore Express", "short_name": "137", "text_color": "#ffffff", "url": "https://www.ridemetro.org/MetroPDFs/Schedules/BusSchedules/n137-Northshore-Express.pdf", "vehicle": {"icon": "//maps.gstatic.com/mapfiles/transit/iw2/6/bus2.png", "name": "Bus", "type": "BUS"}}, "num_stops": 1, "trip_short_name": "NORTHSHO"}, "travel_mode": "TRANSIT"}, {"distance": {"text": "256 ft", "value": 78}, "duration": {"text": "1 min", "value": 59}, "end_location": {"lat": 29.7757108, "lng": -95.31535180000002}, "html_instructions": "Walk to Farmer St EB @ Fifth Ward/Denver Harbor Transit Center", "polyline": {"points": "}nvtDbhwdQDY[@s@B@L"}, "start_location": {"lat": 29.7753454, "lng": -95.31537639999999}, "steps": [{"distance": {"text": "56 ft", "value": 17}, "duration": {"text": "1 min", "value": 12}, "end_location": {"lat": 29.7753155, "lng": -95.3152506}, "html_instructions": "Head <b>east</b> toward <b>Lockwood Dr</b>", "polyline": {"points": "}nvtDbhwdQDY"}, "start_location": {"lat": 29.7753454, "lng": -95.31537639999999}, "travel_mode": "WALKING"}, {"distance": {"text": "164 ft", "value": 50}, "duration": {"text": "1 min", "value": 39}, "end_location": {"lat": 29.7757157, "lng": -95.31527849999999}, "html_instructions": "Turn <b>left</b> onto <b>Lockwood Dr</b>", "maneuver": "turn-left", "polyline": {"points": "wnvtDhgwdQ[@s@B"}, "start_location": {"lat": 29.7753155, "lng": -95.3152506}, "travel_mode": "WALKING"}, {"distance": {"text": "36 ft", "value": 11}, "duration": {"text": "1 min", "value": 8}, "end_location": {"lat": 29.7757108, "lng": -95.31535180000002}, "html_instructions": "Turn <b>left</b> onto <b>Farmer St</b>", "maneuver": "turn-left", "polyline": {"points": "gqvtDngwdQ@L"}, "start_location": {"lat": 29.7757157, "lng": -95.31527849999999}, "travel_mode": "WALKING"}], "travel_mode": "WALKING"}, {"distance": {"text": "11.5 mi", "value": 18518}, "duration": {"text": "44 mins", "value": 2640}, "end_location": {"lat": 29.797383, "lng": -95.45679299999999}, "html_instructions": "Bus towards Northwest TC", "polyline": {"points": "_qvtD|gwdQM@?Wc@D[DkALkCf@yA\\w@Jo@B_@@O@_E@oD?O?iDDW?}D@eD@[?{@?i@Ac@?WAE?YCwBCCBA?A?A@A?C?W?iABuA?sD@S@E?M?I?A?O?M?cC?G?E?U?[?C?I@m@?wE@gA@?k@AY?O@iAx@A`FEL\\HZJ^H\\Ph@DN@BDNZfA?NDXFzAFR@d@?VBvABzAFtDBxABbCD`C?P?FAHOz@CNAJ?H?J?h@?bE?tB?fABf@@NDRBL@HDL\\fAJXh@`BL`@z@hCFRFNX|@b@rAHVlDhK@FfAbDTr@BD@H@D@F?H@x@?L@`D@nC?V?\\@`C@fC?RB|C?~A?PBHBFLZDRBT?V?R?X@z@?b@?tA@h@?~C?D@h@?RVZh@x@Zd@Rf@H`@?@Lb@?@BHH`@DTBXDTBNLdAZhBHT@X?F?V?R@pA?hA?D@j@?lB?nA?T?h@?tB?Z?P?X?R?T?P?h@?R@N?L?D?L?B@xC?J@t@@Z@dA@jA@|@?\\@Z?V?J@r@?^@d@@p@@\\@Z?~@@dA?f@?p@@hA?r@?vA?V@bD?bD@pB?r@?dD@lA?N@T?nA?L?R?^@B?B@B?B@@t@tCBHn@~B`@xABNXbAHZRz@FVLd@J^Nj@XjAv@xCb@~ALb@DRPn@d@jBZhABJBJPl@BJ@FBHt@rCd@~Ar@pCn@dCd@fB?@Np@Pv@BLDXFx@BZ@d@@b@AV?D?F?@?N?@AN?H?D?@CVATEZId@G^GZGVSp@MT[bAQh@OXo@hB[x@KNKZIR?BK`@Q\\e@j@KLGFKJw@z@e@f@ORCDABEHAHCLCHAHAVANAH?P?RBn@?H@TAP?J?HALCRERCLCTCXAV?p@BTBVBTFV\\jARl@Nd@JZFRLb@J^h@bB`@nAFRRp@@BHXBDFPDNRf@PVJJJHb@ZHFJFRPHHFJ@?HLDJBHBFBJDRBN@L@L@F?B@N?@?@?D@\\?H?V?PAF?VAHCN?DABADADA?GPCDA@ABEFQPEDIHWRMHEBCBGDQLGFEBKLA@IJINGNINCFCFELELk@BM?K?M@M?O@IBKDGDIDIHILELGLCNEX?Z@`@AX?@?P@|H?VBhF@R?Z?V?\\@V?T?J@Z?Z@rA?`@?L?z@?N?@?F?R?N@vA?~B?^@Z?bA@\\?fA?D@R@hB?L?dB@lB@z@?P?^@jB@nB@lB?pA@X@nB@vB@d@?LlIA\\?rJG|@Ah@?d@AZA@\\@bD@b@?\\?j@?zA?vD?JAJ?p@A^CdAAp@Cv@?DKbCGjA@j@Gr@?FIp@Gn@GVEb@G^Kh@EXEZId@Kt@?@EXE^CVEb@KbAG~@M~AEz@Ep@Eb@?@Ej@CZAP?LC^Cn@AVAJ?d@AH?V?H?J?l@BhE@N?`C?~@?tAAX?BAhABvC@f@?x@@rA?t@BbG@~A?t@@zB?jB@d@wA@oB?c@@}ADs@@oB@a@@_@?UB_@?[?[?a@?E?]AC?]CIAw@KaBWSCk@G[G[Ei@IgBYEAcBWe@IeAOw@OMCMCwA[y@M}@OQCQC_BWu@Ka@GaDg@{Ce@WA[A[?]@c@BK@[BM@@b@AV@n@?b@?d@@d@?^?J?XAJAf@Az@@`B@rA?~@@V@XBb@BZD`@DTHd@lAfFFXHd@H`@Fh@Fp@@VBb@?l@?zD@V?hE?X@nE?bF@f@?|C?hD?tA@T?nA?zA?|EBvG?nF?\\@`D?bB?nA?t@@lF?X?l@@lA?bB?dA?J@~E?R?xA?N?j@?n@BLAN@R?z@AhB?X?V?L?B@B?HBVINSXKP]d@_DxEMRe@r@oAnBQV[f@CDKN]`@ORE@C?C@C@q@bAKNQTs@bAEHEJCB?@AB?@?@CPGHS\\[d@iAbBq@`A_@n@e@r@G@C@C@Yb@q@`A]f@QV_@j@A@?@A@W\\KNABGHOVCBILc@l@W\\GLGHU\\?BABAJOX]d@OVo@dAiAhBa@n@Y`@QXY`@AD{A|B_B~BwAxBMRh@`@\\Zx@x@PNZZTPCF"}, "start_location": {"lat": 29.775678, "lng": -95.315349}, "transit_details": {"arrival_stop": {"location": {"lat": 29.797383, "lng": -95.45679299999999}, "name": "N Post Oak Rd @ Hempstead Hwy"}, "arrival_time": {"text": "4:44pm", "time_zone": "America/Chicago", "value": 1642027440}, "departure_stop": {"location": {"lat": 29.775678, "lng": -95.315349}, "name": "Farmer St EB @ Fifth Ward/Denver Harbor Transit Center"}, "departure_time": {"text": "4:00pm", "time_zone": "America/Chicago", "value": 1642024800}, "headsign": "Northwest TC", "line": {"agencies": [{"name": "Metropolitan Transit Authority of Harris County", "phone": "1 (713) 635-4000", "url": "http://www.ridemetro.org/"}], "color": "#004080", "name": "Quitman", "short_name": "66", "text_color": "#ffffff", "url": "https://www.ridemetro.org/MetroPDFs/Schedules/BusSchedules/n066-Quitman.pdf", "vehicle": {"icon": "//maps.gstatic.com/mapfiles/transit/iw2/6/bus2.png", "name": "Bus", "type": "BUS"}}, "num_stops": 56, "trip_short_name": "QUITMAN"}, "travel_mode": "TRANSIT"}, {"distance": {"text": "0.6 mi", "value": 1030}, "duration": {"text": "13 mins", "value": 796}, "end_location": {"lat": 29.8019199, "lng": -95.45428179999999}, "html_instructions": "Walk to 4400 W 18th St, Houston, TX 77092, USA", "polyline": {"points": "sxztD|{reQUS[YKMKIo@m@KIWWa@]KI]c@OUEKMYm@{@EO]Y{@aAGMf@mAAWgAiASSBELUqBoBNSyAsAEEIIS_@ISMa@k@L_@P[JMDSFMD?j@?h@BnAAV@|@@hBYDe@F@D@R@f@?D"}, "start_location": {"lat": 29.7973772, "lng": -95.45678590000001}, "steps": [{"distance": {"text": "0.2 mi", "value": 272}, "duration": {"text": "4 mins", "value": 211}, "end_location": {"lat": 29.7991375, "lng": -95.4548499}, "html_instructions": "Head <b>northeast</b> on <b>N Post Oak Rd</b> toward <b>Hempstead Rd</b>", "polyline": {"points": "sxztD|{reQUS[YKMKIo@m@KIWWa@]KI]c@OUEKMYm@{@EO]Y"}, "start_location": {"lat": 29.7973772, "lng": -95.45678590000001}, "travel_mode": "WALKING"}, {"building_level": {"number": 0}, "distance": {"text": "0.1 mi", "value": 163}, "duration": {"text": "2 mins", "value": 129}, "end_location": {"lat": 29.7996479, "lng": -95.45357349999999}, "html_instructions": "Walk for 0.1&nbsp;mi", "polyline": {"points": "sc{tDxoreQ{@aAGMf@mAAWgAiA"}, "start_location": {"lat": 29.7991375, "lng": -95.4548499}, "travel_mode": "WALKING"}, {"distance": {"text": "49 ft", "value": 15}, "duration": {"text": "1 min", "value": 11}, "end_location": {"lat": 29.7997517, "lng": -95.45346980000001}, "html_instructions": "Head <b>northeast</b>", "polyline": {"points": "yf{tDxgreQSS"}, "start_location": {"lat": 29.7996479, "lng": -95.45357349999999}, "travel_mode": "WALKING"}, {"distance": {"text": "56 ft", "value": 17}, "duration": {"text": "1 min", "value": 13}, "end_location": {"lat": 29.7996572, "lng": -95.4533311}, "html_instructions": "Turn <b>right</b>", "maneuver": "turn-right", "polyline": {"points": "mg{tDdgreQBELU"}, "start_location": {"lat": 29.7997517, "lng": -95.45346980000001}, "travel_mode": "WALKING"}, {"distance": {"text": "276 ft", "value": 84}, "duration": {"text": "1 min", "value": 60}, "end_location": {"lat": 29.8002303, "lng": -95.452771}, "html_instructions": "Turn <b>left</b>", "maneuver": "turn-left", "polyline": {"points": "{f{tDhfreQqBoB"}, "start_location": {"lat": 29.7996572, "lng": -95.4533311}, "travel_mode": "WALKING"}, {"distance": {"text": "43 ft", "value": 13}, "duration": {"text": "1 min", "value": 10}, "end_location": {"lat": 29.8001537, "lng": -95.4526671}, "html_instructions": "Turn <b>right</b> toward <b>W Loop S Fwy</b>", "maneuver": "turn-right", "polyline": {"points": "mj{tDxbreQNS"}, "start_location": {"lat": 29.8002303, "lng": -95.452771}, "travel_mode": "WALKING"}, {"distance": {"text": "420 ft", "value": 128}, "duration": {"text": "1 min", "value": 86}, "end_location": {"lat": 29.8008984, "lng": -95.45173779999999}, "html_instructions": "Turn <b>left</b> toward <b>W Loop S Fwy</b>", "maneuver": "turn-left", "polyline": {"points": "}i{tDdbreQyAsAEEIIS_@ISMa@"}, "start_location": {"lat": 29.8001537, "lng": -95.4526671}, "travel_mode": "WALKING"}, {"distance": {"text": "279 ft", "value": 85}, "duration": {"text": "1 min", "value": 75}, "end_location": {"lat": 29.8016641, "lng": -95.4520582}, "html_instructions": "Turn <b>left</b> onto <b>W Loop S Fwy</b>", "maneuver": "turn-left", "polyline": {"points": "sn{tDj|qeQk@L_@P[JMDSFMD"}, "start_location": {"lat": 29.8008984, "lng": -95.45173779999999}, "travel_mode": "WALKING"}, {"distance": {"text": "0.1 mi", "value": 177}, "duration": {"text": "2 mins", "value": 140}, "end_location": {"lat": 29.8016283, "lng": -95.4538499}, "html_instructions": "Turn <b>left</b> onto <b>W 18th St</b>/<wbr/><b>NW Mall</b>", "maneuver": "turn-left", "polyline": {"points": "ks{tDj~qeQ?j@?h@BnAAV@|@@hB"}, "start_location": {"lat": 29.8016641, "lng": -95.4520582}, "travel_mode": "WALKING"}, {"distance": {"text": "131 ft", "value": 40}, "duration": {"text": "1 min", "value": 34}, "end_location": {"lat": 29.80194599999999, "lng": -95.4539156}, "html_instructions": "Turn <b>right</b><div style=\"font-size:0.9em\">Restricted usage road</div>", "maneuver": "turn-right", "polyline": {"points": "es{tDpireQYDe@F"}, "start_location": {"lat": 29.8016283, "lng": -95.4538499}, "travel_mode": "WALKING"}, {"distance": {"text": "118 ft", "value": 36}, "duration": {"text": "1 min", "value": 27}, "end_location": {"lat": 29.8019199, "lng": -95.45428179999999}, "html_instructions": "Turn <b>left</b><div style=\"font-size:0.9em\">Restricted usage road</div><div style=\"font-size:0.9em\">Destination will be on the right</div>", "maneuver": "turn-left", "polyline": {"points": "eu{tD~ireQ@D@R@f@?D"}, "start_location": {"lat": 29.80194599999999, "lng": -95.4539156}, "travel_mode": "WALKING"}], "travel_mode": "WALKING"}], "traffic_speed_entry": [], "via_waypoint": []}], "overview_polyline": {"points": "_cwtDb}idQzHt@bDLzC?RH@ONEjBIhBG?}BA]E?L??\\@dC?hABjFDNBj@PpBJvA?dA@n@J\\KnEOtCWzDiAzMo@zH}@tJqA`OIn@o@vHCPsBjUgBrRgAvLq@pHw@dI_AxKa@xHA`IHjND`KL~WDlCNdDVdC\\|Bb@rBl@tBvEjOxDdM~@dDr@pDT|APzAJ|CBhE?fH?~L?vCAvKAhSQb@ATIlBQ~BE|@?pA?p@u@@]@m@@G`@DY[@s@B@LD?M@?Wc@DgBReFdAgBN_LDoKFgH?{AEwBCCBC?_@@gJF}@?_G@_HBAeA@yAzGGVx@T|@X|@`@vADh@FzAFR@|@RbMHvGAPSjAAjA?xHBnBLz@rD`LxIxWD`@DxJFbRZ`ABzADbM`AtAZd@Rf@Hb@Ld@Lj@Hn@r@tEHT@X?^@tD@lM@pDNpSDtBBhEDxUB~LBj@z@dDbDbMvDxNdBxG~DjOfArET|B@fBAz@KjAY`B[hAi@xAmBfFWj@IVK`@Q\\q@x@qBvB[f@Kj@EbADbBCt@QjAEp@BfAFl@d@bBv@bClCzId@nA\\b@n@d@r@j@Xd@Pp@Hr@BdAAhAGb@M\\MRy@t@_@Vk@f@]l@Wl@ELk@BY?[@YDSJSNOZGLIh@@|@?jJDpHDzFDlRTpc@?LlIApKGhDEDbG?jIGbDQrFGjA@j@Gz@_@|C{@vF[~Ca@lGY|EErA?zADxE?`EC|DL|W@fF@d@wA@sC@qCFqCBu@ByB?eAEwDi@eK}AyCg@qCi@oASiEo@}HmAs@CiBFi@D?z@B~CApACbBBtD@vAD|@XxBtA`GRfANzADz@@jMDh\\Hhz@@xIBxBAlG@LBVIN_@j@}D~FuCnEiA~AUTG@sAjBcA|AAHCPGHo@bAaEhGKB]d@aClDaAxAiA|Ae@x@CNm@~@kDvFiJnNrCfCZZTPCFUSg@g@_ByAm@g@m@y@Se@m@{@EO]YcAoAf@mAAW{A}AP[qBoBNS_ByA]i@Wu@k@L_@Pi@Pa@L@|DBfD_ALDfA"}, "summary": "", "warnings": ["Walking directions are in beta. Use caution \u2013 This route may be missing sidewalks or pedestrian paths."], "waypoint_order": []}], "status": "OK"}