{"geocoded_waypoints": [{"geocoder_status": "OK", "place_id": "ChIJRzBsfPO-QIYRtuTsNN6v2Ns", "types": ["establishment", "point_of_interest", "school", "secondary_school"]}, {"geocoder_status": "OK", "place_id": "ChIJ9_tphxzHQIYRIMyPy_d3VZU", "types": ["establishment", "point_of_interest"]}], "routes": [{"bounds": {"northeast": {"lat": 29.804029, "lng": -95.3316074}, "southwest": {"lat": 29.727705, "lng": -95.45463819999999}}, "copyrights": "Map data \u00a92022", "legs": [{"arrival_time": {"text": "4:34pm", "time_zone": "America/Chicago", "value": 1642026897}, "departure_time": {"text": "3:33pm", "time_zone": "America/Chicago", "value": 1642023206}, "distance": {"text": "12.8 mi", "value": 20624}, "duration": {"text": "1 hour 2 mins", "value": 3691}, "end_address": "4400 W 18th St, Houston, TX 77092, USA", "end_location": {"lat": 29.8019199, "lng": -95.45428179999999}, "start_address": "4528 Leeland St, Houston, TX 77023, USA", "start_location": {"lat": 29.7346955, "lng": -95.3342771}, "steps": [{"distance": {"text": "115 ft", "value": 35}, "duration": {"text": "1 min", "value": 34}, "end_location": {"lat": 29.7350131, "lng": -95.33430129999999}, "html_instructions": "Walk to Ernestine St @ Pease St", "polyline": {"points": "{pntDf~zdQ}@B"}, "start_location": {"lat": 29.7346955, "lng": -95.3342771}, "steps": [{"distance": {"text": "115 ft", "value": 35}, "duration": {"text": "1 min", "value": 34}, "end_location": {"lat": 29.7350131, "lng": -95.33430129999999}, "polyline": {"points": "{pntDf~zdQ}@B"}, "start_location": {"lat": 29.7346955, "lng": -95.3342771}, "travel_mode": "WALKING"}], "travel_mode": "WALKING"}, {"distance": {"text": "9.4 mi", "value": 15049}, "duration": {"text": "42 mins", "value": 2520}, "end_location": {"lat": 29.804029, "lng": -95.398901}, "html_instructions": "Bus towards N Shepherd P&R", "polyline": {"points": "yrntDj~zdQBMNFz@Vn@Rj@Ph@NJD|@VNDPDfBh@n@RlDbA|Ad@~Af@v@Pn@Al@?d@EF?p@Ch@?l@DTiADOF[Nq@Z{AXAVDd@Pb@NB@STnAHNNBD@LANGT]`@MNG@K?GAWKa@Yc@YMQGIEO@E?EBKHe@?WK@K?Kj@UFSGMY[i@QYg@i@c@_@m@c@eBk@?Aa@KMEsDiAoBm@_@KICuAc@SG]KCA]KcCu@eBi@OEm@Qi@Me@GS?QAa@@WBC@G?SDA?E@c@F]BK?c@Ba@?Y?C?_@C[CUCWKe@Oa@M_@MMEGVu@pDI\\ABKf@SjAEX?La@tBa@rBI`@cBfIQx@wBnKQ|@S~@YnAG\\]|A[xAKd@]`BCLGXUlAMn@Op@Op@iAvF]bBEXAFI^CNCHCNIV]~@Q`@Wj@INeBjDqAdCOZGLGHADWh@KPm@jAGLGJaB~CgBhDyAtCKTgBlDy@zAk@jAuAnCQZUj@Wd@_@t@MTKJg@bAIN]p@OZMTINCFQZS\\AFS`@INGP{AtCA@IRWh@GLMPCHo@lAMPKVIL?@?@INCFA@GJ?@A@ABEHCDA@a@t@i@fA{@`BKTUb@QMuB}AGGA?CAA?A@A??@A@EDu@xA_@p@SRQLIFKDODEBE?G@IB]DMBKBEBM@UD_@HIBC@IBQLIFIJKRQTsAlCKP?BABADINs@pAi@bAgArBa@t@aBnDQZgArBMTADABCFA@OVwAnCuAnCMT_@x@gAtB]p@{@bB?@KViBdDIRMTkA|BdAz@t@f@RNbBnAj@r@Lj@BvA?TBVGT?b@?bBB|A@n@?L?B?@?f@?B?Z?@?F@b@?B?DAX@l@@T?\\@nA?h@?h@A|A@V?\\?nA?f@@d@AJAL?HCJGTEREp@C`@ANAd@?@?h@?nA@tA?R@dB?F@v@?H?T?JBt@BTDRLp@D^Dn@?b@@tA?`@@x@?h@@d@?X@`AB|C?v@@n@@R?H?P@p@?~@@dA@h@?rA@F?^@rA@f@@|B?lA?p@@P?LB|D@`C@lB@P?@?F@\\?Z?dA@fA@vABjB@dA?`@?^@T?hB@p@@|B@^B|C@rA?R?V?r@_B@{ABk@@uA@yAAa@A{A?O?aC?Y?O?I?Y@[@A?G@E?G@UBMDMFOF}@^_A^QHSH]NQFC@MBEB[DWDW@Y@m@Em@GMCIACAOCEAMCe@QSISIUM_@Q[KGEWMCAUMCCAAWQ[UECSOYUOKGG[WSKSIYMKCKEqCm@c@E_ABq@@yB@O?k@Bc@BQJO@Q@MBWNB[y@?c@?[?o@?oA@qA@S?O@G?cA?{EDm@?{ABa@@C?eA?[?aB?YAmA@kA@S@C?O@g@?[?s@BG?C?U?M?E?s@A}@@}A@I?gJDI?sHD{@@eJDK?S?E?{@@m@@yEBO?_JFS?gIFW?M?yDB{C@Y?kFBsB@Q?aC@mB@iB@W?yB@c@@_E@S?cJHK?qHF]?O?O@iE?_EDK?{@?i@@cB?gBBs@@_@?Q??R?L@R?N?f@?h@@|@M?"}, "start_location": {"lat": 29.735013, "lng": -95.334301}, "transit_details": {"arrival_stop": {"location": {"lat": 29.804029, "lng": -95.398901}, "name": "W 20th St @ Yale St"}, "arrival_time": {"text": "4:16pm", "time_zone": "America/Chicago", "value": 1642025760}, "departure_stop": {"location": {"lat": 29.735013, "lng": -95.334301}, "name": "Ernestine St @ Pease St"}, "departure_time": {"text": "3:34pm", "time_zone": "America/Chicago", "value": 1642023240}, "headsign": "N Shepherd P&R", "line": {"agencies": [{"name": "Metropolitan Transit Authority of Harris County", "phone": "1 (713) 635-4000", "url": "http://www.ridemetro.org/"}], "color": "#004080", "name": "Telephone / Heights", "short_name": "40", "text_color": "#ffffff", "url": "https://www.ridemetro.org/MetroPDFs/Schedules/BusSchedules/n040-Telephone-Heights.pdf", "vehicle": {"icon": "//maps.gstatic.com/mapfiles/transit/iw2/6/bus2.png", "name": "Bus", "type": "BUS"}}, "num_stops": 59, "trip_short_name": "TELEHEIGHT"}, "travel_mode": "TRANSIT"}, {"distance": {"text": "3.4 mi", "value": 5442}, "duration": {"text": "12 mins", "value": 725}, "end_location": {"lat": 29.80163, "lng": -95.454342}, "html_instructions": "Bus towards Memorial City", "polyline": {"points": "eb|tDbrgeQL??\\?d@?b@@n@?pA@|B?d@?`@@t@?T?pA@v@@rA?v@@bD@~@?nA@H?tB@^@dC?P?j@@x@?x@?t@@P?dA@|A?\\?^@dC@zB?xA?N@V?fA@`ABfE?tABtJ?pB@rA?r@?H?|@?jB?@?j@@h@AL?\\?J@f@?|B?h@?|@?n@?N?|G?J@tE?d@@dC?p@AL@J?V@P@H?B?D@F@HBH@JDPDLDLDHDJDJHLFHFHLL?@TVTVn@v@NRh@h@NPVX^f@BJBFBFf@v@P`@DZDVBT@F?D@F?H?P@P?X?N?F?j@@pAIpB@f@?V?fA?j@?V@h@AjA?h@@~@?b@@^Af@@d@?X?bA?jA?b@@nC?J?d@Aj@?v@?P@dB?jA?bC?`A?\\@dH?`D?dC@fE?jD?T@`F@vB?jD?vC?X?`E@V@zCAb@?fAAX@fB@fA?T@|B?l@A~A?x@?XAzB?`A?dB?l@?P?F?H@^?Z?@?H?@?Z?h@?f@?j@?^?t@@j@BnAAV@|@@fB?bBG?"}, "start_location": {"lat": 29.804029, "lng": -95.398901}, "transit_details": {"arrival_stop": {"location": {"lat": 29.80163, "lng": -95.454342}, "name": "W 18th St @ Northwest Fwy"}, "arrival_time": {"text": "4:33pm", "time_zone": "America/Chicago", "value": 1642026820}, "departure_stop": {"location": {"lat": 29.804029, "lng": -95.398901}, "name": "W 20th St @ Yale St"}, "departure_time": {"text": "4:21pm", "time_zone": "America/Chicago", "value": 1642026095}, "headsign": "Memorial City", "line": {"agencies": [{"name": "Metropolitan Transit Authority of Harris County", "phone": "1 (713) 635-4000", "url": "http://www.ridemetro.org/"}], "color": "#004080", "name": "Long Point / Cavalcade", "short_name": "26", "text_color": "#ffffff", "url": "https://www.ridemetro.org/MetroPDFs/Schedules/BusSchedules/n026-Long-Point-Cavalcade.pdf", "vehicle": {"icon": "//maps.gstatic.com/mapfiles/transit/iw2/6/bus2.png", "name": "Bus", "type": "BUS"}}, "num_stops": 18, "trip_short_name": "LONGPOINT"}, "travel_mode": "TRANSIT"}, {"distance": {"text": "322 ft", "value": 98}, "duration": {"text": "1 min", "value": 77}, "end_location": {"lat": 29.8019199, "lng": -95.45428179999999}, "html_instructions": "Walk to 4400 W 18th St, Houston, TX 77092, USA", "polyline": {"points": "es{tDrlreQ?z@YEc@E?G@Q@a@"}, "start_location": {"lat": 29.8016264, "lng": -95.454342}, "steps": [{"distance": {"text": "95 ft", "value": 29}, "duration": {"text": "1 min", "value": 22}, "end_location": {"lat": 29.8016252, "lng": -95.45463819999999}, "html_instructions": "Head <b>west</b> on <b>W 18th St</b>/<wbr/><b>NW Mall</b>", "polyline": {"points": "es{tDrlreQ?z@"}, "start_location": {"lat": 29.8016264, "lng": -95.454342}, "travel_mode": "WALKING"}, {"distance": {"text": "131 ft", "value": 40}, "duration": {"text": "1 min", "value": 33}, "end_location": {"lat": 29.8019405, "lng": -95.4545788}, "html_instructions": "Turn <b>right</b><div style=\"font-size:0.9em\">Restricted usage road</div>", "maneuver": "turn-right", "polyline": {"points": "es{tDnnreQYEc@E"}, "start_location": {"lat": 29.8016252, "lng": -95.45463819999999}, "travel_mode": "WALKING"}, {"distance": {"text": "95 ft", "value": 29}, "duration": {"text": "1 min", "value": 22}, "end_location": {"lat": 29.8019199, "lng": -95.45428179999999}, "html_instructions": "Turn <b>right</b><div style=\"font-size:0.9em\">Restricted usage road</div><div style=\"font-size:0.9em\">Destination will be on the left</div>", "maneuver": "turn-right", "polyline": {"points": "cu{tDbnreQ?G@Q@a@"}, "start_location": {"lat": 29.8019405, "lng": -95.4545788}, "travel_mode": "WALKING"}], "travel_mode": "WALKING"}], "traffic_speed_entry": [], "via_waypoint": []}], "overview_polyline": {"points": "{pntDf~zdQ}@BBMNFjBj@tA`@jBh@bLfDvCx@|AAl@EzACl@DTiALk@j@mCp@BhA`@B@STnAHNNDRANGT]`@MNG@SAy@e@c@YMQMY@KLq@?WK@K?Kj@UFSGi@cAy@cAqAcAeBm@sIiCsC{@cEoAuBo@wA_@y@Gs@?w@JiALo@B{@?c@Cq@G_Cw@MEGV_AnEg@pC?La@tBk@tC_GnY}CzNyDpRS`AMf@o@`ByElJa@x@eK`SyEjJuC|Fm@jAs@nAeArBs@pAg@jA_CtEiAvBq@rAcE`IqCsBI?}@bB_@p@SR[Tg@N}@Nu@Nw@R[TIJ]h@_B~CM\\gE~HsBjEuAhCIRkElIaEdI_CrEyArCzBbBvB~Aj@r@Lj@BlBBVGT?fCDlC?R@xBBdH?bFAfBQ~@MhCDjKB`B\\zBDrA@vBBbDJhLHfLRf_@JbPFdH?jA{DDaCB{BCgG?oABWBUB[L_DpAgAb@o@Lo@FgACeAMg@KmAe@yAq@u@a@aCgBo@c@m@WWIqCm@c@EqBDiC@oAFQJO@_@DWNB[}A?[?eFBwHFoDD}EAyHJo@?y@A{CBoTJaMFu_@VgWJcVJ_UPiLFcLF@dA?pA@|@M?L??\\?hABdHFfPLp[JtUDxZ@tH@lU@pEBv@F`@Rx@Zn@\\b@|DpE^f@BJFNf@v@P`@Jr@Fj@@fA@tCIpB@f@?~A?xDBlD@vL?rODve@BnZ@pG@rCAlCApG?lD@xC?hDDpE@jEG??z@YEc@E?GBs@"}, "summary": "", "warnings": ["Walking directions are in beta. Use caution \u2013 This route may be missing sidewalks or pedestrian paths."], "waypoint_order": []}, {"bounds": {"northeast": {"lat": 29.8026478, "lng": -95.3316074}, "southwest": {"lat": 29.727705, "lng": -95.4593211}}, "copyrights": "Map data \u00a92022", "legs": [{"arrival_time": {"text": "4:55pm", "time_zone": "America/Chicago", "value": 1642028139}, "departure_time": {"text": "3:33pm", "time_zone": "America/Chicago", "value": 1642023206}, "distance": {"text": "12.7 mi", "value": 20463}, "duration": {"text": "1 hour 22 mins", "value": 4933}, "end_address": "4400 W 18th St, Houston, TX 77092, USA", "end_location": {"lat": 29.8019199, "lng": -95.45428179999999}, "start_address": "4528 Leeland St, Houston, TX 77023, USA", "start_location": {"lat": 29.7346955, "lng": -95.3342771}, "steps": [{"distance": {"text": "115 ft", "value": 35}, "duration": {"text": "1 min", "value": 34}, "end_location": {"lat": 29.7350131, "lng": -95.33430129999999}, "html_instructions": "Walk to Ernestine St @ Pease St", "polyline": {"points": "{pntDf~zdQ}@B"}, "start_location": {"lat": 29.7346955, "lng": -95.3342771}, "steps": [{"distance": {"text": "115 ft", "value": 35}, "duration": {"text": "1 min", "value": 34}, "end_location": {"lat": 29.7350131, "lng": -95.33430129999999}, "polyline": {"points": "{pntDf~zdQ}@B"}, "start_location": {"lat": 29.7346955, "lng": -95.3342771}, "travel_mode": "WALKING"}], "travel_mode": "WALKING"}, {"distance": {"text": "6.9 mi", "value": 11183}, "duration": {"text": "33 mins", "value": 2001}, "end_location": {"lat": 29.77015, "lng": -95.39710699999999}, "html_instructions": "Bus towards N Shepherd P&R", "polyline": {"points": "yrntDj~zdQBMNFz@Vn@Rj@Ph@NJD|@VNDPDfBh@n@RlDbA|Ad@~Af@v@Pn@Al@?d@EF?p@Ch@?l@DTiADOF[Nq@Z{AXAVDd@Pb@NB@STnAHNNBD@LANGT]`@MNG@K?GAWKa@Yc@YMQGIEO@E?EBKHe@?WK@K?Kj@UFSGMY[i@QYg@i@c@_@m@c@eBk@?Aa@KMEsDiAoBm@_@KICuAc@SG]KCA]KcCu@eBi@OEm@Qi@Me@GS?QAa@@WBC@G?SDA?E@c@F]BK?c@Ba@?Y?C?_@C[CUCWKe@Oa@M_@MMEGVu@pDI\\ABKf@SjAEX?La@tBa@rBI`@cBfIQx@wBnKQ|@S~@YnAG\\]|A[xAKd@]`BCLGXUlAMn@Op@Op@iAvF]bBEXAFI^CNCHCNIV]~@Q`@Wj@INeBjDqAdCOZGLGHADWh@KPm@jAGLGJaB~CgBhDyAtCKTgBlDy@zAk@jAuAnCQZUj@Wd@_@t@MTKJg@bAIN]p@OZMTINCFQZS\\AFS`@INGP{AtCA@IRWh@GLMPCHo@lAMPKVIL?@?@INCFA@GJ?@A@ABEHCDA@a@t@i@fA{@`BKTUb@QMuB}AGGA?CAA?A@A??@A@EDu@xA_@p@SRQLIFKDODEBE?G@IB]DMBKBEBM@UD_@HIBC@IBQLIFIJKRQTsAlCKP?BABADINs@pAi@bAgArBa@t@aBnDQZgArBMTADABCFA@OVwAnCuAnCMT_@x@gAtB]p@{@bB?@KViBdDIRMTkA|BdAz@t@f@RNbBnAj@r@Lj@BvA?TBVGT?b@?bBB|A@n@?L?B?@?f@?B?Z?@?F@b@?B?DAX@l@@T?\\@nA?h@?h@A|A@V?\\?nA?f@@d@AJAL?HCJGTEREp@C`@ANAd@?@?h@?nA@tA?R@dB?F@v@?H?T?JBt@BTDRLp@D^Dn@?b@@tA?`@@x@?h@@d@?X@`AB|C?v@@n@@R?H?P@p@?~@@dA@h@?rA@F?^@rA@f@@|B?lA?p@@P?LB|D@`C@lB@P?@?F@\\?Z?dA@fA@vABjB@dA?`@?^@T?hB@p@@|B@^B|C@rA?R?V?r@_B@{ABk@@uA@yAAa@A{A?O?aC?Y?O?I?Y@[@A?G@E?G@UBMDMFOF}@^_A^QHSH]NQFC@MBEB[DWDW@Y@m@Em@GMCIACAOCEAMCe@QSISIUM_@Q[KGEWMCAUMCCAAWQ[UECSOYUOKGG[WSKSIYMKCKEqCm@c@E_ABq@@yB@O?k@Bc@BQJO@Q@MBWNB[y@?c@?[??K"}, "start_location": {"lat": 29.735013, "lng": -95.334301}, "transit_details": {"arrival_stop": {"location": {"lat": 29.77015, "lng": -95.39710699999999}, "name": "Heights Blvd @ Center St"}, "arrival_time": {"text": "4:07pm", "time_zone": "America/Chicago", "value": 1642025241}, "departure_stop": {"location": {"lat": 29.735013, "lng": -95.334301}, "name": "Ernestine St @ Pease St"}, "departure_time": {"text": "3:34pm", "time_zone": "America/Chicago", "value": 1642023240}, "headsign": "N Shepherd P&R", "line": {"agencies": [{"name": "Metropolitan Transit Authority of Harris County", "phone": "1 (713) 635-4000", "url": "http://www.ridemetro.org/"}], "color": "#004080", "name": "Telephone / Heights", "short_name": "40", "text_color": "#ffffff", "url": "https://www.ridemetro.org/MetroPDFs/Schedules/BusSchedules/n040-Telephone-Heights.pdf", "vehicle": {"icon": "//maps.gstatic.com/mapfiles/transit/iw2/6/bus2.png", "name": "Bus", "type": "BUS"}}, "num_stops": 40, "trip_short_name": "TELEHEIGHT"}, "travel_mode": "TRANSIT"}, {"distance": {"text": "0.1 mi", "value": 192}, "duration": {"text": "3 mins", "value": 175}, "end_location": {"lat": 29.7707115, "lng": -95.3986345}, "html_instructions": "Walk to Yale St @ Center St", "polyline": {"points": "knutD|fgeQ?Bi@?ANCf@ANCd@Cv@?FAN?HCl@ALAT?PO?]?"}, "start_location": {"lat": 29.7701419, "lng": -95.3971078}, "steps": [{"distance": {"text": "20 ft", "value": 6}, "duration": {"text": "1 min", "value": 4}, "end_location": {"lat": 29.7701435, "lng": -95.3971305}, "html_instructions": "Head <b>west</b> toward <b>Heights Blvd</b><div style=\"font-size:0.9em\">Restricted usage road</div>", "polyline": {"points": "knutD|fgeQ?B"}, "start_location": {"lat": 29.7701419, "lng": -95.3971078}, "travel_mode": "WALKING"}, {"distance": {"text": "89 ft", "value": 27}, "duration": {"text": "1 min", "value": 21}, "end_location": {"lat": 29.77036, "lng": -95.39721490000001}, "html_instructions": "Turn <b>right</b> onto <b>Heights Blvd</b>", "maneuver": "turn-right", "polyline": {"points": "knutD`ggeQi@?AN"}, "start_location": {"lat": 29.7701435, "lng": -95.3971305}, "travel_mode": "WALKING"}, {"distance": {"text": "449 ft", "value": 137}, "duration": {"text": "2 mins", "value": 123}, "end_location": {"lat": 29.770557, "lng": -95.39862889999999}, "html_instructions": "Turn <b>left</b> onto <b>Center St</b>", "maneuver": "turn-left", "polyline": {"points": "woutDpggeQCf@ANCd@Cv@?FAN?HCl@ALAT?PO?"}, "start_location": {"lat": 29.77036, "lng": -95.39721490000001}, "travel_mode": "WALKING"}, {"distance": {"text": "72 ft", "value": 22}, "duration": {"text": "1 min", "value": 27}, "end_location": {"lat": 29.7707115, "lng": -95.3986345}, "html_instructions": "Turn <b>right</b> onto <b>Yale St</b>", "maneuver": "turn-right", "polyline": {"points": "_qutDlpgeQ]?"}, "start_location": {"lat": 29.770557, "lng": -95.39862889999999}, "travel_mode": "WALKING"}], "travel_mode": "WALKING"}, {"distance": {"text": "5.2 mi", "value": 8315}, "duration": {"text": "19 mins", "value": 1161}, "end_location": {"lat": 29.801027, "lng": -95.45922999999999}, "html_instructions": "Bus towards Hempstead TC", "polyline": {"points": "}qutDxpgeQ?Sd@?X?`@?R?Z?v@@CXANATALANAHC\\AZATC\\A`@IbBEp@ALCp@GfAG~@G~@Cj@AXCVAL?BCd@AL?NCl@Cd@El@Ab@Ev@ANMxCCXAXAXQtCCl@?z@@dA?|A@d@?~B@d@?N?zA?P?N@d@?b@?X?\\?^?X?N?j@?b@@`@?t@@j@?j@?N@`@?z@@dC?V@h@?RARAr@AJ?NAP?RCZAV?FCxA?XExACpAClACnAAj@CvAC|@?NA`@mC@q@Di@H[Hi@NOFA?MDE@C@I@MBMBKBK@KBKBA?M@SBSBK?e@?O@C@O?wA@S?{@@gA@[?A?A?EAmBD}A@S?G@G?OD_B@s@AO?w@?O@S?c@?_@?K?K?wA@oB?c@@}ADs@@oB@a@@_@?KE?AA?C?SCkAKw@Oo@KSCEAA?MAqCY_@?_@?C@C?A?C@C@CBA@A@?@A@?@CT?BAN?P?F@D@FBD@BBB@@B@B@B@D?T@h@@xBJZ@@dJ?FB`F@tCBpL?TBvL?NBjJ@|A?|CBtG?T@`G?b@AP?LCLAFCHGLINGL]n@u@rAkA`CKNsA~BqA`CCBQXMNOPIFABEBKFKFODiAROBa@FE@E@IBGBGBEDCB?@A@?BAB@F@FFH]JSVMNIHIJ?@KRIXu@hAIRA@MPW^MTw@fAa@n@ORMVKPQ^O\\O`@Wn@ENELAFKZMb@A@MDKZw@|BEJO^Yn@i@bAQ\\W`@EJ[d@EHg@x@c@n@OTINSXKP]d@_DxEMRe@r@oAnBQV[f@CDKN]`@ORE@C?C@C@q@bAKNQTs@bAEHEJCB?@AB?@?@CPGHS\\[d@iAbBq@`A_@n@e@r@G@C@C@Yb@q@`A]f@QV_@j@A@?@A@W\\KNABGHOVCBILc@l@W\\GLGHU\\?BABAJOX]d@OVo@dAiAhBa@n@Y`@QXY`@AD{A|B_B~BwAxBMR{A|BU\\W`@sBtCg@z@a@L{@vA]b@Sd@w@lAYh@OQ"}, "start_location": {"lat": 29.77070999999999, "lng": -95.39868799999999}, "transit_details": {"arrival_stop": {"location": {"lat": 29.801027, "lng": -95.45922999999999}, "name": "Hempstead Rd @ W 18th St"}, "arrival_time": {"text": "4:45pm", "time_zone": "America/Chicago", "value": 1642027552}, "departure_stop": {"location": {"lat": 29.77070999999999, "lng": -95.39868799999999}, "name": "Yale St @ Center St"}, "departure_time": {"text": "4:26pm", "time_zone": "America/Chicago", "value": 1642026391}, "headsign": "Hempstead TC", "line": {"agencies": [{"name": "Metropolitan Transit Authority of Harris County", "phone": "1 (713) 635-4000", "url": "http://www.ridemetro.org/"}], "color": "#004080", "name": "Cottage Grove", "short_name": "71", "text_color": "#ffffff", "url": "https://www.ridemetro.org/MetroPDFs/Schedules/BusSchedules/n071-Cottage-Grove.pdf", "vehicle": {"icon": "//maps.gstatic.com/mapfiles/transit/iw2/6/bus2.png", "name": "Bus", "type": "BUS"}}, "num_stops": 28, "trip_short_name": "COTTGROV"}, "travel_mode": "TRANSIT"}, {"distance": {"text": "0.5 mi", "value": 738}, "duration": {"text": "10 mins", "value": 587}, "end_location": {"lat": 29.8019199, "lng": -95.45428179999999}, "html_instructions": "Walk to 4400 W 18th St, Houston, TX 77092, USA", "polyline": {"points": "mo{tDdkseQKPKKKAK?I@IB?Q?aA?M?QAO?OM?M@M?mED@[Ae@?g@ASDKP]d@}@Xq@B]QOIIOMEKKAQUGGEIAE?C?A@C@EBEV_@KMNWHMJSRa@Ts@R}@Jy@Hy@?G@Q@a@"}, "start_location": {"lat": 29.8010254, "lng": -95.4592253}, "steps": [{"distance": {"text": "49 ft", "value": 15}, "duration": {"text": "1 min", "value": 11}, "end_location": {"lat": 29.8011512, "lng": -95.4592626}, "html_instructions": "Head <b>northwest</b>", "polyline": {"points": "mo{tDdkseQKPKK"}, "start_location": {"lat": 29.8010254, "lng": -95.4592253}, "travel_mode": "WALKING"}, {"distance": {"text": "102 ft", "value": 31}, "duration": {"text": "1 min", "value": 23}, "end_location": {"lat": 29.8013705, "lng": -95.4592806}, "html_instructions": "Turn <b>right</b> toward <b>W 18th St</b>", "maneuver": "turn-right", "polyline": {"points": "ep{tDjkseQKAK?I@IB"}, "start_location": {"lat": 29.8011512, "lng": -95.4592626}, "travel_mode": "WALKING"}, {"distance": {"text": "240 ft", "value": 73}, "duration": {"text": "1 min", "value": 61}, "end_location": {"lat": 29.8014508, "lng": -95.4585436}, "html_instructions": "Turn <b>right</b> onto <b>W 18th St</b>", "maneuver": "turn-right", "polyline": {"points": "qq{tDnkseQ?Q?aA?M?QAO?OM?"}, "start_location": {"lat": 29.8013705, "lng": -95.4592806}, "travel_mode": "WALKING"}, {"distance": {"text": "440 ft", "value": 134}, "duration": {"text": "2 mins", "value": 127}, "end_location": {"lat": 29.80261729999999, "lng": -95.45858140000001}, "html_instructions": "Turn <b>left</b> onto <b>Mangum Rd</b>", "maneuver": "turn-left", "polyline": {"points": "ar{tDzfseQM@M?mED"}, "start_location": {"lat": 29.8014508, "lng": -95.4585436}, "travel_mode": "WALKING"}, {"distance": {"text": "0.1 mi", "value": 168}, "duration": {"text": "2 mins", "value": 133}, "end_location": {"lat": 29.8021725, "lng": -95.45703209999999}, "html_instructions": "Turn <b>right</b>", "maneuver": "turn-right", "polyline": {"points": "ky{tDbgseQ@[Ae@?g@ASDKP]d@}@Xq@B]"}, "start_location": {"lat": 29.80261729999999, "lng": -95.45858140000001}, "travel_mode": "WALKING"}, {"distance": {"text": "348 ft", "value": 106}, "duration": {"text": "1 min", "value": 80}, "end_location": {"lat": 29.8024852, "lng": -95.4562641}, "html_instructions": "Turn <b>left</b><div style=\"font-size:0.9em\">Partial restricted usage road</div>", "maneuver": "turn-left", "polyline": {"points": "qv{tDl}reQQOIIOMEKKAQUGGEIAE?C?A@C@EBEV_@"}, "start_location": {"lat": 29.8021725, "lng": -95.45703209999999}, "travel_mode": "WALKING"}, {"distance": {"text": "33 ft", "value": 10}, "duration": {"text": "1 min", "value": 8}, "end_location": {"lat": 29.8025494, "lng": -95.456192}, "html_instructions": "Turn <b>left</b><div style=\"font-size:0.9em\">Restricted usage road</div>", "maneuver": "turn-left", "polyline": {"points": "qx{tDrxreQKM"}, "start_location": {"lat": 29.8024852, "lng": -95.4562641}, "travel_mode": "WALKING"}, {"distance": {"text": "0.1 mi", "value": 201}, "duration": {"text": "2 mins", "value": 144}, "end_location": {"lat": 29.8019199, "lng": -95.45428179999999}, "html_instructions": "Turn <b>right</b><div style=\"font-size:0.9em\">Restricted usage road</div><div style=\"font-size:0.9em\">Destination will be on the left</div>", "maneuver": "turn-right", "polyline": {"points": "}x{tDdxreQNWHMJSRa@Ts@R}@Jy@Hy@?G@Q@a@"}, "start_location": {"lat": 29.8025494, "lng": -95.456192}, "travel_mode": "WALKING"}], "travel_mode": "WALKING"}], "traffic_speed_entry": [], "via_waypoint": []}], "overview_polyline": {"points": "{pntDf~zdQ}@BBMNFjBj@tA`@jBh@bLfDvCx@|AAl@EzACl@DTiALk@j@mCp@BhA`@B@STnAHNNDRANGT]`@MNG@SAy@e@c@YMQMY@KLq@?WK@K?Kj@UFSGi@cAy@cAqAcAeBm@sIiCsC{@cEoAuBo@wA_@y@Gs@?w@JiALo@B{@?c@Cq@G_Cw@MEGV_AnEg@pC?La@tBk@tC_GnY}CzNyDpRS`AMf@o@`ByElJa@x@eK`SyEjJuC|Fm@jAs@nAeArBs@pAg@jA_CtEiAvBq@rAcE`IqCsBI?}@bB_@p@SR[Tg@N}@Nu@Nw@R[TIJ]h@_B~CM\\gE~HsBjEuAhCIRkElIaEdI_CrEyArCzBbBvB~Aj@r@Lj@BlBBVGT?fCDlC?R@xBBdH?bFAfBQ~@MhCDjKB`B\\zBDrA@vBBbDJhLHfLRf_@JbPFdH?jA{DDaCB{BCgG?oABWBUB[L_DpAgAb@o@Lo@FgACeAMg@KmAe@yAq@u@a@aCgBo@c@m@WWIqCm@c@EqBDiC@oAFQJO@_@DWNB[}A?[?@K?Bi@?Ev@Et@ExAGbBm@??J?S~@?hC@IlA[lG}@`Qe@`KUbE@`CBhH@nGB|GDtJM|DWpNIfEmC@q@DeARiA\\a@HaBVuAD_CBuJHs@F{E?gIBeHJaA@KGeBOaCa@OAqCY_@?c@@E?MHCFEz@FZJJb@DbDLZ@@dJBhFDfQFhYDfP@dHA^ETKVeB`DwApCeD`GU\\]`@]V[LyAVw@NYPCJBNFH]Ja@f@STKTIXu@hAKTMP_ClD{@|A}@~Ba@tAOFcAxCUj@cArBkApBaBhCgA`BcHpK}@tAm@t@I@GB}@rAqAnBEJCR[f@wDzFe@r@G@GB{BdDc@p@oBrC}@rAAFAJOXm@|@yBnDgBlCuG|JwCpEsBtCg@z@a@L{@vA]b@Sd@qAvBOQKPKKWASD?sBA_@[@{ED?aAA{@Vi@~@oBB]QOYWEKKAY]GOBOZe@KMNWTa@Ra@Ts@R}@TsBB{@"}, "summary": "", "warnings": ["Walking directions are in beta. Use caution \u2013 This route may be missing sidewalks or pedestrian paths."], "waypoint_order": []}, {"bounds": {"northeast": {"lat": 29.8026498, "lng": -95.3316074}, "southwest": {"lat": 29.727705, "lng": -95.4593211}}, "copyrights": "Map data \u00a92022", "legs": [{"arrival_time": {"text": "4:49pm", "time_zone": "America/Chicago", "value": 1642027775}, "departure_time": {"text": "3:33pm", "time_zone": "America/Chicago", "value": 1642023206}, "distance": {"text": "13.1 mi", "value": 21047}, "duration": {"text": "1 hour 16 mins", "value": 4569}, "end_address": "4400 W 18th St, Houston, TX 77092, USA", "end_location": {"lat": 29.8019199, "lng": -95.45428179999999}, "start_address": "4528 Leeland St, Houston, TX 77023, USA", "start_location": {"lat": 29.7346955, "lng": -95.3342771}, "steps": [{"distance": {"text": "115 ft", "value": 35}, "duration": {"text": "1 min", "value": 34}, "end_location": {"lat": 29.7350131, "lng": -95.33430129999999}, "html_instructions": "Walk to Ernestine St @ Pease St", "polyline": {"points": "{pntDf~zdQ}@B"}, "start_location": {"lat": 29.7346955, "lng": -95.3342771}, "steps": [{"distance": {"text": "115 ft", "value": 35}, "duration": {"text": "1 min", "value": 34}, "end_location": {"lat": 29.7350131, "lng": -95.33430129999999}, "polyline": {"points": "{pntDf~zdQ}@B"}, "start_location": {"lat": 29.7346955, "lng": -95.3342771}, "travel_mode": "WALKING"}], "travel_mode": "WALKING"}, {"distance": {"text": "4.1 mi", "value": 6530}, "duration": {"text": "20 mins", "value": 1181}, "end_location": {"lat": 29.757234, "lng": -95.36708100000001}, "html_instructions": "Bus towards N Shepherd P&R", "polyline": {"points": "yrntDj~zdQBMNFz@Vn@Rj@Ph@NJD|@VNDPDfBh@n@RlDbA|Ad@~Af@v@Pn@Al@?d@EF?p@Ch@?l@DTiADOF[Nq@Z{AXAVDd@Pb@NB@STnAHNNBD@LANGT]`@MNG@K?GAWKa@Yc@YMQGIEO@E?EBKHe@?WK@K?Kj@UFSGMY[i@QYg@i@c@_@m@c@eBk@?Aa@KMEsDiAoBm@_@KICuAc@SG]KCA]KcCu@eBi@OEm@Qi@Me@GS?QAa@@WBC@G?SDA?E@c@F]BK?c@Ba@?Y?C?_@C[CUCWKe@Oa@M_@MMEGVu@pDI\\ABKf@SjAEX?La@tBa@rBI`@cBfIQx@wBnKQ|@S~@YnAG\\]|A[xAKd@]`BCLGXUlAMn@Op@Op@iAvF]bBEXAFI^CNCHCNIV]~@Q`@Wj@INeBjDqAdCOZGLGHADWh@KPm@jAGLGJaB~CgBhDyAtCKTgBlDy@zAk@jAuAnCQZUj@Wd@_@t@MTKJg@bAIN]p@OZMTINCFQZS\\AFS`@INGP{AtCA@IRWh@GLMPCHo@lAMPKVIL?@?@INCFA@GJ?@A@ABEHCDA@a@t@i@fA{@`BKTUb@QMuB}AGGA?CAA?A@A??@A@EDu@xA_@p@SRQLIFKDODEBE?G@IB]DMBKBEBM@UD_@HIBC@IBQLIFIJKRQTsAlCKP?BABADINs@pAi@bAgArBa@t@aBnDQZgArBMTADABCFA@OVwAnCuAnCII"}, "start_location": {"lat": 29.735013, "lng": -95.334301}, "transit_details": {"arrival_stop": {"location": {"lat": 29.757234, "lng": -95.36708100000001}, "name": "Lamar St @ Milam St"}, "arrival_time": {"text": "3:53pm", "time_zone": "America/Chicago", "value": 1642024421}, "departure_stop": {"location": {"lat": 29.735013, "lng": -95.334301}, "name": "Ernestine St @ Pease St"}, "departure_time": {"text": "3:34pm", "time_zone": "America/Chicago", "value": 1642023240}, "headsign": "N Shepherd P&R", "line": {"agencies": [{"name": "Metropolitan Transit Authority of Harris County", "phone": "1 (713) 635-4000", "url": "http://www.ridemetro.org/"}], "color": "#004080", "name": "Telephone / Heights", "short_name": "40", "text_color": "#ffffff", "url": "https://www.ridemetro.org/MetroPDFs/Schedules/BusSchedules/n040-Telephone-Heights.pdf", "vehicle": {"icon": "//maps.gstatic.com/mapfiles/transit/iw2/6/bus2.png", "name": "Bus", "type": "BUS"}}, "num_stops": 21, "trip_short_name": "TELEHEIGHT"}, "travel_mode": "TRANSIT"}, {"distance": {"text": "430 ft", "value": 131}, "duration": {"text": "2 mins", "value": 99}, "end_location": {"lat": 29.7576393, "lng": -95.3681714}, "html_instructions": "Walk to Louisiana St @ Lamar St", "polyline": {"points": "q}rtDjkaeQIPGL[p@cAlBJHNJ"}, "start_location": {"lat": 29.7572076, "lng": -95.3671018}, "steps": [{"distance": {"text": "381 ft", "value": 116}, "duration": {"text": "1 min", "value": 86}, "end_location": {"lat": 29.7577207, "lng": -95.3681064}, "html_instructions": "Head <b>northwest</b> on <b>Lamar St</b> toward <b>Milam St</b>", "polyline": {"points": "q}rtDjkaeQIPGL[p@cAlBJH"}, "start_location": {"lat": 29.7572076, "lng": -95.3671018}, "travel_mode": "WALKING"}, {"distance": {"text": "49 ft", "value": 15}, "duration": {"text": "1 min", "value": 13}, "end_location": {"lat": 29.7576393, "lng": -95.3681714}, "html_instructions": "Turn <b>left</b> onto <b>Louisiana St</b>", "maneuver": "turn-left", "polyline": {"points": "w`stDtqaeQNJ"}, "start_location": {"lat": 29.7577207, "lng": -95.3681064}, "travel_mode": "WALKING"}], "travel_mode": "WALKING"}, {"distance": {"text": "8.5 mi", "value": 13613}, "duration": {"text": "33 mins", "value": 1957}, "end_location": {"lat": 29.801027, "lng": -95.45922999999999}, "html_instructions": "Bus towards Greenspoint TC", "polyline": {"points": "a`stDvqaeQINUOwAgA}@q@]Wm@c@e@]MISMmCsBGC{BcBQMCCi@_@QMUQkA{@aCiB[UqCqBAAqCqBa@v@k@dAINIJGHA@A@GJGDC@C@C@E?M?C?Q?M?ICIEAAEGC\\SdBGd@E^O`A?BM|@M|@EZOjAALGX?@?@CJALGl@?@A@?BAHAJAHShAETCJEPCHCLGVWdAKXQh@O`@GTGLS^IPS\\AB}@~AGFADABMv@EV?@OfAOnAEXAPGd@Gn@?XGrACb@Cr@Ev@ALEp@AVEv@ALGrAEt@G~@?BGdAATGlACj@ItACb@AT?TAFG`AATCb@GzAGtAMfCANGfA?DKtBAHMfCEbAANALCr@AVAr@Al@?d@CrAAx@Cx@?NCzBAJAz@Cv@GnAQvCEz@EbAM~B?HAp@C|@GjCCj@MtFGHAB?BALCb@Af@?R?TA`@A`@ARGt@AVGp@AXGz@KtBCZ?B?@@D?B@D@FGlACd@A`@GtACZA\\KfBG|@Ez@C`@C\\A`@El@El@Cb@CZCf@Cd@AREp@APIzACXANATALANAHC\\AZATC\\A`@IbBEp@ALCp@GfAG~@G~@Cj@AXCVAL?BCd@AL?NCl@Cd@El@Ab@Ev@ANMxCCXAXAXQtCCl@?z@@dA?|A@d@?~B@d@?N?zA?P?N@d@?b@?X?\\?^?X?N?j@?b@@`@?t@@j@?j@?N@`@?z@@dC?V@h@?RARAr@AJ?NAP?RCZAV?FCxA?XExACpAClACnAAj@CvAC|@?NA`@Ab@GxAAVIhAI|BEf@KnDEv@Cv@EpAGlACz@?DA`@APCvAAPCDABCHC`AAPAF@JC@A@A@A@A@A@?@CBc@FKDG@C?IBC@C@C@C@A@EBMLwAlAc@\\sAhA_Av@MJa@^sBbB_Av@QLq@h@IHKHOLw@p@w@n@]Z_@ZSPGFIFaAz@EBe@b@QRUVY\\q@~@s@`AOPGF?@o@v@?@CB}@hAQPKNYd@c@|@ILg@bAU`@IPA@S`@g@bAw@zAq@rA}AxCkA|Bc@v@IPYh@Uf@IP?`@?DCHI\\I`@I`@CVATARA^?\\Ar@?^@`@@@?b@?@@^@hB?f@?XCjA?D?XCXCZEVId@Ot@Ot@GVUfAAD{@`E?@Mj@?@K^[|AMn@Sx@On@I`@I^[xAGZMn@Mh@Kf@Qx@Qr@_@rBg@`DKl@Gd@CXMdA?BALGj@CXCVCXE`@IfAMzBE|AAr@AXC?Ar@CbDAjCCpF@l@@v@AzG~@@X?V?Z^?r@Ap@?bAAtA?R?d@?XEAw@B?u@@S?_@AcA@cA@w@@k@ZA^@DA`AAN??H?P?f@?j@?l@?d@JCF@D?DABA@CDIDSB[@g@BUBM@AN]FGJY@K?MCUCKCCA?OGQAGAE?E@GDQJOPMD[BY@W?aAAY@c@?AVAzAAb@?f@?L?ZAn@?`B?R?f@sBNO@Q@Y?W?K@wA@y@@K?u@?wA@U?O?}@@I?Y?_@?_@@oA@oD@eABM?A?a@?c@?qA@W?w@?cA@s@?c@@_@?uA@a@?OAY?q@@c@?_@?[@cA@a@?U?G?C?E?]@S?S@]@c@?}@@M?w@@]?mA@_B@W?E?e@Aa@EQEWG[OUM[QIG_@Ui@i@e@_@OQQQOMCCc@a@MR{A|BU\\W`@sBtCg@z@a@L{@vA]b@Sd@w@lAYh@OQ"}, "start_location": {"lat": 29.757614, "lng": -95.368125}, "transit_details": {"arrival_stop": {"location": {"lat": 29.801027, "lng": -95.45922999999999}, "name": "Hempstead Rd @ W 18th St"}, "arrival_time": {"text": "4:39pm", "time_zone": "America/Chicago", "value": 1642027188}, "departure_stop": {"location": {"lat": 29.757614, "lng": -95.368125}, "name": "Louisiana St @ Lamar St"}, "departure_time": {"text": "4:07pm", "time_zone": "America/Chicago", "value": 1642025231}, "headsign": "Greenspoint TC", "line": {"agencies": [{"name": "Metropolitan Transit Authority of Harris County", "phone": "1 (713) 635-4000", "url": "http://www.ridemetro.org/"}], "color": "#004080", "name": "Antoine / Washington", "short_name": "85", "text_color": "#ffffff", "url": "https://www.ridemetro.org/MetroPDFs/Schedules/BusSchedules/n085-Antoine-Washington.pdf", "vehicle": {"icon": "//maps.gstatic.com/mapfiles/transit/iw2/6/bus2.png", "name": "Bus", "type": "BUS"}}, "num_stops": 46, "trip_short_name": "ANTOINWAS"}, "travel_mode": "TRANSIT"}, {"distance": {"text": "0.5 mi", "value": 738}, "duration": {"text": "10 mins", "value": 587}, "end_location": {"lat": 29.8019199, "lng": -95.45428179999999}, "html_instructions": "Walk to 4400 W 18th St, Houston, TX 77092, USA", "polyline": {"points": "mo{tDdkseQKPKKKAK?I@IB?Q?aA?M?QAO?OM?M@M?mED@[Ae@?g@ASDKP]d@}@Xq@B]QOIIOMEKKAQUGGEIAE?C?A@C@EBEV_@KMNWHMJSRa@Ts@R}@Jy@Hy@?G@Q@a@"}, "start_location": {"lat": 29.8010254, "lng": -95.4592253}, "steps": [{"distance": {"text": "49 ft", "value": 15}, "duration": {"text": "1 min", "value": 11}, "end_location": {"lat": 29.8011512, "lng": -95.4592626}, "html_instructions": "Head <b>northwest</b>", "polyline": {"points": "mo{tDdkseQKPKK"}, "start_location": {"lat": 29.8010254, "lng": -95.4592253}, "travel_mode": "WALKING"}, {"distance": {"text": "102 ft", "value": 31}, "duration": {"text": "1 min", "value": 23}, "end_location": {"lat": 29.8013705, "lng": -95.4592806}, "html_instructions": "Turn <b>right</b> toward <b>W 18th St</b>", "maneuver": "turn-right", "polyline": {"points": "ep{tDjkseQKAK?I@IB"}, "start_location": {"lat": 29.8011512, "lng": -95.4592626}, "travel_mode": "WALKING"}, {"distance": {"text": "240 ft", "value": 73}, "duration": {"text": "1 min", "value": 61}, "end_location": {"lat": 29.8014508, "lng": -95.4585436}, "html_instructions": "Turn <b>right</b> onto <b>W 18th St</b>", "maneuver": "turn-right", "polyline": {"points": "qq{tDnkseQ?Q?aA?M?QAO?OM?"}, "start_location": {"lat": 29.8013705, "lng": -95.4592806}, "travel_mode": "WALKING"}, {"distance": {"text": "440 ft", "value": 134}, "duration": {"text": "2 mins", "value": 127}, "end_location": {"lat": 29.80261729999999, "lng": -95.45858140000001}, "html_instructions": "Turn <b>left</b> onto <b>Mangum Rd</b>", "maneuver": "turn-left", "polyline": {"points": "ar{tDzfseQM@M?mED"}, "start_location": {"lat": 29.8014508, "lng": -95.4585436}, "travel_mode": "WALKING"}, {"distance": {"text": "0.1 mi", "value": 168}, "duration": {"text": "2 mins", "value": 133}, "end_location": {"lat": 29.8021725, "lng": -95.45703209999999}, "html_instructions": "Turn <b>right</b>", "maneuver": "turn-right", "polyline": {"points": "ky{tDbgseQ@[Ae@?g@ASDKP]d@}@Xq@B]"}, "start_location": {"lat": 29.80261729999999, "lng": -95.45858140000001}, "travel_mode": "WALKING"}, {"distance": {"text": "348 ft", "value": 106}, "duration": {"text": "1 min", "value": 80}, "end_location": {"lat": 29.8024852, "lng": -95.4562641}, "html_instructions": "Turn <b>left</b><div style=\"font-size:0.9em\">Partial restricted usage road</div>", "maneuver": "turn-left", "polyline": {"points": "qv{tDl}reQQOIIOMEKKAQUGGEIAE?C?A@C@EBEV_@"}, "start_location": {"lat": 29.8021725, "lng": -95.45703209999999}, "travel_mode": "WALKING"}, {"distance": {"text": "33 ft", "value": 10}, "duration": {"text": "1 min", "value": 8}, "end_location": {"lat": 29.8025494, "lng": -95.456192}, "html_instructions": "Turn <b>left</b><div style=\"font-size:0.9em\">Restricted usage road</div>", "maneuver": "turn-left", "polyline": {"points": "qx{tDrxreQKM"}, "start_location": {"lat": 29.8024852, "lng": -95.4562641}, "travel_mode": "WALKING"}, {"distance": {"text": "0.1 mi", "value": 201}, "duration": {"text": "2 mins", "value": 144}, "end_location": {"lat": 29.8019199, "lng": -95.45428179999999}, "html_instructions": "Turn <b>right</b><div style=\"font-size:0.9em\">Restricted usage road</div><div style=\"font-size:0.9em\">Destination will be on the left</div>", "maneuver": "turn-right", "polyline": {"points": "}x{tDdxreQNWHMJSRa@Ts@R}@Jy@Hy@?G@Q@a@"}, "start_location": {"lat": 29.8025494, "lng": -95.456192}, "travel_mode": "WALKING"}], "travel_mode": "WALKING"}], "traffic_speed_entry": [], "via_waypoint": []}], "overview_polyline": {"points": "{pntDf~zdQ}@BBMNFjBj@tA`@jBh@bLfDvCx@|AAl@EzACl@DTiALk@j@mCp@BhA`@B@STnAHNNDRANGT]`@MNG@SAy@e@c@YMQMY@KLq@?WK@K?Kj@UFSGi@cAy@cAqAcAeBm@sIiCsC{@cEoAuBo@wA_@y@Gs@?w@JiALo@B{@?c@Cq@G_Cw@MEGV_AnEg@pC?La@tBk@tC_GnY}CzNyDpRS`AMf@o@`ByElJa@x@eK`SyEjJuC|Fm@jAs@nAeArBs@pAg@jA_CtEiAvBq@rAcE`IqCsBI?}@bB_@p@SR[Tg@N}@Nu@Nw@R[TIJ]h@_B~CM\\gE~HsBjEuAhCIRgBfDuAnCIIBBIPc@~@cAlBJHNJDIINUOuCyB_CcBeHiFqImGsCsBqCqBa@v@u@tAQTSTQDq@?SIGIe@hEk@`E_@rCQxA]tBQt@_@|A]bAWv@[l@}ArCILOz@e@pDOpAGn@?XKvBQjDg@pJ_@|H_Bp\\E~CIvEKzFe@fJMhCEnBKvDMtFGHAFEp@CrBk@`KAf@@HEtAQxD[~Fa@dHs@pMcA~Rg@lKSnDCl@?z@@bD@dD@bD@rB@nGFlKKxDW|MIpEMvDSfEQvEWnGGtBEhBEHKdBALCBEF{@Re@PaMjKmCxBkCxBqE|Dg@j@kA|AkA|As@|@oAzAe@t@kBpDgAxBqJbRIP?`@CNS~@Mx@EfB@vBBnDCrCCr@Ir@q@hDiC|LwB`K}@~DgAtGSrASpBSvBOhBSxEClAC?Ar@EnHA~G?rIxA@V?Z^AdBArE?XEAw@B?u@@s@?gCBcBz@?fACN??H?x@?xA?d@JCL@HCFMHo@D}@DOVe@Le@Cc@GOQGYCK@YPOPMDu@DyAA}@@CrBAtBAlEoDReJFqLF}HD{DBaD?uGDoEFqDBcD?s@Ks@W{A}@qBmBSQc@a@MRqBzCkCvDg@z@a@L{@vA]b@Sd@w@lAYh@OQKPKKKAU@IB?Q?oAAa@?OM?[@mED@[AmAB_@v@{AXq@B][YUYKAQUMQAIFQV_@KMXe@^u@Ts@^wBHaABs@"}, "summary": "", "warnings": ["Walking directions are in beta. Use caution \u2013 This route may be missing sidewalks or pedestrian paths."], "waypoint_order": []}, {"bounds": {"northeast": {"lat": 29.8038169, "lng": -95.33393079999999}, "southwest": {"lat": 29.7347045, "lng": -95.4599238}}, "copyrights": "Map data \u00a92022", "legs": [{"arrival_time": {"text": "4:51pm", "time_zone": "America/Chicago", "value": 1642027884}, "departure_time": {"text": "3:34pm", "time_zone": "America/Chicago", "value": 1642023279}, "distance": {"text": "12.3 mi", "value": 19852}, "duration": {"text": "1 hour 17 mins", "value": 4605}, "end_address": "4400 W 18th St, Houston, TX 77092, USA", "end_location": {"lat": 29.8019199, "lng": -95.45428179999999}, "start_address": "4528 Leeland St, Houston, TX 77023, USA", "start_location": {"lat": 29.7347045, "lng": -95.3343064}, "steps": [{"distance": {"text": "0.9 mi", "value": 1369}, "duration": {"text": "17 mins", "value": 1040}, "end_location": {"lat": 29.73969, "lng": -95.3454675}, "html_instructions": "Walk to Leeland/Third Ward NB", "polyline": {"points": "{pntDl~zdQg@OaBg@k@SENUfAMPuA~GqB`Kw@~Dy@hECNWfAWlACJCJ]~Aa@lBCLKb@c@xBCNi@jCCNm@rCCNo@bDENMh@Mn@MEwAa@"}, "start_location": {"lat": 29.7347045, "lng": -95.3343064}, "steps": [{"distance": {"text": "364 ft", "value": 111}, "duration": {"text": "1 min", "value": 81}, "end_location": {"lat": 29.7356372, "lng": -95.3340089}, "html_instructions": "Head <b>north</b> on <b>Ernestine St</b> toward <b>Pease St</b>", "polyline": {"points": "{pntDl~zdQg@OaBg@k@SEN"}, "start_location": {"lat": 29.7347045, "lng": -95.3343064}, "travel_mode": "WALKING"}, {"distance": {"text": "0.7 mi", "value": 1202}, "duration": {"text": "15 mins", "value": 909}, "end_location": {"lat": 29.7392466, "lng": -95.3456424}, "html_instructions": "Turn <b>left</b> onto <b>Leeland St</b>", "maneuver": "turn-left", "polyline": {"points": "wvntDp|zdQUfAMPuA~GqB`Kw@~Dy@hECNWfAWlACJCJ]~Aa@lBCLKb@c@xBCNi@jCCNm@rCCNo@bDENMh@Mn@ME"}, "start_location": {"lat": 29.7356372, "lng": -95.3340089}, "travel_mode": "WALKING"}, {"distance": {"text": "184 ft", "value": 56}, "duration": {"text": "1 min", "value": 50}, "end_location": {"lat": 29.73969, "lng": -95.3454675}, "html_instructions": "Turn <b>right</b> onto <b>Scott St</b><div style=\"font-size:0.9em\">Destination will be on the left</div>", "maneuver": "turn-right", "polyline": {"points": "imotDfe}dQwAa@"}, "start_location": {"lat": 29.7392466, "lng": -95.3456424}, "travel_mode": "WALKING"}], "travel_mode": "WALKING"}, {"distance": {"text": "2.2 mi", "value": 3531}, "duration": {"text": "14 mins", "value": 840}, "end_location": {"lat": 29.760969, "lng": -95.36625699999999}, "html_instructions": "Light rail towards Theater District WB", "polyline": {"points": "gpotDzd}dQABWGsAa@YIQEQEOCSCWESAuCQOAc@CMAO?Q?M@O@G@OBKDIBMFEBEBGDGBEDGDEFGFGFEJEHA@GHsAfCEJGJGHKJIHIFOHKFOFMBMBMBO@O?IAC?MAOCQEUIGCYK]OUIOGMEQEMCQEOCC?KAUCUAO?Q?S@Q@_@B[Bu@FUBI@a@B_AH_AHuALU@WBI@E@C?KBM@IBI@MDmAZk@NMHQHIBIDQDc@JSFMDMFIDIFIDIJIFQLIHKFKDMHMJIFIJKLA@INk@fAaAlBg@~@S^MTc@z@oAbCMRi@dAw@zACDCDCFq@pAYj@OVCHOVGLGNWl@GNINGPKPKRGPGNKNIJg@`AS`@S`@S^GNENAL?L@LBNFLFJf@n@FHFJDJBN@H?HCXGVOZYl@c@|@GLIN{@xACHQZoAdCa@v@aAlBEJeBdDS`@sAhC[l@_AnBGJ{@`Bm@lAMVg@`Ac@v@GNEHEHABc@v@a@x@_@r@cB|CEHsAjCQ\\u@zADD"}, "start_location": {"lat": 29.739724, "lng": -95.345582}, "transit_details": {"arrival_stop": {"location": {"lat": 29.760969, "lng": -95.36625699999999}, "name": "Theater District"}, "arrival_time": {"text": "4:06pm", "time_zone": "America/Chicago", "value": 1642025160}, "departure_stop": {"location": {"lat": 29.739724, "lng": -95.345582}, "name": "Leeland/Third Ward NB"}, "departure_time": {"text": "3:52pm", "time_zone": "America/Chicago", "value": 1642024320}, "headsign": "Theater District WB", "line": {"agencies": [{"name": "Metropolitan Transit Authority of Harris County", "phone": "1 (713) 635-4000", "url": "http://www.ridemetro.org/"}], "color": "#79466a", "name": "Metrorail Purple Line", "short_name": "Purple", "text_color": "#ffffff", "url": "https://www.ridemetro.org/Pages/PurpleLine.aspx", "vehicle": {"icon": "//maps.gstatic.com/mapfiles/transit/iw2/6/tram2.png", "name": "Light rail", "type": "TRAM"}}, "num_stops": 4}, "travel_mode": "TRANSIT"}, {"distance": {"text": "230 ft", "value": 70}, "duration": {"text": "1 min", "value": 63}, "end_location": {"lat": 29.7606014, "lng": -95.3658147}, "html_instructions": "Walk to Louisiana St @ Capitol St", "polyline": {"points": "gustD|eaeQb@}@NUFMRL"}, "start_location": {"lat": 29.7609995, "lng": -95.36623089999999}, "steps": [{"distance": {"text": "177 ft", "value": 54}, "duration": {"text": "1 min", "value": 41}, "end_location": {"lat": 29.7607388, "lng": -95.3658063}, "html_instructions": "Head <b>southeast</b> on <b>Capitol St</b> toward <b>Louisiana St</b>", "polyline": {"points": "gustD|eaeQb@}@NU"}, "start_location": {"lat": 29.7609995, "lng": -95.36623089999999}, "travel_mode": "WALKING"}, {"distance": {"text": "52 ft", "value": 16}, "duration": {"text": "1 min", "value": 22}, "end_location": {"lat": 29.7606014, "lng": -95.3658147}, "html_instructions": "Turn <b>right</b> onto <b>Louisiana St</b>", "maneuver": "turn-right", "polyline": {"points": "ssstDhcaeQFMRL"}, "start_location": {"lat": 29.7607388, "lng": -95.3658063}, "travel_mode": "WALKING"}], "travel_mode": "WALKING"}, {"distance": {"text": "6.8 mi", "value": 10968}, "duration": {"text": "16 mins", "value": 960}, "end_location": {"lat": 29.783441, "lng": -95.453863}, "html_instructions": "Bus towards Cypress/Via Northwest TC", "polyline": {"points": "srstD`caeQILQMCCi@_@QMUQkA{@}C_CqCqBAA_CcBQM_@WWSQMKGIG]U]U_@YGEGECAMI_Am@OCy@S[EYESAA?[?E?U?E@G?G@I@UB]HQFQDQHSJQJEBIDg@\\i@^SNe@ZUPA@A?A@?@_@Vy@l@CBA?YP?@A?EDUN]T[VEBGDC@?@KFUP[VC@y@p@IHOJIH_@VQJCBC@C@WB]XABu@f@A@{A~@q@`@a@R_@PCB{@^_EnBA@o@ZSJKDm@XC@c@N}C~A{@`@CBE@?@eAn@}@f@E@w@f@a@VgA`Ao@p@GFA@QTCB?@W^OXIPMTO\\GNWr@K\\IVSx@]~A{@nDMd@K\\YfAG\\On@WpASbAGb@OdAIp@Gp@Eb@Ef@CZC^Ap@?p@Ad@@b@LzCJ|@Jj@@HN~@Px@HXDNV`AZjA~@fDDNZlATbA@DHb@P~@Jp@Hh@Jp@FZb@hDPvAJt@LrAF~@FjAHjA@f@Dd@B|A@^?R@r@?D?@@F?R@fB@dB?H?@?L@J?@?T?@?D@R?N?T?@@T?TFrG@hA?D@Z?p@@zA?B?F?`@?B?B?h@@lA@jCBnE@nB@f@?f@?L@x@?JDdG@jB@lB@r@?f@@fBBxABxA?~@E`CCbACt@Cr@Cf@Cf@IpAIhAMvASnBUfCQpBADEf@QxBADCRGj@Cb@Ef@G|@I~ACd@AHCp@Ap@EzA?TAj@?nA?@@lA@jC?@AHBzE@nD@b@?`@?B?D@zC?fB@nBBbECn@B~E?N?P@f@?x@?ZBzD?`A@bC@nE@T?lA?~A?FBlB@tF@tB@zB@jA?p@ArAAhA?ZAVAbAKbCCh@KxBEx@Ex@E`AEt@AJCf@?@KxBCh@QbDE|@SzCC^A^MbCGpAC^Gx@CVKzBMxBIhBAPOzBMxBGpAIrAIpAANGjAWjFIfBARAPKdC?LEjAIbCCzACx@?PC|CAR?v@@|@@|J?~@?`@?|A?RArAIRAHAH?`@Ch@Cx@AXARCVEb@EPCJK\\IRIRINKPILEDCDKJGDKJQNKFMFIDKDUHIBI@ODg@FQ?y@CK?c@CGA[Cs@EQCA?eAI}@Em@?aE@Q?c@A?`@?BAb@?B?D?h@?HAvA?B?zA?Xp@AVEZAFNBn@L?L?B@?pAM?"}, "start_location": {"lat": 29.760582, "lng": -95.365768}, "transit_details": {"arrival_stop": {"location": {"lat": 29.783441, "lng": -95.453863}, "name": "Northwest Transit Center - Temporary"}, "arrival_time": {"text": "4:28pm", "time_zone": "America/Chicago", "value": 1642026480}, "departure_stop": {"location": {"lat": 29.760582, "lng": -95.365768}, "name": "Louisiana St @ Capitol St"}, "departure_time": {"text": "4:12pm", "time_zone": "America/Chicago", "value": 1642025520}, "headsign": "Cypress/Via Northwest TC", "line": {"agencies": [{"name": "Metropolitan Transit Authority of Harris County", "phone": "1 (713) 635-4000", "url": "http://www.ridemetro.org/"}], "color": "#004080", "name": "Cypress P&R", "short_name": "217", "text_color": "#ffffff", "url": "https://www.ridemetro.org/MetroPDFs/Schedules/BusSchedules/nwcorridor.pdf", "vehicle": {"icon": "//maps.gstatic.com/mapfiles/transit/iw2/6/bus2.png", "name": "Bus", "type": "BUS"}}, "num_stops": 2, "trip_short_name": "CYPRESS"}, "travel_mode": "TRANSIT"}, {"distance": {"text": "0.1 mi", "value": 153}, "duration": {"text": "2 mins", "value": 114}, "end_location": {"lat": 29.7837801, "lng": -95.4554653}, "html_instructions": "Walk to Northwest Transit Center - North Platform", "polyline": {"points": "mcxtDvireQ@l@?fAAP?FAPAxAAX?f@"}, "start_location": {"lat": 29.7837477, "lng": -95.4538754}, "steps": [{"distance": {"text": "0.1 mi", "value": 153}, "duration": {"text": "2 mins", "value": 114}, "end_location": {"lat": 29.7837801, "lng": -95.4554653}, "html_instructions": "Head <b>west</b> on <b>Old Katy Rd</b>", "polyline": {"points": "mcxtDvireQ@l@?fAAP?FAPAxAAX?f@"}, "start_location": {"lat": 29.7837477, "lng": -95.4538754}, "travel_mode": "WALKING"}], "travel_mode": "WALKING"}, {"distance": {"text": "2.0 mi", "value": 3143}, "duration": {"text": "9 mins", "value": 523}, "end_location": {"lat": 29.803817, "lng": -95.458625}, "html_instructions": "Bus towards Dacoma Shuttle", "polyline": {"points": "w~wtDvwreQRwAF@D?DABA@CDIDSB[@g@BUBM@AN]FGJY@K?MCUCKCCA?OGQAGAE?E@GDQJOPMD[BY@W?aAAY@c@?AVAzAAb@?f@?L?ZAn@?`B?R?f@sBNO@Q@Y?W?K@wA@y@@K?u@?wA@U?O?}@@I?Y?_@?_@@oA@oD@eABM?A?a@?c@?qA@W?w@?cA@s@?c@@_@?uA@a@?OAY?q@@c@?_@?[@cA@a@?U?G?C?E?]@S?S@]@c@?}@@M?w@@]?mA@_B@W?E?e@Aa@EQEWG[OUM[QIG_@Ui@i@e@_@OQQQOMCCc@a@MR{A|BU\\W`@sBtCg@z@a@L{@vA]b@Sd@w@lAYh@OVk@r@Yj@EsB?]@aAAU?a@[@uEDaA@gAD_A@e@??I"}, "start_location": {"lat": 29.7830001, "lng": -95.4561157}, "transit_details": {"arrival_stop": {"location": {"lat": 29.803817, "lng": -95.458625}, "name": "Mangum Rd @ W 20th St"}, "arrival_time": {"text": "4:43pm", "time_zone": "America/Chicago", "value": 1642027423}, "departure_stop": {"location": {"lat": 29.7830001, "lng": -95.4561157}, "name": "Northwest Transit Center - North Platform"}, "departure_time": {"text": "4:35pm", "time_zone": "America/Chicago", "value": 1642026900}, "headsign": "Dacoma Shuttle", "line": {"agencies": [{"name": "Metropolitan Transit Authority of Harris County", "phone": "1 (713) 635-4000", "url": "http://www.ridemetro.org/"}], "color": "#004080", "name": "Dacoma", "short_name": "89", "text_color": "#ffffff", "url": "https://www.ridemetro.org/MetroPDFs/Schedules/BusSchedules/n089-Dacoma.pdf", "vehicle": {"icon": "//maps.gstatic.com/mapfiles/transit/iw2/6/bus2.png", "name": "Bus", "type": "BUS"}}, "num_stops": 9, "trip_short_name": "DACOMA"}, "travel_mode": "TRANSIT"}, {"distance": {"text": "0.4 mi", "value": 618}, "duration": {"text": "8 mins", "value": 461}, "end_location": {"lat": 29.8019199, "lng": -95.45428179999999}, "html_instructions": "Walk to 4400 W 18th St, Houston, TX 77092, USA", "polyline": {"points": "{`|tDlgseQd@A~@AdACbAA@[Ae@?g@ASDKP]d@}@Xq@B]QOIIOMEKKAQUGGEIAE?C?A@C@EBEV_@KMNWHMJSRa@Ts@R}@Jy@Hy@?G@Q@a@"}, "start_location": {"lat": 29.8038169, "lng": -95.458628}, "steps": [{"distance": {"text": "436 ft", "value": 133}, "duration": {"text": "2 mins", "value": 96}, "end_location": {"lat": 29.80261729999999, "lng": -95.45858140000001}, "html_instructions": "Head <b>south</b> on <b>Mangum Rd</b>", "polyline": {"points": "{`|tDlgseQd@A~@AdACbAA"}, "start_location": {"lat": 29.8038169, "lng": -95.458628}, "travel_mode": "WALKING"}, {"distance": {"text": "0.1 mi", "value": 168}, "duration": {"text": "2 mins", "value": 133}, "end_location": {"lat": 29.8021725, "lng": -95.45703209999999}, "html_instructions": "Turn <b>left</b>", "maneuver": "turn-left", "polyline": {"points": "ky{tDbgseQ@[Ae@?g@ASDKP]d@}@Xq@B]"}, "start_location": {"lat": 29.80261729999999, "lng": -95.45858140000001}, "travel_mode": "WALKING"}, {"distance": {"text": "348 ft", "value": 106}, "duration": {"text": "1 min", "value": 80}, "end_location": {"lat": 29.8024852, "lng": -95.4562641}, "html_instructions": "Turn <b>left</b><div style=\"font-size:0.9em\">Partial restricted usage road</div>", "maneuver": "turn-left", "polyline": {"points": "qv{tDl}reQQOIIOMEKKAQUGGEIAE?C?A@C@EBEV_@"}, "start_location": {"lat": 29.8021725, "lng": -95.45703209999999}, "travel_mode": "WALKING"}, {"distance": {"text": "33 ft", "value": 10}, "duration": {"text": "1 min", "value": 8}, "end_location": {"lat": 29.8025494, "lng": -95.456192}, "html_instructions": "Turn <b>left</b><div style=\"font-size:0.9em\">Restricted usage road</div>", "maneuver": "turn-left", "polyline": {"points": "qx{tDrxreQKM"}, "start_location": {"lat": 29.8024852, "lng": -95.4562641}, "travel_mode": "WALKING"}, {"distance": {"text": "0.1 mi", "value": 201}, "duration": {"text": "2 mins", "value": 144}, "end_location": {"lat": 29.8019199, "lng": -95.45428179999999}, "html_instructions": "Turn <b>right</b><div style=\"font-size:0.9em\">Restricted usage road</div><div style=\"font-size:0.9em\">Destination will be on the left</div>", "maneuver": "turn-right", "polyline": {"points": "}x{tDdxreQNWHMJSRa@Ts@R}@Jy@Hy@?G@Q@a@"}, "start_location": {"lat": 29.8025494, "lng": -95.456192}, "travel_mode": "WALKING"}], "travel_mode": "WALKING"}], "traffic_speed_entry": [], "via_waypoint": []}], "overview_polyline": {"points": "{pntDl~zdQiCw@k@SENUfAMPgE`TmC`N}@dEuDxQgAlFMn@MEwAa@ETABWGmBk@gASqE[sAEu@Hi@T[R]\\_CjEo@f@[N[Fw@Bs@KuAi@eA]s@MgAGwAFqBPuHn@g@HqCr@s@\\wA^k@Zo@j@s@b@a@b@uHzNgEfIk@fAq@|Ag@hAeAlBcArBG\\@ZJ\\n@z@NTHZ@RKp@uAtC{AnCyDvH{KjTsCpFkDtGeBhDu@zADDEEb@}@NUFMRLBGILUQ{@m@qK_IsF}D}DkCiAWu@Kw@Ak@B_@Do@PiAf@aBfAuA`AwEfDmA|@}ApAy@h@[D_@\\sChBwBjAmHlDqAl@c@N}C~A_Ad@iCzA}@h@iBxAy@z@m@z@w@~Au@xByDbPk@tCWhB]nDGz@AbB?hALzCJ|@Lt@`@xBbAvDdAvDp@pC\\hBh@hDt@`GXhCZ~FJvDFdHDvCLbPBxHNhVNpSIdEGhB[jFeBnRObB[jFMhEArCHtS@fE@vE?rFB`GDxHHnUFrPCjFO~EObD]~GKzBo@fL[tG[lFsAbVo@tM[bJKdI@zUArAIRCRI~CQ`Bc@pAe@t@c@b@u@d@u@Tw@LkACw@EcBMcCOoF@u@A?d@Al@AnC?tBp@AVEZAFNBn@L?P@?pAM?}@B@l@AxAElC?f@zC`CRwAF@JADEJ]DcAFc@P_@Ra@@YGa@ECOGQAMAMFa@\\MD[Bq@@{A?c@?AVC~B?t@A`E?f@sBNa@BuCBaIDoLHcKDwH@sMLkEBgAGi@MwAw@_@Ui@i@u@q@iAeAwCpEsBtCg@z@a@L{@vA]b@Sd@qAvB{@jAYj@EsB@_BAw@{JNeB@?GnFIA}BVi@~@oBB]QOYWEKKAY]GU^o@KMNWTa@Ra@Ts@R}@TsB@Y@a@"}, "summary": "", "warnings": ["Walking directions are in beta. Use caution \u2013 This route may be missing sidewalks or pedestrian paths."], "waypoint_order": []}], "status": "OK"}