{"geocoded_waypoints": [{"geocoder_status": "OK", "place_id": "ChIJCdp-jwXCQIYR5H4oBg-gDnE", "types": ["establishment", "point_of_interest", "primary_school", "school"]}, {"geocoder_status": "OK", "place_id": "ChIJ9_tphxzHQIYRIMyPy_d3VZU", "types": ["establishment", "point_of_interest"]}], "routes": [{"bounds": {"northeast": {"lat": 29.803869, "lng": -95.40828909999999}, "southwest": {"lat": 29.68371339999999, "lng": -95.48758889999999}}, "copyrights": "Map data \u00a92022", "legs": [{"arrival_time": {"text": "4:34pm", "time_zone": "America/Chicago", "value": 1642026897}, "departure_time": {"text": "3:09pm", "time_zone": "America/Chicago", "value": 1642021742}, "distance": {"text": "16.2 mi", "value": 26000}, "duration": {"text": "1 hour 26 mins", "value": 5155}, "end_address": "4400 W 18th St, Houston, TX 77092, USA", "end_location": {"lat": 29.8019199, "lng": -95.45428179999999}, "start_address": "5627 Jason St, Houston, TX 77096, USA", "start_location": {"lat": 29.6837863, "lng": -95.48758889999999}, "steps": [{"distance": {"text": "0.3 mi", "value": 410}, "duration": {"text": "5 mins", "value": 302}, "end_location": {"lat": 29.6837518, "lng": -95.48427240000001}, "html_instructions": "Walk to Renwick Dr @ Imogene St", "polyline": {"points": "urdtDl|xeQS?m@AAaElAA?O?OAqIDO?]@a@?OG?"}, "start_location": {"lat": 29.6837863, "lng": -95.48758889999999}, "steps": [{"distance": {"text": "135 ft", "value": 41}, "duration": {"text": "1 min", "value": 30}, "end_location": {"lat": 29.6841161, "lng": -95.4875769}, "html_instructions": "Head <b>north</b> toward <b>Jason St</b>", "polyline": {"points": "urdtDl|xeQS?m@A"}, "start_location": {"lat": 29.6837863, "lng": -95.48758889999999}, "travel_mode": "WALKING"}, {"distance": {"text": "318 ft", "value": 97}, "duration": {"text": "1 min", "value": 71}, "end_location": {"lat": 29.684133, "lng": -95.4866089}, "html_instructions": "Turn <b>right</b> onto <b>Jason St</b>", "maneuver": "turn-right", "polyline": {"points": "wtdtDj|xeQAaE"}, "start_location": {"lat": 29.6841161, "lng": -95.4875769}, "travel_mode": "WALKING"}, {"distance": {"text": "167 ft", "value": 51}, "duration": {"text": "1 min", "value": 37}, "end_location": {"lat": 29.683742, "lng": -95.4865171}, "html_instructions": "Turn <b>right</b> onto <b>Mullins Dr</b>", "maneuver": "turn-right", "polyline": {"points": "ytdtDhvxeQlAA?O"}, "start_location": {"lat": 29.684133, "lng": -95.4866089}, "travel_mode": "WALKING"}, {"distance": {"text": "0.1 mi", "value": 217}, "duration": {"text": "3 mins", "value": 159}, "end_location": {"lat": 29.68371339999999, "lng": -95.4842721}, "html_instructions": "Turn <b>left</b> onto <b>Jason St</b>", "maneuver": "turn-left", "polyline": {"points": "krdtDvuxeQ?OAqIDO?]@a@?O"}, "start_location": {"lat": 29.683742, "lng": -95.4865171}, "travel_mode": "WALKING"}, {"distance": {"text": "13 ft", "value": 4}, "duration": {"text": "1 min", "value": 5}, "end_location": {"lat": 29.6837518, "lng": -95.48427240000001}, "html_instructions": "Turn <b>left</b> onto <b>Renwick Dr</b><div style=\"font-size:0.9em\">Destination will be on the right</div>", "maneuver": "turn-left", "polyline": {"points": "erdtDtgxeQG?"}, "start_location": {"lat": 29.68371339999999, "lng": -95.4842721}, "travel_mode": "WALKING"}], "travel_mode": "WALKING"}, {"distance": {"text": "9.4 mi", "value": 15077}, "duration": {"text": "41 mins", "value": 2447}, "end_location": {"lat": 29.751049, "lng": -95.410635}, "html_instructions": "Bus towards Downtown", "polyline": {"points": "mrdtDrgxeQ?HgB@{@@_A?]?c@?g@?mA@eA?q@BKEW@wB?[?aB@y@?sB@U?_@?]@qABi@?s@?S?eC@C?q@@cC@a@?M?G?G?_@?I?sD@C?_@?_@@sDB]?[?oF@sEByD@wA?qA@c@@Q?_@@UAeA@Y?M?Q?m@?]@I?sD@_AAm@@_@?cHDU?s@?yA?cA@I?mA?gA@Y?a@?sC@wB@a@?k@?eA@gB?qBBo@AY?uD@gB@E?eA@mB?[?S@WAkB@g@@a@?oA@}AAI@_@@o@?[?w@@sD?_AB_B@[?Q?yC?c@?E?i@A}C@m@?{CBo@@]?i@?g@?kEB}A?i@Ce@AKAKAg@EOAWEa@IKAk@KWEyA[WEw@OAAQCEAKCg@I]GUCUC{@Ag@?S?A?A?]?A?E?W?A?]?G?A?A?I?A?C?U@o@AgA@kCBa@?cA?}@@gA?W?iD@gB@cB@G?k@?U@u@@[@]Ae@?O?iA@W?o@?u@@g@@e@?mA?O?iB@eD?i@?YAk@@yA?Q@y@?a@?iB@E?U?c@?U?[@[?]?e@?S@K?I@MBQDGBi@LUDE@I@o@FA?{BDE?SBA?GBIBODSFIBaChAIDQHQF[LC?UFUFWDo@FO?Y@UCe@?G?a@Ac@?u@@_C@eCB}B@KAQ?S?UA_@@w@@Y@g@@YBS@SDQBMBGBSFYLMFq@VA?KBUFK@E@UBQBQ@Q?sA@}A?o@?O@}@@I?e@?W?E{BAe@AwAA{BAk@CsC?u@?m@AqE?c@?Y?wACgB?q@?W?[?q@A_BAo@?w@A{B?Q?OA[?E?i@?g@?AAa@@O?y@AI?c@?s@AeA?K?e@?I?I?y@?EAw@CiAEeB?aF?]AsDDcC?C?k@CmE?KAy@AaA?]A_BA[?m@Cw@AcAAgAAqA?iAAa@?Q?_@?AA??AIM?K?_A?g@@w@?[?[?C?g@FK@C?E?E@MAqA?S?g@?K?c@AwACaBAoA?_@@eBAS@YAi@?eAA}B?_@@]D[H]J[Jg@L]@CP]LUJO\\a@ZWJKLYLGzA_APAf@YdAs@XWBAl@k@T[Za@\\c@HMDEZc@Ru@Vw@H[Lc@Jg@DW@Q@EACCIHu@B]Bu@?C@}@?q@?c@AqBAw@@e@A}AAyCAi@?K?Y?u@@m@?e@?e@AcDAkAA}@?I?G?a@AU?Q?s@?UIyR?y@A{@A}AA}CCsB?M?Us@iRA_@O_EIiBKyCEu@GeBEgAOoECi@GcBAYa@sJOeEAWAc@A_@Aw@?iEAeJ?a@?Y?kD?uA?QAuL?}@Ay@?A?CCQGs@MmAMuAGk@ACQmBAEKeAMqAMoAGi@?OGg@IcAGk@Eg@Ec@g@kFi@qGA{D?e@C{D?KCsD?YAO?C?U?kAAqA?SAMAIAGq@@gB?{@?Y@qA?eA??M"}, "start_location": {"lat": 29.683752, "lng": -95.48425999999999}, "transit_details": {"arrival_stop": {"location": {"lat": 29.751049, "lng": -95.410635}, "name": "S Shepherd Dr @ Pelham Dr"}, "arrival_time": {"text": "3:54pm", "time_zone": "America/Chicago", "value": 1642024496}, "departure_stop": {"location": {"lat": 29.683752, "lng": -95.48425999999999}, "name": "Renwick Dr @ Imogene St"}, "departure_time": {"text": "3:14pm", "time_zone": "America/Chicago", "value": 1642022049}, "headsign": "Downtown", "line": {"agencies": [{"name": "Metropolitan Transit Authority of Harris County", "phone": "1 (713) 635-4000", "url": "http://www.ridemetro.org/"}], "color": "#004080", "name": "Renwick / San Felipe", "short_name": "32", "text_color": "#ffffff", "url": "https://www.ridemetro.org/MetroPDFs/Schedules/BusSchedules/n032-Renwick-SanFelipe.pdf", "vehicle": {"icon": "//maps.gstatic.com/mapfiles/transit/iw2/6/bus2.png", "name": "Bus", "type": "BUS"}}, "num_stops": 39, "trip_short_name": "RENWSANFE"}, "travel_mode": "TRANSIT"}, {"distance": {"text": "3.7 mi", "value": 6014}, "duration": {"text": "13 mins", "value": 798}, "end_location": {"lat": 29.803613, "lng": -95.41008699999999}, "html_instructions": "Bus towards N Shepherd P&R", "polyline": {"points": "awqtDn{ieQ?LI?uD@i@@_A?Q?O?{@?m@?M?g@@y@@g@@Q?[?{@?OGEAGCEEGCECECGEY[OYEKCECGEQ_AuCAEEIQe@IQCEACGIEGEGGIIIEEOKGEQKMEk@Oo@@M?{@?WIgB?KEC?SAYAU?IA]?SAeA?S?g@AcA@EBIFKFA@CBIHCDGHGXQ@aAJa@Da@DC?}AL]D]DK@KEA?A?I?G?M?MAAAA?C?AAE?CAA?OCC?AAM?WA[FE@E@c@HG@YD_@HeAPKBw@TgABW?C?W?k@@_A@K?[@SBe@Dc@@SBa@?eA@[?M?eA@c@?e@?]?_@@Y?k@?M?qCBg@?Q?M@U?e@?M?qCB]?w@@_@?E@W?e@?mB@gA?k@@]?qB@c@@a@CE@e@@m@?S@kA?cA@aCBM?oC@eA@oA@Y?[?O?a@Bm@?U?o@?e@@I?A?A?y@?M@YAS@O?_@@w@@y@?]?M?YAMAMCOEYIIAa@Kc@Ku@QGACAm@MAAOCIAK?OAM?M?A?I?O?S@M@IBc@Jq@P}@Vg@Jk@Ji@Hc@Be@DE?c@Bs@ByABA?oCBYA}B@I?A?q@@K?E?k@?C?O@u@?S?k@@w@@K?a@?O?[@U?U?U?k@@k@?Y@C?I?S?kC@y@@K?W@[?S?A?W?G?U@S?c@?e@@O?E?[?mCBeA@U?Y?S?U@A?S?aA@_@?e@@Q?S?U?s@?C?W?qB@sB@eBBg@?oBBaGBq@@w@?aB@i@@W@_B@yA@aB@Q?qD@U@gB?eB@eBA_A@?K"}, "start_location": {"lat": 29.751049, "lng": -95.410635}, "transit_details": {"arrival_stop": {"location": {"lat": 29.803613, "lng": -95.41008699999999}, "name": "N Shepherd Dr @ W 20th St"}, "arrival_time": {"text": "4:14pm", "time_zone": "America/Chicago", "value": 1642025640}, "departure_stop": {"location": {"lat": 29.751049, "lng": -95.410635}, "name": "S Shepherd Dr @ Pelham Dr"}, "departure_time": {"text": "4:00pm", "time_zone": "America/Chicago", "value": 1642024842}, "headsign": "N Shepherd P&R", "line": {"agencies": [{"name": "Metropolitan Transit Authority of Harris County", "phone": "1 (713) 635-4000", "url": "http://www.ridemetro.org/"}], "color": "#004080", "name": "Shepherd", "short_name": "27", "text_color": "#ffffff", "url": "https://www.ridemetro.org/MetroPDFs/Schedules/BusSchedules/n027-Shepherd.pdf", "vehicle": {"icon": "//maps.gstatic.com/mapfiles/transit/iw2/6/bus2.png", "name": "Bus", "type": "BUS"}}, "num_stops": 25, "trip_short_name": "SHEPHERD"}, "travel_mode": "TRANSIT"}, {"distance": {"text": "112 ft", "value": 34}, "duration": {"text": "1 min", "value": 34}, "end_location": {"lat": 29.803842, "lng": -95.41002979999999}, "html_instructions": "Walk to W 20th St @ N Shepherd Dr", "polyline": {"points": "q_|tDdxieQ_@@M??Q"}, "start_location": {"lat": 29.8036121, "lng": -95.410111}, "steps": [{"distance": {"text": "69 ft", "value": 21}, "duration": {"text": "1 min", "value": 15}, "end_location": {"lat": 29.8038391, "lng": -95.4101207}, "html_instructions": "Head <b>north</b> on <b>N Shepherd Dr</b> toward <b>W 20th St</b>", "polyline": {"points": "q_|tDdxieQ_@@M?"}, "start_location": {"lat": 29.8036121, "lng": -95.410111}, "travel_mode": "WALKING"}, {"distance": {"text": "43 ft", "value": 13}, "duration": {"text": "1 min", "value": 19}, "end_location": {"lat": 29.803842, "lng": -95.41002979999999}, "html_instructions": "Turn <b>right</b> onto <b>W 20th St</b>", "maneuver": "turn-right", "polyline": {"points": "_a|tDfxieQ?Q"}, "start_location": {"lat": 29.8038391, "lng": -95.4101207}, "travel_mode": "WALKING"}], "travel_mode": "WALKING"}, {"distance": {"text": "2.7 mi", "value": 4367}, "duration": {"text": "10 mins", "value": 582}, "end_location": {"lat": 29.80163, "lng": -95.454342}, "html_instructions": "Bus towards Memorial City", "polyline": {"points": "ea|tDvwieQJ?@V?fA@`ABfE?tABtJ?pB@rA?r@?H?|@?jB?@?j@@h@AL?\\?J@f@?|B?h@?|@?n@?N?|G?J@tE?d@@dC?p@AL@J?V@P@H?B?D@F@HBH@JDPDLDLDHDJDJHLFHFHLL?@TVTVn@v@NRh@h@NPVX^f@BJBFBFf@v@P`@DZDVBT@F?D@F?H?P@P?X?N?F?j@@pAIpB@f@?V?fA?j@?V@h@AjA?h@@~@?b@@^Af@@d@?X?bA?jA?b@@nC?J?d@Aj@?v@?P@dB?jA?bC?`A?\\@dH?`D?dC@fE?jD?T@`F@vB?jD?vC?X?`E@V@zCAb@?fAAX@fB@fA?T@|B?l@A~A?x@?XAzB?`A?dB?l@?P?F?H@^?Z?@?H?@?Z?h@?f@?j@?^?t@@j@BnAAV@|@@fB?bBG?"}, "start_location": {"lat": 29.803869, "lng": -95.410039}, "transit_details": {"arrival_stop": {"location": {"lat": 29.80163, "lng": -95.454342}, "name": "W 18th St @ Northwest Fwy"}, "arrival_time": {"text": "4:33pm", "time_zone": "America/Chicago", "value": 1642026820}, "departure_stop": {"location": {"lat": 29.803869, "lng": -95.410039}, "name": "W 20th St @ N Shepherd Dr"}, "departure_time": {"text": "4:23pm", "time_zone": "America/Chicago", "value": 1642026238}, "headsign": "Memorial City", "line": {"agencies": [{"name": "Metropolitan Transit Authority of Harris County", "phone": "1 (713) 635-4000", "url": "http://www.ridemetro.org/"}], "color": "#004080", "name": "Long Point / Cavalcade", "short_name": "26", "text_color": "#ffffff", "url": "https://www.ridemetro.org/MetroPDFs/Schedules/BusSchedules/n026-Long-Point-Cavalcade.pdf", "vehicle": {"icon": "//maps.gstatic.com/mapfiles/transit/iw2/6/bus2.png", "name": "Bus", "type": "BUS"}}, "num_stops": 14, "trip_short_name": "LONGPOINT"}, "travel_mode": "TRANSIT"}, {"distance": {"text": "322 ft", "value": 98}, "duration": {"text": "1 min", "value": 77}, "end_location": {"lat": 29.8019199, "lng": -95.45428179999999}, "html_instructions": "Walk to 4400 W 18th St, Houston, TX 77092, USA", "polyline": {"points": "es{tDrlreQ?z@YEc@E?G@Q@a@"}, "start_location": {"lat": 29.8016264, "lng": -95.454342}, "steps": [{"distance": {"text": "95 ft", "value": 29}, "duration": {"text": "1 min", "value": 22}, "end_location": {"lat": 29.8016252, "lng": -95.45463819999999}, "html_instructions": "Head <b>west</b> on <b>W 18th St</b>/<wbr/><b>NW Mall</b>", "polyline": {"points": "es{tDrlreQ?z@"}, "start_location": {"lat": 29.8016264, "lng": -95.454342}, "travel_mode": "WALKING"}, {"distance": {"text": "131 ft", "value": 40}, "duration": {"text": "1 min", "value": 33}, "end_location": {"lat": 29.8019405, "lng": -95.4545788}, "html_instructions": "Turn <b>right</b><div style=\"font-size:0.9em\">Restricted usage road</div>", "maneuver": "turn-right", "polyline": {"points": "es{tDnnreQYEc@E"}, "start_location": {"lat": 29.8016252, "lng": -95.45463819999999}, "travel_mode": "WALKING"}, {"distance": {"text": "95 ft", "value": 29}, "duration": {"text": "1 min", "value": 22}, "end_location": {"lat": 29.8019199, "lng": -95.45428179999999}, "html_instructions": "Turn <b>right</b><div style=\"font-size:0.9em\">Restricted usage road</div><div style=\"font-size:0.9em\">Destination will be on the left</div>", "maneuver": "turn-right", "polyline": {"points": "cu{tDbnreQ?G@Q@a@"}, "start_location": {"lat": 29.8019405, "lng": -95.4545788}, "travel_mode": "WALKING"}], "travel_mode": "WALKING"}], "traffic_speed_entry": [], "via_waypoint": []}], "overview_polyline": {"points": "urdtDl|xeQaAAAaElAA?_@AqIDO@_A?OG??A?HgB@{B@aA?uB@wBBKEW@sC?eHBkKF_HBwFB}MDcTHc`@LiODkIDiAA}GBuE@k@?sCByE@cDBoJDuE?gE?iEB_D@iHBoAEoAKqB]aEw@aCa@qAE{@?a@?a@?u@?a^NwHBqEBiI@}JB_FBc@DyA\\aAJwCHu@TgD|AgA\\m@L_AF}AA{F@cGD]AaC@oBH{@PmBt@o@L_AJsF@}BBW?E{BC}BGqJA}HGgNG_REgGEeB?aFAqEDgCCyFCeDGaFG}JAAIM?K?gB@sA?_@?g@FK@I@SAyCGmH@sDCmGFy@Ty@Jg@L]Ra@Xe@x@y@Xe@hBgAPAf@Y~AkAp@m@p@}@\\c@j@w@bAmDP_ABWEMLsADiDGaP@cDEsIK_XEqJCaCs@_Sg@cNc@sLeA}XCw\\CoPYwCsAaNuAiOi@qGA{DCaFEiFAwDEs@oFBwC??M?L_E@iB@kC?wCDm@?{@?OGMEMIKGa@a@]s@mAwDa@aA[c@g@a@_@Qk@Oo@@iA?WIgB?OEm@CqACeE?]TY\\GXQ@cBPaDXi@FMEa@?QCQCUEe@Aa@HkAReBZcAX{BBsCDqBNqC@aHBuLHoJD_FDg@AsA@eHFsHDaGDcC@aDBsAC}D_A{@Su@Gg@?{@F{D`AuATiAHi@BmCFiHBoCB_MH}MHiPJcMF_VP_KDiI@_A@?K?B_@@M??QE@J?@~ADhGDpS?lI@nE?fDBvVBv@F`@Rx@Zn@xBjC`BhB^f@BJFNf@v@P`@Jr@Fj@B|EIpB@f@?~A?xDBxIBjk@D`a@@xK@pG@rCAlCApG@tF?zFDpE@jEG??z@YEc@E?GBs@"}, "summary": "", "warnings": ["Walking directions are in beta. Use caution \u2013 This route may be missing sidewalks or pedestrian paths."], "waypoint_order": []}, {"bounds": {"northeast": {"lat": 29.8026444, "lng": -95.45426839999999}, "southwest": {"lat": 29.6834519, "lng": -95.50118599999999}}, "copyrights": "Map data \u00a92022", "legs": [{"arrival_time": {"text": "4:35pm", "time_zone": "America/Chicago", "value": 1642026935}, "departure_time": {"text": "3:12pm", "time_zone": "America/Chicago", "value": 1642021930}, "distance": {"text": "12.2 mi", "value": 19647}, "duration": {"text": "1 hour 23 mins", "value": 5005}, "end_address": "4400 W 18th St, Houston, TX 77092, USA", "end_location": {"lat": 29.8019199, "lng": -95.45428179999999}, "start_address": "5627 Jason St, Houston, TX 77096, USA", "start_location": {"lat": 29.6837863, "lng": -95.48758889999999}, "steps": [{"distance": {"text": "0.4 mi", "value": 628}, "duration": {"text": "8 mins", "value": 458}, "end_location": {"lat": 29.68415, "lng": -95.49272049999999}, "html_instructions": "Walk to Hillcroft Ave @ Jackwood St", "polyline": {"points": "urdtDl|xeQS??fBk@@M??f@FN?L@^B`@@H@RBRNl@xApH@PBVFz@@f@?f@?J@zDkC?"}, "start_location": {"lat": 29.6837863, "lng": -95.48758889999999}, "steps": [{"distance": {"text": "39 ft", "value": 12}, "duration": {"text": "1 min", "value": 8}, "end_location": {"lat": 29.6838917, "lng": -95.4875854}, "html_instructions": "Head <b>north</b> toward <b>Jason St</b>", "polyline": {"points": "urdtDl|xeQS?"}, "start_location": {"lat": 29.6837863, "lng": -95.48758889999999}, "travel_mode": "WALKING"}, {"distance": {"text": "167 ft", "value": 51}, "duration": {"text": "1 min", "value": 37}, "end_location": {"lat": 29.6838894, "lng": -95.4881103}, "html_instructions": "Turn <b>left</b> toward <b>Jason St</b>", "maneuver": "turn-left", "polyline": {"points": "isdtDl|xeQ?fB"}, "start_location": {"lat": 29.6838917, "lng": -95.4875854}, "travel_mode": "WALKING"}, {"distance": {"text": "92 ft", "value": 28}, "duration": {"text": "1 min", "value": 21}, "end_location": {"lat": 29.6841785, "lng": -95.48812339999999}, "html_instructions": "Turn <b>right</b> toward <b>Jason St</b>", "maneuver": "turn-right", "polyline": {"points": "isdtDt_yeQk@@M?"}, "start_location": {"lat": 29.6838894, "lng": -95.4881103}, "travel_mode": "WALKING"}, {"distance": {"text": "0.3 mi", "value": 459}, "duration": {"text": "6 mins", "value": 335}, "end_location": {"lat": 29.6834519, "lng": -95.49271619999999}, "html_instructions": "Turn <b>left</b> onto <b>Jason St</b>", "maneuver": "turn-left", "polyline": {"points": "cudtDv_yeQ?f@FN?L@^B`@@H@RBRNl@xApH@PBVFz@@f@?f@?J@zD"}, "start_location": {"lat": 29.6841785, "lng": -95.48812339999999}, "travel_mode": "WALKING"}, {"distance": {"text": "256 ft", "value": 78}, "duration": {"text": "1 min", "value": 57}, "end_location": {"lat": 29.68415, "lng": -95.49272049999999}, "html_instructions": "Turn <b>right</b> onto <b>Hillcroft Ave</b><div style=\"font-size:0.9em\">Destination will be on the right</div>", "maneuver": "turn-right", "polyline": {"points": "qpdtDn|yeQkC?"}, "start_location": {"lat": 29.6834519, "lng": -95.49271619999999}, "travel_mode": "WALKING"}], "travel_mode": "WALKING"}, {"distance": {"text": "9.5 mi", "value": 15340}, "duration": {"text": "49 mins", "value": 2951}, "end_location": {"lat": 29.783077, "lng": -95.455467}, "html_instructions": "Bus towards Northwest TC", "polyline": {"points": "}tdtDn|yeQ?FS?kB@s@EcAK[Gc@GC?WC_@Ki@I]ESAg@Ec@Aa@AqA?gA@Y?S@e@?Y?w@?s@Bs@F}@HeAT_AR]Dm@JUBO@o@BW@gABQ@A?O?gB?mB@Q@yB@}@?w@@mA@g@?g@AK?U@u@AY?Q?_AAi@CUAo@CK?UAM?y@CWAa@?e@A}@@aB?U?mA@Q@I?_A?m@?Y@uC?O?oC@Q?cC@K?K?I?qA@kB?oCBO?iA@]?O?q@@qA@[@m@@U?_@@{AAsA@oBBU@O?UAm@A_A@eA?e@@M?M?c@@u@@C?G?MAi@AM@yA@q@@C?]BoALYFSDu@PeA^EBs@\\_@ROJSLIFQLIFa@\\UTmAxAs@x@]\\KLQR?@ONCD_@h@WZe@l@KNSTUXQPMNMPWXOTIJ_@b@iArAKNQRKLg@l@_@\\YVWVc@j@IJIJQRMPKJABQRABA?A@GHEFCBWZ[\\SV[^q@x@MN_@X[PMHULSJYJUFkAVMDUDQDs@FY@S@uAD_C?mABaA?mA?mBB_A?S?A?g@?cDBaB?M?Y@{A?c@?gA@a@@c@?qA?u@?i@?o@@m@?wA@mA@o@?A?s@@w@?_B@kBB_A?q@@_@?eA@i@?]?m@@[?a@?s@@aA@aAAeABS?y@@i@Ag@AG?QAu@CKAKA_@GMCSEKCk@IKCUAIAKAKAI?a@EMAGCC?KAO?MAa@?S?{@@C?i@@cA?_@@m@?a@?eB?}@?I?WAgA@Y@aAA{ABcA?I?sC@]?kA@_@?E?C?K?yABo@?MAkCBw@@g@?a@?YA]?M?i@@]?O@q@?I?m@?gA@{BBiE?iBB{A@eE?}ADG?yABW?WA_@@a@?sA?kA?gBAk@@sA@]@y@@o@?k@?GIAAC?MEGAEAMEICSIKEGEQK[Oa@m@CC[e@IMS[?AEIEIKWWy@WsAe@aCUoAES_@qBGYKk@o@mDQ}@GUCOY{AScAI]y@qE]gBY{A]kBUgAG_@i@uCk@{CKg@ACGe@G[Gi@?CGo@AOASc@iFC_@WuCG}@CUC[AWW{CEc@Ku@I[GSISIQOYQW[c@iAmAwAiBc@i@{@{@QSm@o@gAsACE_@c@SYyAaBi@k@IKs@w@s@y@KM]a@WYq@_AKQGKAAO[O]Qs@CEEYCSC_@C_@Aa@?S?Q?y@Ay@?uA?ICcEAcD?]AaFC}DCY@Y@O?S@G?G@IB[Fc@F[Nk@JYLa@FQNc@Ja@He@Ho@B]B_@@S@Y?Y?g@?Y?aB@W@SFw@F_@?AH_@Tu@Tg@b@w@LW@?Pc@FQJUFUHWBMFYBS@E@G@Q?IBS?Q@M?OAq@?i@?]AoAAwB?AAY?KAEA]?CAICOE[Kc@Ma@CGGOGQEGIOEISYUYCCYYa@g@QS?AOQIMMYA?Wk@I[IYIc@?CEWCUCQCe@KyAI{@CQEQEOKYUs@Ue@}AiDUi@KW_@y@QLSBY@c@?u@@m@@eCB}DDsCAK?U?}B@_A@yA@wEBeBBU?e@AW?cDBI?K?k@?U@?o@?WAO?qAA_@?UY@oA?]?A?A?G?G?SAEAWAO?Y?c@?c@@gA@a@?kB@c@@aB@m@@}@?kB?c@??RiA?eBDcB?kA@sA@A??@gA?gFDkHBQ?i@Sw@CSKISGOB_B?yA?i@BeCX?V?\\A^?\\?@?b@?BXQ^?f@?j@?d@W?"}, "start_location": {"lat": 29.68415, "lng": -95.49272099999999}, "transit_details": {"arrival_stop": {"location": {"lat": 29.783077, "lng": -95.455467}, "name": "Northwest Transit Center - South Platform"}, "arrival_time": {"text": "4:09pm", "time_zone": "America/Chicago", "value": 1642025340}, "departure_stop": {"location": {"lat": 29.68415, "lng": -95.49272099999999}, "name": "Hillcroft Ave @ Jackwood St"}, "departure_time": {"text": "3:19pm", "time_zone": "America/Chicago", "value": 1642022389}, "headsign": "Northwest TC", "line": {"agencies": [{"name": "Metropolitan Transit Authority of Harris County", "phone": "1 (713) 635-4000", "url": "http://www.ridemetro.org/"}], "color": "#004080", "name": "Hillcroft", "short_name": "47", "text_color": "#ffffff", "url": "https://www.ridemetro.org/MetroPDFs/Schedules/BusSchedules/n047-Hillcroft.pdf", "vehicle": {"icon": "//maps.gstatic.com/mapfiles/transit/iw2/6/bus2.png", "name": "Bus", "type": "BUS"}}, "num_stops": 47, "trip_short_name": "HILLCROFT"}, "travel_mode": "TRANSIT"}, {"distance": {"text": "0.2 mi", "value": 263}, "duration": {"text": "3 mins", "value": 192}, "end_location": {"lat": 29.7837801, "lng": -95.4554653}, "html_instructions": "Walk to Northwest Transit Center - North Platform", "polyline": {"points": "_}wtDtqreQDUBODIK@]MMMECOKICKAK@E?U?E?_@@m@?AxAAX?f@"}, "start_location": {"lat": 29.7827161, "lng": -95.4551537}, "steps": [{"distance": {"text": "121 ft", "value": 37}, "duration": {"text": "1 min", "value": 26}, "end_location": {"lat": 29.78264219999999, "lng": -95.4549134}, "html_instructions": "Head <b>east</b>", "polyline": {"points": "_}wtDtqreQDUBODI"}, "start_location": {"lat": 29.7827161, "lng": -95.4551537}, "travel_mode": "WALKING"}, {"distance": {"text": "482 ft", "value": 147}, "duration": {"text": "2 mins", "value": 109}, "end_location": {"lat": 29.7837613, "lng": -95.45468609999999}, "html_instructions": "Sharp <b>left</b> toward <b>Old Katy Rd</b>", "maneuver": "turn-sharp-left", "polyline": {"points": "o|wtDdpreQK@]MMMECOKICKAK@E?U?E?_@@m@?"}, "start_location": {"lat": 29.78264219999999, "lng": -95.4549134}, "travel_mode": "WALKING"}, {"distance": {"text": "259 ft", "value": 79}, "duration": {"text": "1 min", "value": 57}, "end_location": {"lat": 29.7837801, "lng": -95.4554653}, "html_instructions": "Turn <b>left</b> onto <b>Old Katy Rd</b>", "maneuver": "turn-left", "polyline": {"points": "ocxtDxnreQAxAAX?f@"}, "start_location": {"lat": 29.7837613, "lng": -95.45468609999999}, "travel_mode": "WALKING"}], "travel_mode": "WALKING"}, {"distance": {"text": "1.7 mi", "value": 2678}, "duration": {"text": "7 mins", "value": 408}, "end_location": {"lat": 29.801027, "lng": -95.45922999999999}, "html_instructions": "Bus towards SH 249", "polyline": {"points": "w~wtDvwreQRwAF@D?DABA@CDIDSB[@g@BUBM@AN]FGJY@K?MCUCKCCA?OGQAGAE?E@GDQJOPMD[BY@W?aAAY@c@?AVAzAAb@?f@?L?ZAn@?`B?R?f@sBNO@Q@Y?W?K@wA@y@@K?u@?wA@U?O?}@@I?Y?_@?_@@oA@oD@eABM?A?a@?c@?qA@W?w@?cA@s@?c@@_@?uA@a@?OAY?q@@c@?_@?[@cA@a@?U?G?C?E?]@S?S@]@c@?}@@M?w@@]?mA@_B@W?E?e@Aa@EQEWG[OUM[QIG_@Ui@i@e@_@OQQQOMCCc@a@MR{A|BU\\W`@sBtCg@z@a@L{@vA]b@Sd@w@lAYh@OQ"}, "start_location": {"lat": 29.7830001, "lng": -95.4561157}, "transit_details": {"arrival_stop": {"location": {"lat": 29.801027, "lng": -95.45922999999999}, "name": "Hempstead Rd @ W 18th St"}, "arrival_time": {"text": "4:25pm", "time_zone": "America/Chicago", "value": 1642026348}, "departure_stop": {"location": {"lat": 29.7830001, "lng": -95.4561157}, "name": "Northwest Transit Center - North Platform"}, "departure_time": {"text": "4:19pm", "time_zone": "America/Chicago", "value": 1642025940}, "headsign": "SH 249", "line": {"agencies": [{"name": "Metropolitan Transit Authority of Harris County", "phone": "1 (713) 635-4000", "url": "http://www.ridemetro.org/"}], "color": "#004080", "name": "Antoine / Washington", "short_name": "85", "text_color": "#ffffff", "url": "https://www.ridemetro.org/MetroPDFs/Schedules/BusSchedules/n085-Antoine-Washington.pdf", "vehicle": {"icon": "//maps.gstatic.com/mapfiles/transit/iw2/6/bus2.png", "name": "Bus", "type": "BUS"}}, "num_stops": 8, "trip_short_name": "ANTOINWAS"}, "travel_mode": "TRANSIT"}, {"distance": {"text": "0.5 mi", "value": 738}, "duration": {"text": "10 mins", "value": 587}, "end_location": {"lat": 29.8019199, "lng": -95.45428179999999}, "html_instructions": "Walk to 4400 W 18th St, Houston, TX 77092, USA", "polyline": {"points": "mo{tDdkseQKPKKKAK?I@IB?Q?aA?M?QAO?OM?M@M?mED@[Ae@?g@ASDKP]d@}@Xq@B]QOIIOMEKKAQUGGEIAE?C?A@C@EBEV_@KMNWHMJSRa@Ts@R}@Jy@Hy@?G@Q@a@"}, "start_location": {"lat": 29.8010254, "lng": -95.4592253}, "steps": [{"distance": {"text": "49 ft", "value": 15}, "duration": {"text": "1 min", "value": 11}, "end_location": {"lat": 29.8011512, "lng": -95.4592626}, "html_instructions": "Head <b>northwest</b>", "polyline": {"points": "mo{tDdkseQKPKK"}, "start_location": {"lat": 29.8010254, "lng": -95.4592253}, "travel_mode": "WALKING"}, {"distance": {"text": "102 ft", "value": 31}, "duration": {"text": "1 min", "value": 23}, "end_location": {"lat": 29.8013705, "lng": -95.4592806}, "html_instructions": "Turn <b>right</b> toward <b>W 18th St</b>", "maneuver": "turn-right", "polyline": {"points": "ep{tDjkseQKAK?I@IB"}, "start_location": {"lat": 29.8011512, "lng": -95.4592626}, "travel_mode": "WALKING"}, {"distance": {"text": "240 ft", "value": 73}, "duration": {"text": "1 min", "value": 61}, "end_location": {"lat": 29.8014508, "lng": -95.4585436}, "html_instructions": "Turn <b>right</b> onto <b>W 18th St</b>", "maneuver": "turn-right", "polyline": {"points": "qq{tDnkseQ?Q?aA?M?QAO?OM?"}, "start_location": {"lat": 29.8013705, "lng": -95.4592806}, "travel_mode": "WALKING"}, {"distance": {"text": "440 ft", "value": 134}, "duration": {"text": "2 mins", "value": 127}, "end_location": {"lat": 29.80261729999999, "lng": -95.45858140000001}, "html_instructions": "Turn <b>left</b> onto <b>Mangum Rd</b>", "maneuver": "turn-left", "polyline": {"points": "ar{tDzfseQM@M?mED"}, "start_location": {"lat": 29.8014508, "lng": -95.4585436}, "travel_mode": "WALKING"}, {"distance": {"text": "0.1 mi", "value": 168}, "duration": {"text": "2 mins", "value": 133}, "end_location": {"lat": 29.8021725, "lng": -95.45703209999999}, "html_instructions": "Turn <b>right</b>", "maneuver": "turn-right", "polyline": {"points": "ky{tDbgseQ@[Ae@?g@ASDKP]d@}@Xq@B]"}, "start_location": {"lat": 29.80261729999999, "lng": -95.45858140000001}, "travel_mode": "WALKING"}, {"distance": {"text": "348 ft", "value": 106}, "duration": {"text": "1 min", "value": 80}, "end_location": {"lat": 29.8024852, "lng": -95.4562641}, "html_instructions": "Turn <b>left</b><div style=\"font-size:0.9em\">Partial restricted usage road</div>", "maneuver": "turn-left", "polyline": {"points": "qv{tDl}reQQOIIOMEKKAQUGGEIAE?C?A@C@EBEV_@"}, "start_location": {"lat": 29.8021725, "lng": -95.45703209999999}, "travel_mode": "WALKING"}, {"distance": {"text": "33 ft", "value": 10}, "duration": {"text": "1 min", "value": 8}, "end_location": {"lat": 29.8025494, "lng": -95.456192}, "html_instructions": "Turn <b>left</b><div style=\"font-size:0.9em\">Restricted usage road</div>", "maneuver": "turn-left", "polyline": {"points": "qx{tDrxreQKM"}, "start_location": {"lat": 29.8024852, "lng": -95.4562641}, "travel_mode": "WALKING"}, {"distance": {"text": "0.1 mi", "value": 201}, "duration": {"text": "2 mins", "value": 144}, "end_location": {"lat": 29.8019199, "lng": -95.45428179999999}, "html_instructions": "Turn <b>right</b><div style=\"font-size:0.9em\">Restricted usage road</div><div style=\"font-size:0.9em\">Destination will be on the left</div>", "maneuver": "turn-right", "polyline": {"points": "}x{tDdxreQNWHMJSRa@Ts@R}@Jy@Hy@?G@Q@a@"}, "start_location": {"lat": 29.8025494, "lng": -95.456192}, "travel_mode": "WALKING"}], "travel_mode": "WALKING"}], "traffic_speed_entry": [], "via_waypoint": []}], "overview_polyline": {"points": "urdtDl|xeQS??fBy@@?f@FN@l@JrAhB~IDh@HbB?r@@zDkC??F_C@s@EcAK_AO[CiAUq@GkAGsBA{CBqA?gBJ}@HeAT}AXcAN_ADsBFwFB}HDqB?aDC{BIuBGgF?gGDmNBgOHqDD{B?cEDe@@cACyDBkBBmAAmDFiBTiAVkAb@sAp@_An@aAz@kD~De@j@iBbCiC~CgCzCs@z@y@t@oAzAm@t@aAjA}BnCm@h@i@Zi@Xo@RaCh@mAHiBF}IB_OFoLDy[PgKFmA@qAC{AGgDg@gBQkAC}BBsD@eEAaBB}C@_G@yGBmGDoB?ePFeEDeE?}ADaBBo@AaF@sC?qBBiB@k@?GIEAUGq@UaAg@kAeB_@q@c@qA}@uEcAoFqC{NcG{[]mBQmBsA{P]_EUqAQg@Yk@m@{@aDwD_BeB_AcA_CwCaEqEuBcCgA_B_@y@Uy@Im@G_AAu@?kAE}IGaRAs@@c@Fu@N_AZeAp@yBRuAF}@BoBBgDNwAHa@Tu@Tg@p@oAf@kA\\uAHs@D}@GmJCs@WyAa@kAi@{@uA_Bk@u@OYa@gAYyAWgDMmAKa@a@mAsBoEa@aA_@y@QLm@DyA@sDD}DDsCAa@?}DBmLHkF@w@?U@?o@Ag@AqB?UY@mB?S?aAE}LH{F@?RiA?iED_DBA@mRHi@Sw@CSKISGOB_B?cCBeCX?t@AbB?BXQ^?rA?d@W?fA_ADUHYK@]MSQYOs@?e@@m@?AxAA`AzC`CRwAL@HCFMHo@D}@DOVe@Le@Cc@GOQGYCK@YPOPMDu@DwC?E~DAzD?z@cCPoABoKFcB@sIFaJB{HBiEBkGHcFBk@As@Ks@Wq@_@i@]oAiAu@u@c@a@MRqBzCkCvDg@z@a@L{@vA]b@Sd@w@lAYh@OQKPKKKAU@IB?Q?oAAa@?OM?[@mED@[AmAB_@v@{AXq@B][YUYKAQUMQ?ODKV_@KMXe@^u@Ts@^wBHaABs@"}, "summary": "", "warnings": ["Walking directions are in beta. Use caution \u2013 This route may be missing sidewalks or pedestrian paths."], "waypoint_order": []}, {"bounds": {"northeast": {"lat": 29.803817, "lng": -95.45426839999999}, "southwest": {"lat": 29.6834519, "lng": -95.50118599999999}}, "copyrights": "Map data \u00a92022", "legs": [{"arrival_time": {"text": "4:51pm", "time_zone": "America/Chicago", "value": 1642027884}, "departure_time": {"text": "3:27pm", "time_zone": "America/Chicago", "value": 1642022830}, "distance": {"text": "12.4 mi", "value": 19992}, "duration": {"text": "1 hour 24 mins", "value": 5054}, "end_address": "4400 W 18th St, Houston, TX 77092, USA", "end_location": {"lat": 29.8019199, "lng": -95.45428179999999}, "start_address": "5627 Jason St, Houston, TX 77096, USA", "start_location": {"lat": 29.6837863, "lng": -95.48758889999999}, "steps": [{"distance": {"text": "0.4 mi", "value": 628}, "duration": {"text": "8 mins", "value": 458}, "end_location": {"lat": 29.68415, "lng": -95.49272049999999}, "html_instructions": "Walk to Hillcroft Ave @ Jackwood St", "polyline": {"points": "urdtDl|xeQS??fBk@@M??f@FN?L@^B`@@H@RBRNl@xApH@PBVFz@@f@?f@?J@zDkC?"}, "start_location": {"lat": 29.6837863, "lng": -95.48758889999999}, "steps": [{"distance": {"text": "39 ft", "value": 12}, "duration": {"text": "1 min", "value": 8}, "end_location": {"lat": 29.6838917, "lng": -95.4875854}, "html_instructions": "Head <b>north</b> toward <b>Jason St</b>", "polyline": {"points": "urdtDl|xeQS?"}, "start_location": {"lat": 29.6837863, "lng": -95.48758889999999}, "travel_mode": "WALKING"}, {"distance": {"text": "167 ft", "value": 51}, "duration": {"text": "1 min", "value": 37}, "end_location": {"lat": 29.6838894, "lng": -95.4881103}, "html_instructions": "Turn <b>left</b> toward <b>Jason St</b>", "maneuver": "turn-left", "polyline": {"points": "isdtDl|xeQ?fB"}, "start_location": {"lat": 29.6838917, "lng": -95.4875854}, "travel_mode": "WALKING"}, {"distance": {"text": "92 ft", "value": 28}, "duration": {"text": "1 min", "value": 21}, "end_location": {"lat": 29.6841785, "lng": -95.48812339999999}, "html_instructions": "Turn <b>right</b> toward <b>Jason St</b>", "maneuver": "turn-right", "polyline": {"points": "isdtDt_yeQk@@M?"}, "start_location": {"lat": 29.6838894, "lng": -95.4881103}, "travel_mode": "WALKING"}, {"distance": {"text": "0.3 mi", "value": 459}, "duration": {"text": "6 mins", "value": 335}, "end_location": {"lat": 29.6834519, "lng": -95.49271619999999}, "html_instructions": "Turn <b>left</b> onto <b>Jason St</b>", "maneuver": "turn-left", "polyline": {"points": "cudtDv_yeQ?f@FN?L@^B`@@H@RBRNl@xApH@PBVFz@@f@?f@?J@zD"}, "start_location": {"lat": 29.6841785, "lng": -95.48812339999999}, "travel_mode": "WALKING"}, {"distance": {"text": "256 ft", "value": 78}, "duration": {"text": "1 min", "value": 57}, "end_location": {"lat": 29.68415, "lng": -95.49272049999999}, "html_instructions": "Turn <b>right</b> onto <b>Hillcroft Ave</b><div style=\"font-size:0.9em\">Destination will be on the right</div>", "maneuver": "turn-right", "polyline": {"points": "qpdtDn|yeQkC?"}, "start_location": {"lat": 29.6834519, "lng": -95.49271619999999}, "travel_mode": "WALKING"}], "travel_mode": "WALKING"}, {"distance": {"text": "9.5 mi", "value": 15340}, "duration": {"text": "49 mins", "value": 2951}, "end_location": {"lat": 29.783077, "lng": -95.455467}, "html_instructions": "Bus towards Northwest TC", "polyline": {"points": "}tdtDn|yeQ?FS?kB@s@EcAK[Gc@GC?WC_@Ki@I]ESAg@Ec@Aa@AqA?gA@Y?S@e@?Y?w@?s@Bs@F}@HeAT_AR]Dm@JUBO@o@BW@gABQ@A?O?gB?mB@Q@yB@}@?w@@mA@g@?g@AK?U@u@AY?Q?_AAi@CUAo@CK?UAM?y@CWAa@?e@A}@@aB?U?mA@Q@I?_A?m@?Y@uC?O?oC@Q?cC@K?K?I?qA@kB?oCBO?iA@]?O?q@@qA@[@m@@U?_@@{AAsA@oBBU@O?UAm@A_A@eA?e@@M?M?c@@u@@C?G?MAi@AM@yA@q@@C?]BoALYFSDu@PeA^EBs@\\_@ROJSLIFQLIFa@\\UTmAxAs@x@]\\KLQR?@ONCD_@h@WZe@l@KNSTUXQPMNMPWXOTIJ_@b@iArAKNQRKLg@l@_@\\YVWVc@j@IJIJQRMPKJABQRABA?A@GHEFCBWZ[\\SV[^q@x@MN_@X[PMHULSJYJUFkAVMDUDQDs@FY@S@uAD_C?mABaA?mA?mBB_A?S?A?g@?cDBaB?M?Y@{A?c@?gA@a@@c@?qA?u@?i@?o@@m@?wA@mA@o@?A?s@@w@?_B@kBB_A?q@@_@?eA@i@?]?m@@[?a@?s@@aA@aAAeABS?y@@i@Ag@AG?QAu@CKAKA_@GMCSEKCk@IKCUAIAKAKAI?a@EMAGCC?KAO?MAa@?S?{@@C?i@@cA?_@@m@?a@?eB?}@?I?WAgA@Y@aAA{ABcA?I?sC@]?kA@_@?E?C?K?yABo@?MAkCBw@@g@?a@?YA]?M?i@@]?O@q@?I?m@?gA@{BBiE?iBB{A@eE?}ADG?yABW?WA_@@a@?sA?kA?gBAk@@sA@]@y@@o@?k@?GIAAC?MEGAEAMEICSIKEGEQK[Oa@m@CC[e@IMS[?AEIEIKWWy@WsAe@aCUoAES_@qBGYKk@o@mDQ}@GUCOY{AScAI]y@qE]gBY{A]kBUgAG_@i@uCk@{CKg@ACGe@G[Gi@?CGo@AOASc@iFC_@WuCG}@CUC[AWW{CEc@Ku@I[GSISIQOYQW[c@iAmAwAiBc@i@{@{@QSm@o@gAsACE_@c@SYyAaBi@k@IKs@w@s@y@KM]a@WYq@_AKQGKAAO[O]Qs@CEEYCSC_@C_@Aa@?S?Q?y@Ay@?uA?ICcEAcD?]AaFC}DCY@Y@O?S@G?G@IB[Fc@F[Nk@JYLa@FQNc@Ja@He@Ho@B]B_@@S@Y?Y?g@?Y?aB@W@SFw@F_@?AH_@Tu@Tg@b@w@LW@?Pc@FQJUFUHWBMFYBS@E@G@Q?IBS?Q@M?OAq@?i@?]AoAAwB?AAY?KAEA]?CAICOE[Kc@Ma@CGGOGQEGIOEISYUYCCYYa@g@QS?AOQIMMYA?Wk@I[IYIc@?CEWCUCQCe@KyAI{@CQEQEOKYUs@Ue@}AiDUi@KW_@y@QLSBY@c@?u@@m@@eCB}DDsCAK?U?}B@_A@yA@wEBeBBU?e@AW?cDBI?K?k@?U@?o@?WAO?qAA_@?UY@oA?]?A?A?G?G?SAEAWAO?Y?c@?c@@gA@a@?kB@c@@aB@m@@}@?kB?c@??RiA?eBDcB?kA@sA@A??@gA?gFDkHBQ?i@Sw@CSKISGOB_B?yA?i@BeCX?V?\\A^?\\?@?b@?BXQ^?f@?j@?d@W?"}, "start_location": {"lat": 29.68415, "lng": -95.49272099999999}, "transit_details": {"arrival_stop": {"location": {"lat": 29.783077, "lng": -95.455467}, "name": "Northwest Transit Center - South Platform"}, "arrival_time": {"text": "4:24pm", "time_zone": "America/Chicago", "value": 1642026240}, "departure_stop": {"location": {"lat": 29.68415, "lng": -95.49272099999999}, "name": "Hillcroft Ave @ Jackwood St"}, "departure_time": {"text": "3:34pm", "time_zone": "America/Chicago", "value": 1642023289}, "headsign": "Northwest TC", "line": {"agencies": [{"name": "Metropolitan Transit Authority of Harris County", "phone": "1 (713) 635-4000", "url": "http://www.ridemetro.org/"}], "color": "#004080", "name": "Hillcroft", "short_name": "47", "text_color": "#ffffff", "url": "https://www.ridemetro.org/MetroPDFs/Schedules/BusSchedules/n047-Hillcroft.pdf", "vehicle": {"icon": "//maps.gstatic.com/mapfiles/transit/iw2/6/bus2.png", "name": "Bus", "type": "BUS"}}, "num_stops": 47, "trip_short_name": "HILLCROFT"}, "travel_mode": "TRANSIT"}, {"distance": {"text": "0.2 mi", "value": 263}, "duration": {"text": "3 mins", "value": 192}, "end_location": {"lat": 29.7837801, "lng": -95.4554653}, "html_instructions": "Walk to Northwest Transit Center - North Platform", "polyline": {"points": "_}wtDtqreQDUBODIK@]MMMECOKICKAK@E?U?E?_@@m@?AxAAX?f@"}, "start_location": {"lat": 29.7827161, "lng": -95.4551537}, "steps": [{"distance": {"text": "121 ft", "value": 37}, "duration": {"text": "1 min", "value": 26}, "end_location": {"lat": 29.78264219999999, "lng": -95.4549134}, "html_instructions": "Head <b>east</b>", "polyline": {"points": "_}wtDtqreQDUBODI"}, "start_location": {"lat": 29.7827161, "lng": -95.4551537}, "travel_mode": "WALKING"}, {"distance": {"text": "482 ft", "value": 147}, "duration": {"text": "2 mins", "value": 109}, "end_location": {"lat": 29.7837613, "lng": -95.45468609999999}, "html_instructions": "Sharp <b>left</b> toward <b>Old Katy Rd</b>", "maneuver": "turn-sharp-left", "polyline": {"points": "o|wtDdpreQK@]MMMECOKICKAK@E?U?E?_@@m@?"}, "start_location": {"lat": 29.78264219999999, "lng": -95.4549134}, "travel_mode": "WALKING"}, {"distance": {"text": "259 ft", "value": 79}, "duration": {"text": "1 min", "value": 57}, "end_location": {"lat": 29.7837801, "lng": -95.4554653}, "html_instructions": "Turn <b>left</b> onto <b>Old Katy Rd</b>", "maneuver": "turn-left", "polyline": {"points": "ocxtDxnreQAxAAX?f@"}, "start_location": {"lat": 29.7837613, "lng": -95.45468609999999}, "travel_mode": "WALKING"}], "travel_mode": "WALKING"}, {"distance": {"text": "2.0 mi", "value": 3143}, "duration": {"text": "9 mins", "value": 523}, "end_location": {"lat": 29.803817, "lng": -95.458625}, "html_instructions": "Bus towards Dacoma Shuttle", "polyline": {"points": "w~wtDvwreQRwAF@D?DABA@CDIDSB[@g@BUBM@AN]FGJY@K?MCUCKCCA?OGQAGAE?E@GDQJOPMD[BY@W?aAAY@c@?AVAzAAb@?f@?L?ZAn@?`B?R?f@sBNO@Q@Y?W?K@wA@y@@K?u@?wA@U?O?}@@I?Y?_@?_@@oA@oD@eABM?A?a@?c@?qA@W?w@?cA@s@?c@@_@?uA@a@?OAY?q@@c@?_@?[@cA@a@?U?G?C?E?]@S?S@]@c@?}@@M?w@@]?mA@_B@W?E?e@Aa@EQEWG[OUM[QIG_@Ui@i@e@_@OQQQOMCCc@a@MR{A|BU\\W`@sBtCg@z@a@L{@vA]b@Sd@w@lAYh@OVk@r@Yj@EsB?]@aAAU?a@[@uEDaA@gAD_A@e@??I"}, "start_location": {"lat": 29.7830001, "lng": -95.4561157}, "transit_details": {"arrival_stop": {"location": {"lat": 29.803817, "lng": -95.458625}, "name": "Mangum Rd @ W 20th St"}, "arrival_time": {"text": "4:43pm", "time_zone": "America/Chicago", "value": 1642027423}, "departure_stop": {"location": {"lat": 29.7830001, "lng": -95.4561157}, "name": "Northwest Transit Center - North Platform"}, "departure_time": {"text": "4:35pm", "time_zone": "America/Chicago", "value": 1642026900}, "headsign": "Dacoma Shuttle", "line": {"agencies": [{"name": "Metropolitan Transit Authority of Harris County", "phone": "1 (713) 635-4000", "url": "http://www.ridemetro.org/"}], "color": "#004080", "name": "Dacoma", "short_name": "89", "text_color": "#ffffff", "url": "https://www.ridemetro.org/MetroPDFs/Schedules/BusSchedules/n089-Dacoma.pdf", "vehicle": {"icon": "//maps.gstatic.com/mapfiles/transit/iw2/6/bus2.png", "name": "Bus", "type": "BUS"}}, "num_stops": 9, "trip_short_name": "DACOMA"}, "travel_mode": "TRANSIT"}, {"distance": {"text": "0.4 mi", "value": 618}, "duration": {"text": "8 mins", "value": 461}, "end_location": {"lat": 29.8019199, "lng": -95.45428179999999}, "html_instructions": "Walk to 4400 W 18th St, Houston, TX 77092, USA", "polyline": {"points": "{`|tDlgseQd@A~@AdACbAA@[Ae@?g@ASDKP]d@}@Xq@B]QOIIOMEKKAQUGGEIAE?C?A@C@EBEV_@KMNWHMJSRa@Ts@R}@Jy@Hy@?G@Q@a@"}, "start_location": {"lat": 29.8038169, "lng": -95.458628}, "steps": [{"distance": {"text": "436 ft", "value": 133}, "duration": {"text": "2 mins", "value": 96}, "end_location": {"lat": 29.80261729999999, "lng": -95.45858140000001}, "html_instructions": "Head <b>south</b> on <b>Mangum Rd</b>", "polyline": {"points": "{`|tDlgseQd@A~@AdACbAA"}, "start_location": {"lat": 29.8038169, "lng": -95.458628}, "travel_mode": "WALKING"}, {"distance": {"text": "0.1 mi", "value": 168}, "duration": {"text": "2 mins", "value": 133}, "end_location": {"lat": 29.8021725, "lng": -95.45703209999999}, "html_instructions": "Turn <b>left</b>", "maneuver": "turn-left", "polyline": {"points": "ky{tDbgseQ@[Ae@?g@ASDKP]d@}@Xq@B]"}, "start_location": {"lat": 29.80261729999999, "lng": -95.45858140000001}, "travel_mode": "WALKING"}, {"distance": {"text": "348 ft", "value": 106}, "duration": {"text": "1 min", "value": 80}, "end_location": {"lat": 29.8024852, "lng": -95.4562641}, "html_instructions": "Turn <b>left</b><div style=\"font-size:0.9em\">Partial restricted usage road</div>", "maneuver": "turn-left", "polyline": {"points": "qv{tDl}reQQOIIOMEKKAQUGGEIAE?C?A@C@EBEV_@"}, "start_location": {"lat": 29.8021725, "lng": -95.45703209999999}, "travel_mode": "WALKING"}, {"distance": {"text": "33 ft", "value": 10}, "duration": {"text": "1 min", "value": 8}, "end_location": {"lat": 29.8025494, "lng": -95.456192}, "html_instructions": "Turn <b>left</b><div style=\"font-size:0.9em\">Restricted usage road</div>", "maneuver": "turn-left", "polyline": {"points": "qx{tDrxreQKM"}, "start_location": {"lat": 29.8024852, "lng": -95.4562641}, "travel_mode": "WALKING"}, {"distance": {"text": "0.1 mi", "value": 201}, "duration": {"text": "2 mins", "value": 144}, "end_location": {"lat": 29.8019199, "lng": -95.45428179999999}, "html_instructions": "Turn <b>right</b><div style=\"font-size:0.9em\">Restricted usage road</div><div style=\"font-size:0.9em\">Destination will be on the left</div>", "maneuver": "turn-right", "polyline": {"points": "}x{tDdxreQNWHMJSRa@Ts@R}@Jy@Hy@?G@Q@a@"}, "start_location": {"lat": 29.8025494, "lng": -95.456192}, "travel_mode": "WALKING"}], "travel_mode": "WALKING"}], "traffic_speed_entry": [], "via_waypoint": []}], "overview_polyline": {"points": "urdtDl|xeQS??fBy@@?f@FN@l@JrAhB~IDh@HbB?r@@zDkC??F_C@s@EcAK_AO[CiAUq@GkAGsBA{CBqA?gBJ}@HeAT}AXcAN_ADsBFwFB}HDqB?aDC{BIuBGgF?gGDmNBgOHqDD{B?cEDe@@cACyDBkBBmAAmDFiBTiAVkAb@sAp@_An@aAz@kD~De@j@iBbCiC~CgCzCs@z@y@t@oAzAm@t@aAjA}BnCm@h@i@Zi@Xo@RaCh@mAHiBF}IB_OFoLDy[PgKFmA@qAC{AGgDg@gBQkAC}BBsD@eEAaBB}C@_G@yGBmGDoB?ePFeEDeE?}ADaBBo@AaF@sC?qBBiB@k@?GIEAUGq@UaAg@kAeB_@q@c@qA}@uEcAoFqC{NcG{[]mBQmBsA{P]_EUqAQg@Yk@m@{@aDwD_BeB_AcA_CwCaEqEuBcCgA_B_@y@Uy@Im@G_AAu@?kAE}IGaRAs@@c@Fu@N_AZeAp@yBRuAF}@BoBBgDNwAHa@Tu@Tg@p@oAf@kA\\uAHs@D}@GmJCs@WyAa@kAi@{@uA_Bk@u@OYa@gAYyAWgDMmAKa@a@mAsBoEa@aA_@y@QLm@DyA@sDD}DDsCAa@?}DBmLHkF@w@?U@?o@Ag@AqB?UY@mB?S?aAE}LH{F@?RiA?iED_DBA@mRHi@Sw@CSKISGOB_B?cCBeCX?t@AbB?BXQ^?rA?d@W?fA_ADUHYK@]MSQYOs@?e@@m@?AxAA`AzC`CRwAL@HCFMHo@D}@DOVe@Le@Cc@GOQGYCK@YPOPMDu@DwC?E~DAzD?z@cCPoABoKFcB@sIFaJB{HBiEBkGHcFBk@As@Ks@Wq@_@i@]oAiAu@u@c@a@MRqBzCkCvDg@z@a@L{@vA]b@Sd@w@lAi@`Ak@r@Yj@EqC?wA?a@[@wGFgCFe@??Id@?dCEbAA@[AmAB_@v@{AXq@B][YUYKAQUMQAIFQV_@KMXe@^u@Ts@^wBHaABs@"}, "summary": "", "warnings": ["Walking directions are in beta. Use caution \u2013 This route may be missing sidewalks or pedestrian paths."], "waypoint_order": []}, {"bounds": {"northeast": {"lat": 29.803869, "lng": -95.40828909999999}, "southwest": {"lat": 29.68371339999999, "lng": -95.48758889999999}}, "copyrights": "Map data \u00a92022", "legs": [{"arrival_time": {"text": "5:04pm", "time_zone": "America/Chicago", "value": 1642028697}, "departure_time": {"text": "3:39pm", "time_zone": "America/Chicago", "value": 1642023542}, "distance": {"text": "16.2 mi", "value": 26000}, "duration": {"text": "1 hour 26 mins", "value": 5155}, "end_address": "4400 W 18th St, Houston, TX 77092, USA", "end_location": {"lat": 29.8019199, "lng": -95.45428179999999}, "start_address": "5627 Jason St, Houston, TX 77096, USA", "start_location": {"lat": 29.6837863, "lng": -95.48758889999999}, "steps": [{"distance": {"text": "0.3 mi", "value": 410}, "duration": {"text": "5 mins", "value": 302}, "end_location": {"lat": 29.6837518, "lng": -95.48427240000001}, "html_instructions": "Walk to Renwick Dr @ Imogene St", "polyline": {"points": "urdtDl|xeQS?m@AAaElAA?O?OAqIDO?]@a@?OG?"}, "start_location": {"lat": 29.6837863, "lng": -95.48758889999999}, "steps": [{"distance": {"text": "135 ft", "value": 41}, "duration": {"text": "1 min", "value": 30}, "end_location": {"lat": 29.6841161, "lng": -95.4875769}, "html_instructions": "Head <b>north</b> toward <b>Jason St</b>", "polyline": {"points": "urdtDl|xeQS?m@A"}, "start_location": {"lat": 29.6837863, "lng": -95.48758889999999}, "travel_mode": "WALKING"}, {"distance": {"text": "318 ft", "value": 97}, "duration": {"text": "1 min", "value": 71}, "end_location": {"lat": 29.684133, "lng": -95.4866089}, "html_instructions": "Turn <b>right</b> onto <b>Jason St</b>", "maneuver": "turn-right", "polyline": {"points": "wtdtDj|xeQAaE"}, "start_location": {"lat": 29.6841161, "lng": -95.4875769}, "travel_mode": "WALKING"}, {"distance": {"text": "167 ft", "value": 51}, "duration": {"text": "1 min", "value": 37}, "end_location": {"lat": 29.683742, "lng": -95.4865171}, "html_instructions": "Turn <b>right</b> onto <b>Mullins Dr</b>", "maneuver": "turn-right", "polyline": {"points": "ytdtDhvxeQlAA?O"}, "start_location": {"lat": 29.684133, "lng": -95.4866089}, "travel_mode": "WALKING"}, {"distance": {"text": "0.1 mi", "value": 217}, "duration": {"text": "3 mins", "value": 159}, "end_location": {"lat": 29.68371339999999, "lng": -95.4842721}, "html_instructions": "Turn <b>left</b> onto <b>Jason St</b>", "maneuver": "turn-left", "polyline": {"points": "krdtDvuxeQ?OAqIDO?]@a@?O"}, "start_location": {"lat": 29.683742, "lng": -95.4865171}, "travel_mode": "WALKING"}, {"distance": {"text": "13 ft", "value": 4}, "duration": {"text": "1 min", "value": 5}, "end_location": {"lat": 29.6837518, "lng": -95.48427240000001}, "html_instructions": "Turn <b>left</b> onto <b>Renwick Dr</b><div style=\"font-size:0.9em\">Destination will be on the right</div>", "maneuver": "turn-left", "polyline": {"points": "erdtDtgxeQG?"}, "start_location": {"lat": 29.68371339999999, "lng": -95.4842721}, "travel_mode": "WALKING"}], "travel_mode": "WALKING"}, {"distance": {"text": "9.4 mi", "value": 15077}, "duration": {"text": "41 mins", "value": 2447}, "end_location": {"lat": 29.751049, "lng": -95.410635}, "html_instructions": "Bus towards Downtown", "polyline": {"points": "mrdtDrgxeQ?HgB@{@@_A?]?c@?g@?mA@eA?q@BKEW@wB?[?aB@y@?sB@U?_@?]@qABi@?s@?S?eC@C?q@@cC@a@?M?G?G?_@?I?sD@C?_@?_@@sDB]?[?oF@sEByD@wA?qA@c@@Q?_@@UAeA@Y?M?Q?m@?]@I?sD@_AAm@@_@?cHDU?s@?yA?cA@I?mA?gA@Y?a@?sC@wB@a@?k@?eA@gB?qBBo@AY?uD@gB@E?eA@mB?[?S@WAkB@g@@a@?oA@}AAI@_@@o@?[?w@@sD?_AB_B@[?Q?yC?c@?E?i@A}C@m@?{CBo@@]?i@?g@?kEB}A?i@Ce@AKAKAg@EOAWEa@IKAk@KWEyA[WEw@OAAQCEAKCg@I]GUCUC{@Ag@?S?A?A?]?A?E?W?A?]?G?A?A?I?A?C?U@o@AgA@kCBa@?cA?}@@gA?W?iD@gB@cB@G?k@?U@u@@[@]Ae@?O?iA@W?o@?u@@g@@e@?mA?O?iB@eD?i@?YAk@@yA?Q@y@?a@?iB@E?U?c@?U?[@[?]?e@?S@K?I@MBQDGBi@LUDE@I@o@FA?{BDE?SBA?GBIBODSFIBaChAIDQHQF[LC?UFUFWDo@FO?Y@UCe@?G?a@Ac@?u@@_C@eCB}B@KAQ?S?UA_@@w@@Y@g@@YBS@SDQBMBGBSFYLMFq@VA?KBUFK@E@UBQBQ@Q?sA@}A?o@?O@}@@I?e@?W?E{BAe@AwAA{BAk@CsC?u@?m@AqE?c@?Y?wACgB?q@?W?[?q@A_BAo@?w@A{B?Q?OA[?E?i@?g@?AAa@@O?y@AI?c@?s@AeA?K?e@?I?I?y@?EAw@CiAEeB?aF?]AsDDcC?C?k@CmE?KAy@AaA?]A_BA[?m@Cw@AcAAgAAqA?iAAa@?Q?_@?AA??AIM?K?_A?g@@w@?[?[?C?g@FK@C?E?E@MAqA?S?g@?K?c@AwACaBAoA?_@@eBAS@YAi@?eAA}B?_@@]D[H]J[Jg@L]@CP]LUJO\\a@ZWJKLYLGzA_APAf@YdAs@XWBAl@k@T[Za@\\c@HMDEZc@Ru@Vw@H[Lc@Jg@DW@Q@EACCIHu@B]Bu@?C@}@?q@?c@AqBAw@@e@A}AAyCAi@?K?Y?u@@m@?e@?e@AcDAkAA}@?I?G?a@AU?Q?s@?UIyR?y@A{@A}AA}CCsB?M?Us@iRA_@O_EIiBKyCEu@GeBEgAOoECi@GcBAYa@sJOeEAWAc@A_@Aw@?iEAeJ?a@?Y?kD?uA?QAuL?}@Ay@?A?CCQGs@MmAMuAGk@ACQmBAEKeAMqAMoAGi@?OGg@IcAGk@Eg@Ec@g@kFi@qGA{D?e@C{D?KCsD?YAO?C?U?kAAqA?SAMAIAGq@@gB?{@?Y@qA?eA??M"}, "start_location": {"lat": 29.683752, "lng": -95.48425999999999}, "transit_details": {"arrival_stop": {"location": {"lat": 29.751049, "lng": -95.410635}, "name": "S Shepherd Dr @ Pelham Dr"}, "arrival_time": {"text": "4:24pm", "time_zone": "America/Chicago", "value": 1642026296}, "departure_stop": {"location": {"lat": 29.683752, "lng": -95.48425999999999}, "name": "Renwick Dr @ Imogene St"}, "departure_time": {"text": "3:44pm", "time_zone": "America/Chicago", "value": 1642023849}, "headsign": "Downtown", "line": {"agencies": [{"name": "Metropolitan Transit Authority of Harris County", "phone": "1 (713) 635-4000", "url": "http://www.ridemetro.org/"}], "color": "#004080", "name": "Renwick / San Felipe", "short_name": "32", "text_color": "#ffffff", "url": "https://www.ridemetro.org/MetroPDFs/Schedules/BusSchedules/n032-Renwick-SanFelipe.pdf", "vehicle": {"icon": "//maps.gstatic.com/mapfiles/transit/iw2/6/bus2.png", "name": "Bus", "type": "BUS"}}, "num_stops": 39, "trip_short_name": "RENWSANFE"}, "travel_mode": "TRANSIT"}, {"distance": {"text": "3.7 mi", "value": 6014}, "duration": {"text": "13 mins", "value": 798}, "end_location": {"lat": 29.803613, "lng": -95.41008699999999}, "html_instructions": "Bus towards N Shepherd P&R", "polyline": {"points": "awqtDn{ieQ?LI?uD@i@@_A?Q?O?{@?m@?M?g@@y@@g@@Q?[?{@?OGEAGCEEGCECECGEY[OYEKCECGEQ_AuCAEEIQe@IQCEACGIEGEGGIIIEEOKGEQKMEk@Oo@@M?{@?WIgB?KEC?SAYAU?IA]?SAeA?S?g@AcA@EBIFKFA@CBIHCDGHGXQ@aAJa@Da@DC?}AL]D]DK@KEA?A?I?G?M?MAAAA?C?AAE?CAA?OCC?AAM?WA[FE@E@c@HG@YD_@HeAPKBw@TgABW?C?W?k@@_A@K?[@SBe@Dc@@SBa@?eA@[?M?eA@c@?e@?]?_@@Y?k@?M?qCBg@?Q?M@U?e@?M?qCB]?w@@_@?E@W?e@?mB@gA?k@@]?qB@c@@a@CE@e@@m@?S@kA?cA@aCBM?oC@eA@oA@Y?[?O?a@Bm@?U?o@?e@@I?A?A?y@?M@YAS@O?_@@w@@y@?]?M?YAMAMCOEYIIAa@Kc@Ku@QGACAm@MAAOCIAK?OAM?M?A?I?O?S@M@IBc@Jq@P}@Vg@Jk@Ji@Hc@Be@DE?c@Bs@ByABA?oCBYA}B@I?A?q@@K?E?k@?C?O@u@?S?k@@w@@K?a@?O?[@U?U?U?k@@k@?Y@C?I?S?kC@y@@K?W@[?S?A?W?G?U@S?c@?e@@O?E?[?mCBeA@U?Y?S?U@A?S?aA@_@?e@@Q?S?U?s@?C?W?qB@sB@eBBg@?oBBaGBq@@w@?aB@i@@W@_B@yA@aB@Q?qD@U@gB?eB@eBA_A@?K"}, "start_location": {"lat": 29.751049, "lng": -95.410635}, "transit_details": {"arrival_stop": {"location": {"lat": 29.803613, "lng": -95.41008699999999}, "name": "N Shepherd Dr @ W 20th St"}, "arrival_time": {"text": "4:44pm", "time_zone": "America/Chicago", "value": 1642027440}, "departure_stop": {"location": {"lat": 29.751049, "lng": -95.410635}, "name": "S Shepherd Dr @ Pelham Dr"}, "departure_time": {"text": "4:30pm", "time_zone": "America/Chicago", "value": 1642026642}, "headsign": "N Shepherd P&R", "line": {"agencies": [{"name": "Metropolitan Transit Authority of Harris County", "phone": "1 (713) 635-4000", "url": "http://www.ridemetro.org/"}], "color": "#004080", "name": "Shepherd", "short_name": "27", "text_color": "#ffffff", "url": "https://www.ridemetro.org/MetroPDFs/Schedules/BusSchedules/n027-Shepherd.pdf", "vehicle": {"icon": "//maps.gstatic.com/mapfiles/transit/iw2/6/bus2.png", "name": "Bus", "type": "BUS"}}, "num_stops": 25, "trip_short_name": "SHEPHERD"}, "travel_mode": "TRANSIT"}, {"distance": {"text": "112 ft", "value": 34}, "duration": {"text": "1 min", "value": 34}, "end_location": {"lat": 29.803842, "lng": -95.41002979999999}, "html_instructions": "Walk to W 20th St @ N Shepherd Dr", "polyline": {"points": "q_|tDdxieQ_@@M??Q"}, "start_location": {"lat": 29.8036121, "lng": -95.410111}, "steps": [{"distance": {"text": "69 ft", "value": 21}, "duration": {"text": "1 min", "value": 15}, "end_location": {"lat": 29.8038391, "lng": -95.4101207}, "html_instructions": "Head <b>north</b> on <b>N Shepherd Dr</b> toward <b>W 20th St</b>", "polyline": {"points": "q_|tDdxieQ_@@M?"}, "start_location": {"lat": 29.8036121, "lng": -95.410111}, "travel_mode": "WALKING"}, {"distance": {"text": "43 ft", "value": 13}, "duration": {"text": "1 min", "value": 19}, "end_location": {"lat": 29.803842, "lng": -95.41002979999999}, "html_instructions": "Turn <b>right</b> onto <b>W 20th St</b>", "maneuver": "turn-right", "polyline": {"points": "_a|tDfxieQ?Q"}, "start_location": {"lat": 29.8038391, "lng": -95.4101207}, "travel_mode": "WALKING"}], "travel_mode": "WALKING"}, {"distance": {"text": "2.7 mi", "value": 4367}, "duration": {"text": "10 mins", "value": 582}, "end_location": {"lat": 29.80163, "lng": -95.454342}, "html_instructions": "Bus towards Memorial City", "polyline": {"points": "ea|tDvwieQJ?@V?fA@`ABfE?tABtJ?pB@rA?r@?H?|@?jB?@?j@@h@AL?\\?J@f@?|B?h@?|@?n@?N?|G?J@tE?d@@dC?p@AL@J?V@P@H?B?D@F@HBH@JDPDLDLDHDJDJHLFHFHLL?@TVTVn@v@NRh@h@NPVX^f@BJBFBFf@v@P`@DZDVBT@F?D@F?H?P@P?X?N?F?j@@pAIpB@f@?V?fA?j@?V@h@AjA?h@@~@?b@@^Af@@d@?X?bA?jA?b@@nC?J?d@Aj@?v@?P@dB?jA?bC?`A?\\@dH?`D?dC@fE?jD?T@`F@vB?jD?vC?X?`E@V@zCAb@?fAAX@fB@fA?T@|B?l@A~A?x@?XAzB?`A?dB?l@?P?F?H@^?Z?@?H?@?Z?h@?f@?j@?^?t@@j@BnAAV@|@@fB?bBG?"}, "start_location": {"lat": 29.803869, "lng": -95.410039}, "transit_details": {"arrival_stop": {"location": {"lat": 29.80163, "lng": -95.454342}, "name": "W 18th St @ Northwest Fwy"}, "arrival_time": {"text": "5:03pm", "time_zone": "America/Chicago", "value": 1642028620}, "departure_stop": {"location": {"lat": 29.803869, "lng": -95.410039}, "name": "W 20th St @ N Shepherd Dr"}, "departure_time": {"text": "4:53pm", "time_zone": "America/Chicago", "value": 1642028038}, "headsign": "Memorial City", "line": {"agencies": [{"name": "Metropolitan Transit Authority of Harris County", "phone": "1 (713) 635-4000", "url": "http://www.ridemetro.org/"}], "color": "#004080", "name": "Long Point / Cavalcade", "short_name": "26", "text_color": "#ffffff", "url": "https://www.ridemetro.org/MetroPDFs/Schedules/BusSchedules/n026-Long-Point-Cavalcade.pdf", "vehicle": {"icon": "//maps.gstatic.com/mapfiles/transit/iw2/6/bus2.png", "name": "Bus", "type": "BUS"}}, "num_stops": 14, "trip_short_name": "LONGPOINT"}, "travel_mode": "TRANSIT"}, {"distance": {"text": "322 ft", "value": 98}, "duration": {"text": "1 min", "value": 77}, "end_location": {"lat": 29.8019199, "lng": -95.45428179999999}, "html_instructions": "Walk to 4400 W 18th St, Houston, TX 77092, USA", "polyline": {"points": "es{tDrlreQ?z@YEc@E?G@Q@a@"}, "start_location": {"lat": 29.8016264, "lng": -95.454342}, "steps": [{"distance": {"text": "95 ft", "value": 29}, "duration": {"text": "1 min", "value": 22}, "end_location": {"lat": 29.8016252, "lng": -95.45463819999999}, "html_instructions": "Head <b>west</b> on <b>W 18th St</b>/<wbr/><b>NW Mall</b>", "polyline": {"points": "es{tDrlreQ?z@"}, "start_location": {"lat": 29.8016264, "lng": -95.454342}, "travel_mode": "WALKING"}, {"distance": {"text": "131 ft", "value": 40}, "duration": {"text": "1 min", "value": 33}, "end_location": {"lat": 29.8019405, "lng": -95.4545788}, "html_instructions": "Turn <b>right</b><div style=\"font-size:0.9em\">Restricted usage road</div>", "maneuver": "turn-right", "polyline": {"points": "es{tDnnreQYEc@E"}, "start_location": {"lat": 29.8016252, "lng": -95.45463819999999}, "travel_mode": "WALKING"}, {"distance": {"text": "95 ft", "value": 29}, "duration": {"text": "1 min", "value": 22}, "end_location": {"lat": 29.8019199, "lng": -95.45428179999999}, "html_instructions": "Turn <b>right</b><div style=\"font-size:0.9em\">Restricted usage road</div><div style=\"font-size:0.9em\">Destination will be on the left</div>", "maneuver": "turn-right", "polyline": {"points": "cu{tDbnreQ?G@Q@a@"}, "start_location": {"lat": 29.8019405, "lng": -95.4545788}, "travel_mode": "WALKING"}], "travel_mode": "WALKING"}], "traffic_speed_entry": [], "via_waypoint": []}], "overview_polyline": {"points": "urdtDl|xeQaAAAaElAA?_@AqIDO@_A?OG??A?HgB@{B@aA?uB@wBBKEW@sC?eHBkKF_HBwFB}MDcTHc`@LiODkIDiAA}GBuE@k@?sCByE@cDBoJDuE?gE?iEB_D@iHBoAEoAKqB]aEw@aCa@qAE{@?a@?a@?u@?a^NwHBqEBiI@}JB_FBc@DyA\\aAJwCHu@TgD|AgA\\m@L_AF}AA{F@cGD]AaC@oBH{@PmBt@o@L_AJsF@}BBW?E{BC}BGqJA}HGgNG_REgGEeB?aFAqEDgCCyFCeDGaFG}JAAIM?K?gB@sA?_@?g@FK@I@SAyCGmH@sDCmGFy@Ty@Jg@L]Ra@Xe@x@y@Xe@hBgAPAf@Y~AkAp@m@p@}@\\c@j@w@bAmDP_ABWEMLsADiDGaP@cDEsIK_XEqJCaCs@_Sg@cNc@sLeA}XCw\\CoPYwCsAaNuAiOi@qGA{DCaFEiFAwDEs@oFBwC??M?L_E@iB@kC?wCDm@?{@?OGMEMIKGa@a@]s@mAwDa@aA[c@g@a@_@Qk@Oo@@iA?WIgB?OEm@CqACeE?]TY\\GXQ@cBPaDXi@FMEa@?QCQCUEe@Aa@HkAReBZcAX{BBsCDqBNqC@aHBuLHoJD_FDg@AsA@eHFsHDaGDcC@aDBsAC}D_A{@Su@Gg@?{@F{D`AuATiAHi@BmCFiHBoCB_MH}MHiPJcMF_VP_KDiI@_A@?K?B_@@M??QE@J?@~ADhGDpS?lI@nE?fDBvVBv@F`@Rx@Zn@xBjC`BhB^f@BJFNf@v@P`@Jr@Fj@B|EIpB@f@?~A?xDBxIBjk@D`a@@xK@pG@rCAlCApG@tF?zFDpE@jEG??z@YEc@E?GBs@"}, "summary": "", "warnings": ["Walking directions are in beta. Use caution \u2013 This route may be missing sidewalks or pedestrian paths."], "waypoint_order": []}], "status": "OK"}