{"geocoded_waypoints": [{"geocoder_status": "OK", "place_id": "ChIJhY3cfyC-QIYRHOdxjsRL7Qw", "types": ["establishment", "point_of_interest", "primary_school", "school"]}, {"geocoder_status": "OK", "place_id": "ChIJ9_tphxzHQIYRIMyPy_d3VZU", "types": ["establishment", "point_of_interest"]}], "routes": [{"bounds": {"northeast": {"lat": 29.8144283, "lng": -95.31511379999999}, "southwest": {"lat": 29.68182789999999, "lng": -95.45463819999999}}, "copyrights": "Map data \u00a92022", "legs": [{"arrival_time": {"text": "4:34pm", "time_zone": "America/Chicago", "value": 1642026897}, "departure_time": {"text": "3:00pm", "time_zone": "America/Chicago", "value": 1642021205}, "distance": {"text": "20.2 mi", "value": 32550}, "duration": {"text": "1 hour 35 mins", "value": 5692}, "end_address": "4400 W 18th St, Houston, TX 77092, USA", "end_location": {"lat": 29.8019199, "lng": -95.45428179999999}, "start_address": "5800 Southmund, Houston, TX 77033, USA", "start_location": {"lat": 29.6822468, "lng": -95.33452469999999}, "steps": [{"distance": {"text": "0.3 mi", "value": 522}, "duration": {"text": "6 mins", "value": 384}, "end_location": {"lat": 29.6818417, "lng": -95.3392963}, "html_instructions": "Walk to M L King Blvd @ Rapido Rd", "polyline": {"points": "aidtDv_{dQLDY~A_@fBETCLGPEJEJQTKHIFGFrBfKfAlFNE"}, "start_location": {"lat": 29.6822468, "lng": -95.33452469999999}, "steps": [{"distance": {"text": "26 ft", "value": 8}, "duration": {"text": "1 min", "value": 6}, "end_location": {"lat": 29.6821786, "lng": -95.3345514}, "html_instructions": "Head <b>south</b> on <b>Crestridge St</b> toward <b>Cherbourg Rd</b>", "polyline": {"points": "aidtDv_{dQLD"}, "start_location": {"lat": 29.6822468, "lng": -95.33452469999999}, "travel_mode": "WALKING"}, {"distance": {"text": "0.1 mi", "value": 178}, "duration": {"text": "2 mins", "value": 132}, "end_location": {"lat": 29.6828574, "lng": -95.3361767}, "html_instructions": "Turn <b>right</b> onto <b>Cherbourg Rd</b>", "maneuver": "turn-right", "polyline": {"points": "shdtD|_{dQY~A_@fBETCLGPEJEJQTKHIFGF"}, "start_location": {"lat": 29.6821786, "lng": -95.3345514}, "travel_mode": "WALKING"}, {"distance": {"text": "0.2 mi", "value": 326}, "duration": {"text": "4 mins", "value": 238}, "end_location": {"lat": 29.6819206, "lng": -95.339334}, "html_instructions": "Turn <b>left</b> onto <b>Rapido Rd</b>", "maneuver": "turn-left", "polyline": {"points": "{ldtDbj{dQrBfKfAlF"}, "start_location": {"lat": 29.6828574, "lng": -95.3361767}, "travel_mode": "WALKING"}, {"distance": {"text": "33 ft", "value": 10}, "duration": {"text": "1 min", "value": 8}, "end_location": {"lat": 29.6818417, "lng": -95.3392963}, "html_instructions": "Turn <b>left</b> onto <b>Martin Luther King Blvd</b>", "maneuver": "turn-left", "polyline": {"points": "_gdtDx}{dQNE"}, "start_location": {"lat": 29.6819206, "lng": -95.339334}, "travel_mode": "WALKING"}], "travel_mode": "WALKING"}, {"distance": {"text": "11.1 mi", "value": 17857}, "duration": {"text": "43 mins", "value": 2574}, "end_location": {"lat": 29.81412, "lng": -95.327876}, "html_instructions": "Bus towards Kashmere TC", "polyline": {"points": "qfdtDn}{dQBHOFoCx@yBp@WHiAZiAXwAb@w@Ta@Lw@Tu@RA?KBWHIBc@JIBm@JOBI?K@C?E?[?O?_@Es@MkA]OEw@Uk@OMEQG]K]IwBo@QG{@W_@Ma@MmC{@_Cm@SEoCy@oA]i@QSIsC{@cCs@OEoC{@{Bo@QGaBe@w@U_AY_@KUI}C{@WKo@Uq@SOEg@OCAe@M[KGCi@OWIc@MyAe@c@KoA_@s@UYIm@Sw@SeA[{Ae@o@QGCgA[A?KCYKOEICKCkBi@GCICWIC?UEUCSCU?S?I@G?Q@SBQDQDMDSJa@PMDmAd@?@}@^y@\\aA^{@\\m@Va@Ne@Rq@XQFSHQBM@Q?MAOAMAK?Q@S@YD_@FOJC@GDOJEFEDEDGHINS^EFCFIFONIFIDu@Z_C`Ac@NeAV_@JcB\\E@cATe@Hg@LUHSFUJQJULQLOJKHONe@f@KLKLORQRIFGHMLKL]VSPEDKJ]Zk@Xe@T_@LODQDUBYAOHcACi@CA?YAKGMEQEOEOEKCm@OOC[?YI[IMEOUGCkA]a@MKCSGOEWIF_@BIF_@Lo@He@FYBKJi@L]DOb@u@Xk@N[Tc@FMMIRe@Pm@Nq@Fo@DsAPgB@gAIO[I_ANkB`@mFlAkGvA{HdBiEbAcGvAmFjAuAZgAR_Aq@wCwBQc@QUSYOWQYa@y@CECMAI?AAI?I?Q?G@E?EBKHe@BCDGLGlAb@~@\\NNBD@LIRg@LGh@GFOBWKa@Yc@YMQGIEO@E?EBKHe@?WK@K?Kj@UFSGMY[i@QYg@i@c@_@m@c@eBk@?Aa@KMEsDiAoBm@_@KICuAc@SG]KCA]KcCu@eBi@OEm@Qi@Me@GS?QAa@@WBC@G?SDA?E@c@F]BK?c@Ba@?Y?C?_@C[CUCWKe@Oa@MGCWIMEkAc@SIGCYK}C_Am@So@SaAWUGuC{@a@MiAe@OIQKuA}@OMSOe@Ws@o@w@m@mAs@CCKGEAKEGEkAa@q@Q_@KUIm@UcB_@iCw@SEiE{AaA_@IE[OoA}@m@g@gA_ASS_@a@_@]WQsBwA{BcBo@e@{A}@SMYSq@g@aBoAm@a@aAq@aAq@YQe@a@cAq@_BcAi@[}@i@[S{AaAgAu@IGg@_@]WQKKIYSa@W]W]Yc@]aD_Co@a@cCoAwAo@]Mu@c@?Aw@_@g@WCA{@c@{@a@OIkB{@s@_@o@YIEOIeB}@SKgBaAy@]OGUKy@_@YGaBAcB?c@@W?a@AK?s@CiBEW?qA?cBA[?W?uAAc@?q@?Y?mA?]?}A?c@Am@@Y?wBA{B?cB?Q?WAyASaBU[C}@?C?c@BeADa@?Q?c@@E?G?U@O?I?m@?u@@W@E?m@@]@y@Bc@D[Dk@F_@DkCf@yA\\w@Jo@B_@@O@_E@oD?O?iDDW?}D@eD@[?{@?i@Ac@?WAE?YCwBCCBA?A?A@A?C?W?iABuA?sD@S@E?M?I?A?O?M?cC?G?E?U?[?C?I@m@?wE@gA@[?G@MDoBD[@_DTI?M?S?oEBW?k@BY?C?I@K@_@BQ@S?SHKDi@VMFm@\\C?ULYLUJi@PmABS?mF@Q?s@@eB@gD@g@@Y?s@@e@?W@_@KKEaA@U?a@@k@@]?]?o@?sB?{BHGBUD}@?m@@E?c@?C?Y?U?]?W?W?a@?c@@w@?S?aIDi@@{@@i@@UGg@Aa@AQ?A?q@?k@?_@?]?QAMCQ@kA@Q?m@@Q?c@?K?W?M?U?c@?{@?kA@I?G?cB@kC@C?gA@i@?eCBmA@q@@?^BzI@~IB~I@hA@zGBbH@~G?lAi@b@u@l@y@l@OWCIAA@QDG@Aj@YFN"}, "start_location": {"lat": 29.681849, "lng": -95.339276}, "transit_details": {"arrival_stop": {"location": {"lat": 29.81412, "lng": -95.327876}, "name": "Kashmere Transit Center"}, "arrival_time": {"text": "3:50pm", "time_zone": "America/Chicago", "value": 1642024200}, "departure_stop": {"location": {"lat": 29.681849, "lng": -95.339276}, "name": "M L King Blvd @ Rapido Rd"}, "departure_time": {"text": "3:07pm", "time_zone": "America/Chicago", "value": 1642021626}, "headsign": "Kashmere TC", "line": {"agencies": [{"name": "Metropolitan Transit Authority of Harris County", "phone": "1 (713) 635-4000", "url": "http://www.ridemetro.org/"}], "color": "#004080", "name": "MLK / Lockwood", "short_name": "80", "text_color": "#ffffff", "url": "https://www.ridemetro.org/MetroPDFs/Schedules/BusSchedules/n080-MLK-Lockwood.pdf", "vehicle": {"icon": "//maps.gstatic.com/mapfiles/transit/iw2/6/bus2.png", "name": "Bus", "type": "BUS"}}, "num_stops": 62, "trip_short_name": "MLKLOCK"}, "travel_mode": "TRANSIT"}, {"distance": {"text": "8.7 mi", "value": 14073}, "duration": {"text": "34 mins", "value": 2020}, "end_location": {"lat": 29.80163, "lng": -95.454342}, "html_instructions": "Bus towards Memorial City", "polyline": {"points": "ga~tDfvydQGOp@s@RB@@HLA\\u@l@y@l@AzAl@?DAjBAr@?vFC?L|DCdEAV?~@Av@?BAX?ZAHAJ?NCVEHAD?DAVAJA@?D?r@ErAMBAb@Cl@Ez@CN?B?L?@?fAAt@?|@AP?tHCd@AX?V?\\?zFEdA?H?z@Ah@?v@?vAAb@?t@??n@?j@@bD?p@@hA?X?x@DvCFpD?rA@zBGvAEpAGjBARC\\K`AEb@]fBKb@EPGVYdAUdAMx@W|AOjAMx@EZGd@WbBKj@Ib@EVAFIf@ADKn@Kz@In@K|@SdBK|@Gb@K~@AHW|Bc@jEo@fFWlBK|@EVSbBQpAGr@Mp@Eb@CNOrAKdBCf@?HAx@?xB@d@@j@?pA@nA?X@dB?T@fAB~D@bD@ZBbEBzB@fAGrAAXGvA@vD@xC@^@tD@x@?V?v@?l@?\\BpD@nB?fA@jA?tA?T?\\?lA@nA?tA@dA?Z@bA?pB@vDAlBAV?LANAT?RAXCR?@CXQ|@Kf@Sz@ENOr@CRE\\Cb@KfCARCpAAv@AXCf@?DAT?LAHCfAAd@?D?lB?h@?VBjC?lB?x@@z@@fB?fD@fDE`BA|@?HA\\@V?lA@L?\\?x@?V@j@@t@?L?JB`@@T@NBN@N@V?f@@f@?`A?r@?L?xBAP?JALAPANIbAEb@?TAR?V?fH?p@@vD@xAC^C^CRA@ETC\\Af@?P?P?LA`@@\\BpA?^@j@?H@tA?n@?b@@b@?X?P?V@`A?v@@dA?V?vA@T?lB@jB@tA?XB|E?~A@zB@nB?V?V@t@?L?R?L@R?N?f@?h@@|@?\\?d@?b@@n@?pA@|B?d@?`@@t@?T?pA@v@@rA?v@@bD@~@?nA@H?tB@^@dC?P?j@@x@?x@?t@@P?dA@|A?\\?^@dC@zB?xA?N@V?fA@`ABfE?tABtJ?pB@rA?r@?H?|@?jB?@?j@@h@AL?\\?J@f@?|B?h@?|@?n@?N?|G?J@tE?d@@dC?p@AL@J?V@P@H?B?D@F@HBH@JDPDLDLDHDJDJHLFHFHLL?@TVTVn@v@NRh@h@NPVX^f@BJBFBFf@v@P`@DZDVBT@F?D@F?H?P@P?X?N?F?j@@pAIpB@f@?V?fA?j@?V@h@AjA?h@@~@?b@@^Af@@d@?X?bA?jA?b@@nC?J?d@Aj@?v@?P@dB?jA?bC?`A?\\@dH?`D?dC@fE?jD?T@`F@vB?jD?vC?X?`E@V@zCAb@?fAAX@fB@fA?T@|B?l@A~A?x@?XAzB?`A?dB?l@?P?F?H@^?Z?@?H?@?Z?h@?f@?j@?^?t@@j@BnAAV@|@@fB?bBG?"}, "start_location": {"lat": 29.81412, "lng": -95.327876}, "transit_details": {"arrival_stop": {"location": {"lat": 29.80163, "lng": -95.454342}, "name": "W 18th St @ Northwest Fwy"}, "arrival_time": {"text": "4:33pm", "time_zone": "America/Chicago", "value": 1642026820}, "departure_stop": {"location": {"lat": 29.81412, "lng": -95.327876}, "name": "Kashmere Transit Center"}, "departure_time": {"text": "4:00pm", "time_zone": "America/Chicago", "value": 1642024800}, "headsign": "Memorial City", "line": {"agencies": [{"name": "Metropolitan Transit Authority of Harris County", "phone": "1 (713) 635-4000", "url": "http://www.ridemetro.org/"}], "color": "#004080", "name": "Long Point / Cavalcade", "short_name": "26", "text_color": "#ffffff", "url": "https://www.ridemetro.org/MetroPDFs/Schedules/BusSchedules/n026-Long-Point-Cavalcade.pdf", "vehicle": {"icon": "//maps.gstatic.com/mapfiles/transit/iw2/6/bus2.png", "name": "Bus", "type": "BUS"}}, "num_stops": 52, "trip_short_name": "LONGPOINT"}, "travel_mode": "TRANSIT"}, {"distance": {"text": "322 ft", "value": 98}, "duration": {"text": "1 min", "value": 77}, "end_location": {"lat": 29.8019199, "lng": -95.45428179999999}, "html_instructions": "Walk to 4400 W 18th St, Houston, TX 77092, USA", "polyline": {"points": "es{tDrlreQ?z@YEc@E?G@Q@a@"}, "start_location": {"lat": 29.8016264, "lng": -95.454342}, "steps": [{"distance": {"text": "95 ft", "value": 29}, "duration": {"text": "1 min", "value": 22}, "end_location": {"lat": 29.8016252, "lng": -95.45463819999999}, "html_instructions": "Head <b>west</b> on <b>W 18th St</b>/<wbr/><b>NW Mall</b>", "polyline": {"points": "es{tDrlreQ?z@"}, "start_location": {"lat": 29.8016264, "lng": -95.454342}, "travel_mode": "WALKING"}, {"distance": {"text": "131 ft", "value": 40}, "duration": {"text": "1 min", "value": 33}, "end_location": {"lat": 29.8019405, "lng": -95.4545788}, "html_instructions": "Turn <b>right</b><div style=\"font-size:0.9em\">Restricted usage road</div>", "maneuver": "turn-right", "polyline": {"points": "es{tDnnreQYEc@E"}, "start_location": {"lat": 29.8016252, "lng": -95.45463819999999}, "travel_mode": "WALKING"}, {"distance": {"text": "95 ft", "value": 29}, "duration": {"text": "1 min", "value": 22}, "end_location": {"lat": 29.8019199, "lng": -95.45428179999999}, "html_instructions": "Turn <b>right</b><div style=\"font-size:0.9em\">Restricted usage road</div><div style=\"font-size:0.9em\">Destination will be on the left</div>", "maneuver": "turn-right", "polyline": {"points": "cu{tDbnreQ?G@Q@a@"}, "start_location": {"lat": 29.8019405, "lng": -95.4545788}, "travel_mode": "WALKING"}], "travel_mode": "WALKING"}], "traffic_speed_entry": [], "via_waypoint": []}], "overview_polyline": {"points": "aidtDv_{dQLDY~Ae@|BWv@o@n@zDtRLIBHOFiGjBcGbBwF~Am@N}@N_@@k@?sAS_EiAaIaCoDiAsCs@}GsBwLqDgHsBsGkBiC{@{EwAgMuDsGmBeEiA_AGw@BeATqChAkJxDcA`@e@L}@AYAe@By@LSLc@^k@~@c@f@iEjBiBf@cCh@wCn@qAh@cAp@aClCkAdAQPiAt@eAb@a@Jo@@OHcACk@CYAKG_@K_@Ky@Sk@Cu@SMEOUsAa@m@Qc@MWIF_@Ji@VuAd@mBrAmC\\q@MIRe@`@_BLcCPgB@gAIO[IkDp@yNdDw^lI}Cn@wEiDc@y@c@q@s@sAGSC_@@e@Lq@HKLGlAb@~@\\NNDRIRg@LGh@GFOBWKeAs@U[CUBQHe@?WW@Kj@UFSGMYm@cAkAiAm@c@eBk@a@MqIiC}KiD}@WoAUe@Ay@Da@FsALcBB{@Gm@OgBk@uBw@uGsBwA_@wDiAyAo@gBiAc@]e@Ws@o@eCaBOKeBo@uC}@mFwA}EaBkAe@kBmAuBgBs@u@kDgCkDiCoBkA{EmDcEwCcDuBgBeAiEsC{EkDeE}Co@a@cCoAuB}@u@e@_D}AkFgCoDgBeEsBoAk@YGaBAgC@y@AaEIiFAsLC{H?uB?qBU}BYaA?}CHoCBaCDwAD_AJkALeFdAgBNo@BiPFwKBaDC_@C{B?G@{DBgFBeF?wIDc@@MDoBD{DVW?gHFs@Bq@DS?SHu@\\{@d@iAf@i@PmABaG@sID{CBW@_@KKEaA@w@@iA@mA?sB?{BH]HkB@gA?uF@qMJUGg@As@A_C?oACsFBcMD{FD_CBBzJFhWFl\\_BpAy@l@OWEKFYl@[FNGOp@s@RBJNA\\u@l@y@l@AzAr@A~CAvFC?LbKErCCjAC`BQnCSpCOpFCvVKtFCb@?t@??n@@nE@zBL|K@nEMhDI~BO~Ac@jCQt@a@|Ac@~B{@~Fu@xEQfAc@`Ds@dGiArKuCfUIr@[xDCp@ArDDrFB|EJbQDbEIlBGvA@vDBxDB~HFlRDhPAjIErAYlBu@fDIp@OjDIvDMnEFfS@nIG~C?lCDxFN~B@dEAdDOrBGdBBjRMtAIr@Ax@?~AHtJNlc@X~s@Ld^Jv_@?vHDhb@LlAVv@\\n@`CtCpB|BFRj@~@V|@Hl@B^@lA?r@@pAIpB@~@?rB?vDBzJDfo@Bz`@@~G@~EAbS@xC@|GDlG?bBG??z@}@K@Y@a@"}, "summary": "", "warnings": ["Walking directions are in beta. Use caution \u2013 This route may be missing sidewalks or pedestrian paths."], "waypoint_order": []}, {"bounds": {"northeast": {"lat": 29.80194599999999, "lng": -95.31507739999999}, "southwest": {"lat": 29.68182789999999, "lng": -95.45679299999999}}, "copyrights": "Map data \u00a92022", "legs": [{"arrival_time": {"text": "4:57pm", "time_zone": "America/Chicago", "value": 1642028238}, "departure_time": {"text": "3:00pm", "time_zone": "America/Chicago", "value": 1642021205}, "distance": {"text": "20.2 mi", "value": 32486}, "duration": {"text": "1 hour 57 mins", "value": 7033}, "end_address": "4400 W 18th St, Houston, TX 77092, USA", "end_location": {"lat": 29.8019199, "lng": -95.45428179999999}, "start_address": "5800 Southmund, Houston, TX 77033, USA", "start_location": {"lat": 29.6822468, "lng": -95.33452469999999}, "steps": [{"distance": {"text": "0.3 mi", "value": 522}, "duration": {"text": "6 mins", "value": 384}, "end_location": {"lat": 29.6818417, "lng": -95.3392963}, "html_instructions": "Walk to M L King Blvd @ Rapido Rd", "polyline": {"points": "aidtDv_{dQLDY~A_@fBETCLGPEJEJQTKHIFGFrBfKfAlFNE"}, "start_location": {"lat": 29.6822468, "lng": -95.33452469999999}, "steps": [{"distance": {"text": "26 ft", "value": 8}, "duration": {"text": "1 min", "value": 6}, "end_location": {"lat": 29.6821786, "lng": -95.3345514}, "html_instructions": "Head <b>south</b> on <b>Crestridge St</b> toward <b>Cherbourg Rd</b>", "polyline": {"points": "aidtDv_{dQLD"}, "start_location": {"lat": 29.6822468, "lng": -95.33452469999999}, "travel_mode": "WALKING"}, {"distance": {"text": "0.1 mi", "value": 178}, "duration": {"text": "2 mins", "value": 132}, "end_location": {"lat": 29.6828574, "lng": -95.3361767}, "html_instructions": "Turn <b>right</b> onto <b>Cherbourg Rd</b>", "maneuver": "turn-right", "polyline": {"points": "shdtD|_{dQY~A_@fBETCLGPEJEJQTKHIFGF"}, "start_location": {"lat": 29.6821786, "lng": -95.3345514}, "travel_mode": "WALKING"}, {"distance": {"text": "0.2 mi", "value": 326}, "duration": {"text": "4 mins", "value": 238}, "end_location": {"lat": 29.6819206, "lng": -95.339334}, "html_instructions": "Turn <b>left</b> onto <b>Rapido Rd</b>", "maneuver": "turn-left", "polyline": {"points": "{ldtDbj{dQrBfKfAlF"}, "start_location": {"lat": 29.6828574, "lng": -95.3361767}, "travel_mode": "WALKING"}, {"distance": {"text": "33 ft", "value": 10}, "duration": {"text": "1 min", "value": 8}, "end_location": {"lat": 29.6818417, "lng": -95.3392963}, "html_instructions": "Turn <b>left</b> onto <b>Martin Luther King Blvd</b>", "maneuver": "turn-left", "polyline": {"points": "_gdtDx}{dQNE"}, "start_location": {"lat": 29.6819206, "lng": -95.339334}, "travel_mode": "WALKING"}], "travel_mode": "WALKING"}, {"distance": {"text": "8.3 mi", "value": 13349}, "duration": {"text": "34 mins", "value": 2017}, "end_location": {"lat": 29.783975, "lng": -95.315788}, "html_instructions": "Bus towards Kashmere TC", "polyline": {"points": "qfdtDn}{dQBHOFoCx@yBp@WHiAZiAXwAb@w@Ta@Lw@Tu@RA?KBWHIBc@JIBm@JOBI?K@C?E?[?O?_@Es@MkA]OEw@Uk@OMEQG]K]IwBo@QG{@W_@Ma@MmC{@_Cm@SEoCy@oA]i@QSIsC{@cCs@OEoC{@{Bo@QGaBe@w@U_AY_@KUI}C{@WKo@Uq@SOEg@OCAe@M[KGCi@OWIc@MyAe@c@KoA_@s@UYIm@Sw@SeA[{Ae@o@QGCgA[A?KCYKOEICKCkBi@GCICWIC?UEUCSCU?S?I@G?Q@SBQDQDMDSJa@PMDmAd@?@}@^y@\\aA^{@\\m@Va@Ne@Rq@XQFSHQBM@Q?MAOAMAK?Q@S@YD_@FOJC@GDOJEFEDEDGHINS^EFCFIFONIFIDu@Z_C`Ac@NeAV_@JcB\\E@cATe@Hg@LUHSFUJQJULQLOJKHONe@f@KLKLORQRIFGHMLKL]VSPEDKJ]Zk@Xe@T_@LODQDUBYAOHcACi@CA?YAKGMEQEOEOEKCm@OOC[?YI[IMEOUGCkA]a@MKCSGOEWIF_@BIF_@Lo@He@FYBKJi@L]DOb@u@Xk@N[Tc@FMMIRe@Pm@Nq@Fo@DsAPgB@gAIO[I_ANkB`@mFlAkGvA{HdBiEbAcGvAmFjAuAZgAR_Aq@wCwBQc@QUSYOWQYa@y@CECMAI?AAI?I?Q?G@E?EBKHe@BCDGLGlAb@~@\\NNBD@LIRg@LGh@GFOBWKa@Yc@YMQGIEO@E?EBKHe@?WK@K?Kj@UFSGMY[i@QYg@i@c@_@m@c@eBk@?Aa@KMEsDiAoBm@_@KICuAc@SG]KCA]KcCu@eBi@OEm@Qi@Me@GS?QAa@@WBC@G?SDA?E@c@F]BK?c@Ba@?Y?C?_@C[CUCWKe@Oa@MGCWIMEkAc@SIGCYK}C_Am@So@SaAWUGuC{@a@MiAe@OIQKuA}@OMSOe@Ws@o@w@m@mAs@CCKGEAKEGEkAa@q@Q_@KUIm@UcB_@iCw@SEiE{AaA_@IE[OoA}@m@g@gA_ASS_@a@_@]WQsBwA{BcBo@e@{A}@SMYSq@g@aBoAm@a@aAq@aAq@YQe@a@cAq@_BcAi@[}@i@[S{AaAgAu@IGg@_@]WQKKIYSa@W]W]Yc@]aD_Co@a@cCoAwAo@]Mu@c@?Aw@_@g@WCA{@c@{@a@OIkB{@s@_@o@YIEOIeB}@SKgBaAy@]OGUKy@_@YGaBAcB?c@@W?a@AK?s@CiBEW?qA?cBA[?W?uAAc@?q@?Y?mA?]?}A?c@Am@@Y?wBA{B?cB?Q?WAyASaBU[C}@?C?c@BeADa@?Q?c@@E?G?U@O?I?m@?u@@W@E?m@@]@y@Bc@D[Dk@F_@DkCf@yA\\w@Jo@B_@@O@_E@oD?O?iDDW?}D@eD@[?{@?i@Ac@?WA?M"}, "start_location": {"lat": 29.681849, "lng": -95.339276}, "transit_details": {"arrival_stop": {"location": {"lat": 29.783975, "lng": -95.315788}, "name": "Lockwood Dr @ Sudan St"}, "arrival_time": {"text": "3:40pm", "time_zone": "America/Chicago", "value": 1642023643}, "departure_stop": {"location": {"lat": 29.681849, "lng": -95.339276}, "name": "M L King Blvd @ Rapido Rd"}, "departure_time": {"text": "3:07pm", "time_zone": "America/Chicago", "value": 1642021626}, "headsign": "Kashmere TC", "line": {"agencies": [{"name": "Metropolitan Transit Authority of Harris County", "phone": "1 (713) 635-4000", "url": "http://www.ridemetro.org/"}], "color": "#004080", "name": "MLK / Lockwood", "short_name": "80", "text_color": "#ffffff", "url": "https://www.ridemetro.org/MetroPDFs/Schedules/BusSchedules/n080-MLK-Lockwood.pdf", "vehicle": {"icon": "//maps.gstatic.com/mapfiles/transit/iw2/6/bus2.png", "name": "Bus", "type": "BUS"}}, "num_stops": 48, "trip_short_name": "MLKLOCK"}, "travel_mode": "TRANSIT"}, {"distance": {"text": "10.9 mi", "value": 17585}, "duration": {"text": "42 mins", "value": 2517}, "end_location": {"lat": 29.797383, "lng": -95.45679299999999}, "html_instructions": "Bus towards Northwest TC", "polyline": {"points": "{dxtDtjwdQ?LE?YCwBCCBA?A?A@A?C?W?iABuA?sD@S@E?M?I?A?O?M?cC?G?E?U?[?C?I@m@?wE@gA@?k@AY?O@iAx@A`FEL\\HZJ^H\\Ph@DN@BDNZfA?NDXFzAFR@d@?VBvABzAFtDBxABbCD`C?P?FAHOz@CNAJ?H?J?h@?bE?tB?fABf@@NDRBL@HDL\\fAJXh@`BL`@z@hCFRFNX|@b@rAHVlDhK@FfAbDTr@BD@H@D@F?H@x@?L@`D@nC?V?\\@`C@fC?RB|C?~A?PBHBFLZDRBT?V?R?X@z@?b@?tA@h@?~C?D@h@?RVZh@x@Zd@Rf@H`@?@Lb@?@BHH`@DTBXDTBNLdAZhBHT@X?F?V?R@pA?hA?D@j@?lB?nA?T?h@?tB?Z?P?X?R?T?P?h@?R@N?L?D?L?B@xC?J@t@@Z@dA@jA@|@?\\@Z?V?J@r@?^@d@@p@@\\@Z?~@@dA?f@?p@@hA?r@?vA?V@bD?bD@pB?r@?dD@lA?N@T?nA?L?R?^@B?B@B?B@@t@tCBHn@~B`@xABNXbAHZRz@FVLd@J^Nj@XjAv@xCb@~ALb@DRPn@d@jBZhABJBJPl@BJ@FBHt@rCd@~Ar@pCn@dCd@fB?@Np@Pv@BLDXFx@BZ@d@@b@AV?D?F?@?N?@AN?H?D?@CVATEZId@G^GZGVSp@MT[bAQh@OXo@hB[x@KNKZIR?BK`@Q\\e@j@KLGFKJw@z@e@f@ORCDABEHAHCLCHAHAVANAH?P?RBn@?H@TAP?J?HALCRERCLCTCXAV?p@BTBVBTFV\\jARl@Nd@JZFRLb@J^h@bB`@nAFRRp@@BHXBDFPDNRf@PVJJJHb@ZHFJFRPHHFJ@?HLDJBHBFBJDRBN@L@L@F?B@N?@?@?D@\\?H?V?PAF?VAHCN?DABADADA?GPCDA@ABEFQPEDIHWRMHEBCBGDQLGFEBKLA@IJINGNINCFCFELELk@BM?K?M@M?O@IBKDGDIDIHILELGLCNEX?Z@`@AX?@?P@|H?VBhF@R?Z?V?\\@V?T?J@Z?Z@rA?`@?L?z@?N?@?F?R?N@vA?~B?^@Z?bA@\\?fA?D@R@hB?L?dB@lB@z@?P?^@jB@nB@lB?pA@X@nB@vB@d@?LlIA\\?rJG|@Ah@?d@AZA@\\@bD@b@?\\?j@?zA?vD?JAJ?p@A^CdAAp@Cv@?DKbCGjA@j@Gr@?FIp@Gn@GVEb@G^Kh@EXEZId@Kt@?@EXE^CVEb@KbAG~@M~AEz@Ep@Eb@?@Ej@CZAP?LC^Cn@AVAJ?d@AH?V?H?J?l@BhE@N?`C?~@?tAAX?BAhABvC@f@?x@@rA?t@BbG@~A?t@@zB?jB@d@wA@oB?c@@}ADs@@oB@a@@_@?UB_@?[?[?a@?E?]AC?]CIAw@KaBWSCk@G[G[Ei@IgBYEAcBWe@IeAOw@OMCMCwA[y@M}@OQCQC_BWu@Ka@GaDg@{Ce@WA[A[?]@c@BK@[BM@@b@AV@n@?b@?d@@d@?^?J?XAJAf@Az@@`B@rA?~@@V@XBb@BZD`@DTHd@lAfFFXHd@H`@Fh@Fp@@VBb@?l@?zD@V?hE?X@nE?bF@f@?|C?hD?tA@T?nA?zA?|EBvG?nF?\\@`D?bB?nA?t@@lF?X?l@@lA?bB?dA?J@~E?R?xA?N?j@?n@BLAN@R?z@AhB?X?V?L?B@B?HBVINSXKP]d@_DxEMRe@r@oAnBQV[f@CDKN]`@ORE@C?C@C@q@bAKNQTs@bAEHEJCB?@AB?@?@CPGHS\\[d@iAbBq@`A_@n@e@r@G@C@C@Yb@q@`A]f@QV_@j@A@?@A@W\\KNABGHOVCBILc@l@W\\GLGHU\\?BABAJOX]d@OVo@dAiAhBa@n@Y`@QXY`@AD{A|B_B~BwAxBMRh@`@\\Zx@x@PNZZTPCF"}, "start_location": {"lat": 29.783975, "lng": -95.315788}, "transit_details": {"arrival_stop": {"location": {"lat": 29.797383, "lng": -95.45679299999999}, "name": "N Post Oak Rd @ Hempstead Hwy"}, "arrival_time": {"text": "4:44pm", "time_zone": "America/Chicago", "value": 1642027440}, "departure_stop": {"location": {"lat": 29.783975, "lng": -95.315788}, "name": "Lockwood Dr @ Sudan St"}, "departure_time": {"text": "4:02pm", "time_zone": "America/Chicago", "value": 1642024923}, "headsign": "Northwest TC", "line": {"agencies": [{"name": "Metropolitan Transit Authority of Harris County", "phone": "1 (713) 635-4000", "url": "http://www.ridemetro.org/"}], "color": "#004080", "name": "Quitman", "short_name": "66", "text_color": "#ffffff", "url": "https://www.ridemetro.org/MetroPDFs/Schedules/BusSchedules/n066-Quitman.pdf", "vehicle": {"icon": "//maps.gstatic.com/mapfiles/transit/iw2/6/bus2.png", "name": "Bus", "type": "BUS"}}, "num_stops": 51, "trip_short_name": "QUITMAN"}, "travel_mode": "TRANSIT"}, {"distance": {"text": "0.6 mi", "value": 1030}, "duration": {"text": "13 mins", "value": 796}, "end_location": {"lat": 29.8019199, "lng": -95.45428179999999}, "html_instructions": "Walk to 4400 W 18th St, Houston, TX 77092, USA", "polyline": {"points": "sxztD|{reQUS[YKMKIo@m@KIWWa@]KI]c@OUEKMYm@{@EO]Y{@aAGMf@mAAWgAiASSBELUqBoBNSyAsAEEIIS_@ISMa@k@L_@P[JMDSFMD?j@?h@BnAAV@|@@hBYDe@F@D@R@f@?D"}, "start_location": {"lat": 29.7973772, "lng": -95.45678590000001}, "steps": [{"distance": {"text": "0.2 mi", "value": 272}, "duration": {"text": "4 mins", "value": 211}, "end_location": {"lat": 29.7991375, "lng": -95.4548499}, "html_instructions": "Head <b>northeast</b> on <b>N Post Oak Rd</b> toward <b>Hempstead Rd</b>", "polyline": {"points": "sxztD|{reQUS[YKMKIo@m@KIWWa@]KI]c@OUEKMYm@{@EO]Y"}, "start_location": {"lat": 29.7973772, "lng": -95.45678590000001}, "travel_mode": "WALKING"}, {"building_level": {"number": 0}, "distance": {"text": "0.1 mi", "value": 163}, "duration": {"text": "2 mins", "value": 129}, "end_location": {"lat": 29.7996479, "lng": -95.45357349999999}, "html_instructions": "Walk for 0.1&nbsp;mi", "polyline": {"points": "sc{tDxoreQ{@aAGMf@mAAWgAiA"}, "start_location": {"lat": 29.7991375, "lng": -95.4548499}, "travel_mode": "WALKING"}, {"distance": {"text": "49 ft", "value": 15}, "duration": {"text": "1 min", "value": 11}, "end_location": {"lat": 29.7997517, "lng": -95.45346980000001}, "html_instructions": "Head <b>northeast</b>", "polyline": {"points": "yf{tDxgreQSS"}, "start_location": {"lat": 29.7996479, "lng": -95.45357349999999}, "travel_mode": "WALKING"}, {"distance": {"text": "56 ft", "value": 17}, "duration": {"text": "1 min", "value": 13}, "end_location": {"lat": 29.7996572, "lng": -95.4533311}, "html_instructions": "Turn <b>right</b>", "maneuver": "turn-right", "polyline": {"points": "mg{tDdgreQBELU"}, "start_location": {"lat": 29.7997517, "lng": -95.45346980000001}, "travel_mode": "WALKING"}, {"distance": {"text": "276 ft", "value": 84}, "duration": {"text": "1 min", "value": 60}, "end_location": {"lat": 29.8002303, "lng": -95.452771}, "html_instructions": "Turn <b>left</b>", "maneuver": "turn-left", "polyline": {"points": "{f{tDhfreQqBoB"}, "start_location": {"lat": 29.7996572, "lng": -95.4533311}, "travel_mode": "WALKING"}, {"distance": {"text": "43 ft", "value": 13}, "duration": {"text": "1 min", "value": 10}, "end_location": {"lat": 29.8001537, "lng": -95.4526671}, "html_instructions": "Turn <b>right</b> toward <b>W Loop S Fwy</b>", "maneuver": "turn-right", "polyline": {"points": "mj{tDxbreQNS"}, "start_location": {"lat": 29.8002303, "lng": -95.452771}, "travel_mode": "WALKING"}, {"distance": {"text": "420 ft", "value": 128}, "duration": {"text": "1 min", "value": 86}, "end_location": {"lat": 29.8008984, "lng": -95.45173779999999}, "html_instructions": "Turn <b>left</b> toward <b>W Loop S Fwy</b>", "maneuver": "turn-left", "polyline": {"points": "}i{tDdbreQyAsAEEIIS_@ISMa@"}, "start_location": {"lat": 29.8001537, "lng": -95.4526671}, "travel_mode": "WALKING"}, {"distance": {"text": "279 ft", "value": 85}, "duration": {"text": "1 min", "value": 75}, "end_location": {"lat": 29.8016641, "lng": -95.4520582}, "html_instructions": "Turn <b>left</b> onto <b>W Loop S Fwy</b>", "maneuver": "turn-left", "polyline": {"points": "sn{tDj|qeQk@L_@P[JMDSFMD"}, "start_location": {"lat": 29.8008984, "lng": -95.45173779999999}, "travel_mode": "WALKING"}, {"distance": {"text": "0.1 mi", "value": 177}, "duration": {"text": "2 mins", "value": 140}, "end_location": {"lat": 29.8016283, "lng": -95.4538499}, "html_instructions": "Turn <b>left</b> onto <b>W 18th St</b>/<wbr/><b>NW Mall</b>", "maneuver": "turn-left", "polyline": {"points": "ks{tDj~qeQ?j@?h@BnAAV@|@@hB"}, "start_location": {"lat": 29.8016641, "lng": -95.4520582}, "travel_mode": "WALKING"}, {"distance": {"text": "131 ft", "value": 40}, "duration": {"text": "1 min", "value": 34}, "end_location": {"lat": 29.80194599999999, "lng": -95.4539156}, "html_instructions": "Turn <b>right</b><div style=\"font-size:0.9em\">Restricted usage road</div>", "maneuver": "turn-right", "polyline": {"points": "es{tDpireQYDe@F"}, "start_location": {"lat": 29.8016283, "lng": -95.4538499}, "travel_mode": "WALKING"}, {"distance": {"text": "118 ft", "value": 36}, "duration": {"text": "1 min", "value": 27}, "end_location": {"lat": 29.8019199, "lng": -95.45428179999999}, "html_instructions": "Turn <b>left</b><div style=\"font-size:0.9em\">Restricted usage road</div><div style=\"font-size:0.9em\">Destination will be on the right</div>", "maneuver": "turn-left", "polyline": {"points": "eu{tD~ireQ@D@R@f@?D"}, "start_location": {"lat": 29.80194599999999, "lng": -95.4539156}, "travel_mode": "WALKING"}], "travel_mode": "WALKING"}], "traffic_speed_entry": [], "via_waypoint": []}], "overview_polyline": {"points": "aidtDv_{dQLDY~Ae@|BWv@o@n@zDtRLIBHOFiGjBcGbBwF~AkB^_@@k@?sAS_EiAaIaCcI}B}GsBwLqDgHsB}KgDcTmGyMwD_AGw@BeATqChAkJxDiBn@}@A_A@y@LSLc@^k@~@c@f@iEjBiBf@cCh@wCn@qAh@cAp@aClCkAdAQPiAt@eAb@a@Jo@@OHcACk@Ce@I_AWy@Sk@Cu@SMEOUsAa@m@Qc@MWIF_@Ji@VuAd@mBrAmC\\q@MIRe@`@_BLcCPgB@gAIO[IkDp@yNdDw^lI}Cn@wEiDc@y@c@q@{@gBC_@@e@V}@LGlAb@~@\\NNDRIRg@LOp@OBWKeAs@U[CUBQH}@W@Kj@UFSGMYm@cAkAiAm@c@eBk@a@MqIiC}KiD}@WoAUe@Ay@Da@FsALcBB{@Gm@OgBk@uBw@uGsBoGiByAo@gBiA}BeBuCmBeBo@uC}@mFwA}EaBkAe@kBmAiD}CkDgCkDiCoBkA{EmDcEwCkG{DiEsC{EkDeE}CsDqBkDcBkKeFuJ{EoAk@YGaBAgC@y@AaEIiFAsLC{H?uB?qBU}BYaA?}CHoCBaCDwCPkALeFdAgBNo@BiPFwKBaDC?M?L_@C_C?_@@eKFgE?wA@_HBAeA@yAzGGl@vBX|@`@vADh@FzAFR@|@RbMHvGU|AAjA?xHBnBLz@xApEnIbWbBdFD`@HxTBbHZ`AFzH@bF`AtAn@lAVhAVzAr@tEHT@X?^@tD@~F?bHNtRFlFDpMDhWDrDlIz[nJl^fArET|B@bCMjBY`BeAbDoCjH]~@q@x@qBvB[f@Kj@EbADbBCt@QjAEp@BfAFl@d@bBv@bCdBvFlArD\\b@n@d@r@j@Xd@Pp@JhA?xBU`AMRy@t@kA~@u@zAELk@BY?u@Fg@ZWh@Ih@@|@?jJFtKFtQNx_@FfH?LlIApKGhDEDbG?jIGbDQrFEvBGz@_@|C_@~Bw@vGq@zJObE?zADzKC|DFlIDnM@fF@d@wA@sC@qCFgEFyB?eAEeIiAqKeBaF}@iEo@}HmAs@CiBFi@D?z@B~CAjJFtCXxBhBhITvCD`]Hv~@B~R@bI?bA@LBVIN_@j@}D~FuCnEiA~AUTG@sAjBcA|AAHKZo@bAaEhGKB]d@aClD[b@oBrCe@x@CNm@~@kDvFgAbBaHjKrCfCZZTPCFUSg@g@_ByAm@g@m@y@Se@s@kA]YcAoAf@mAAW{A}AP[qBoBNS_ByA]i@Wu@kA^kA^@|DBfD_ALDfA"}, "summary": "", "warnings": ["Walking directions are in beta. Use caution \u2013 This route may be missing sidewalks or pedestrian paths."], "waypoint_order": []}, {"bounds": {"northeast": {"lat": 29.804029, "lng": -95.3316074}, "southwest": {"lat": 29.68182789999999, "lng": -95.45463819999999}}, "copyrights": "Map data \u00a92022", "legs": [{"arrival_time": {"text": "4:04pm", "time_zone": "America/Chicago", "value": 1642025097}, "departure_time": {"text": "2:40pm", "time_zone": "America/Chicago", "value": 1642020005}, "distance": {"text": "16.6 mi", "value": 26658}, "duration": {"text": "1 hour 25 mins", "value": 5092}, "end_address": "4400 W 18th St, Houston, TX 77092, USA", "end_location": {"lat": 29.8019199, "lng": -95.45428179999999}, "start_address": "5800 Southmund, Houston, TX 77033, USA", "start_location": {"lat": 29.6822468, "lng": -95.33452469999999}, "steps": [{"distance": {"text": "0.3 mi", "value": 522}, "duration": {"text": "6 mins", "value": 384}, "end_location": {"lat": 29.6818417, "lng": -95.3392963}, "html_instructions": "Walk to M L King Blvd @ Rapido Rd", "polyline": {"points": "aidtDv_{dQLDY~A_@fBETCLGPEJEJQTKHIFGFrBfKfAlFNE"}, "start_location": {"lat": 29.6822468, "lng": -95.33452469999999}, "steps": [{"distance": {"text": "26 ft", "value": 8}, "duration": {"text": "1 min", "value": 6}, "end_location": {"lat": 29.6821786, "lng": -95.3345514}, "html_instructions": "Head <b>south</b> on <b>Crestridge St</b> toward <b>Cherbourg Rd</b>", "polyline": {"points": "aidtDv_{dQLD"}, "start_location": {"lat": 29.6822468, "lng": -95.33452469999999}, "travel_mode": "WALKING"}, {"distance": {"text": "0.1 mi", "value": 178}, "duration": {"text": "2 mins", "value": 132}, "end_location": {"lat": 29.6828574, "lng": -95.3361767}, "html_instructions": "Turn <b>right</b> onto <b>Cherbourg Rd</b>", "maneuver": "turn-right", "polyline": {"points": "shdtD|_{dQY~A_@fBETCLGPEJEJQTKHIFGF"}, "start_location": {"lat": 29.6821786, "lng": -95.3345514}, "travel_mode": "WALKING"}, {"distance": {"text": "0.2 mi", "value": 326}, "duration": {"text": "4 mins", "value": 238}, "end_location": {"lat": 29.6819206, "lng": -95.339334}, "html_instructions": "Turn <b>left</b> onto <b>Rapido Rd</b>", "maneuver": "turn-left", "polyline": {"points": "{ldtDbj{dQrBfKfAlF"}, "start_location": {"lat": 29.6828574, "lng": -95.3361767}, "travel_mode": "WALKING"}, {"distance": {"text": "33 ft", "value": 10}, "duration": {"text": "1 min", "value": 8}, "end_location": {"lat": 29.6818417, "lng": -95.3392963}, "html_instructions": "Turn <b>left</b> onto <b>Martin Luther King Blvd</b>", "maneuver": "turn-left", "polyline": {"points": "_gdtDx}{dQNE"}, "start_location": {"lat": 29.6819206, "lng": -95.339334}, "travel_mode": "WALKING"}], "travel_mode": "WALKING"}, {"distance": {"text": "4.0 mi", "value": 6435}, "duration": {"text": "16 mins", "value": 954}, "end_location": {"lat": 29.728237, "lng": -95.335172}, "html_instructions": "Bus towards Tidwell TC", "polyline": {"points": "qfdtDn}{dQBHOFoCx@yBp@WHiAZiAXwAb@w@Ta@Lw@Tu@RA?KBWHIBc@JIBm@JOBI?K@C?E?[?O?_@Es@MkA]OEw@Uk@OMEQG]K]IwBo@QG{@W_@Ma@MmC{@_Cm@SEoCy@oA]i@QSIsC{@cCs@OEoC{@{Bo@QGaBe@w@U_AY_@KUI}C{@WKo@Uq@SOEg@OCAe@M[KGCi@OWIc@MyAe@c@KoA_@s@UYIm@Sw@SeA[{Ae@o@QGCgA[A?KCYKOEICKCkBi@GCICWIC?UEUCSCU?S?I@G?Q@SBQDQDMDSJa@PMDmAd@?@}@^y@\\aA^{@\\m@Va@Ne@Rq@XQFSHQBM@Q?MAOAMAK?Q@S@YD_@FOJC@GDOJEFEDEDGHINS^EFCFIFONIFIDu@Z_C`Ac@NeAV_@JcB\\E@cATe@Hg@LUHSFUJQJULQLOJKHONe@f@KLKLORQRIFGHMLKL]VSPEDKJ]Zk@Xe@T_@LODQDUBYAOHcACi@CA?YAKGMEQEOEOEKCm@OOC[?YI[IMEOUGCkA]a@MKCSGOEWIF_@BIF_@Lo@He@FYBKJi@L]DOb@u@Xk@N[Tc@FMMIRe@Pm@Nq@Fo@DsAPgB@gAIO[I_ANkB`@mFlAkGvA{HdBiEbAcGvAmFjAuAZgAR_Aq@wCwBQc@QUSYOWQYa@y@CECMAI?AAI?I?Q?G@E?EBKHe@BCDGLGlAb@Ux@"}, "start_location": {"lat": 29.681849, "lng": -95.339276}, "transit_details": {"arrival_stop": {"location": {"lat": 29.728237, "lng": -95.335172}, "name": "Eastwood Transit Center"}, "arrival_time": {"text": "3:03pm", "time_zone": "America/Chicago", "value": 1642021380}, "departure_stop": {"location": {"lat": 29.681849, "lng": -95.339276}, "name": "M L King Blvd @ Rapido Rd"}, "departure_time": {"text": "2:47pm", "time_zone": "America/Chicago", "value": 1642020426}, "headsign": "Tidwell TC", "line": {"agencies": [{"name": "Metropolitan Transit Authority of Harris County", "phone": "1 (713) 635-4000", "url": "http://www.ridemetro.org/"}], "color": "#004080", "name": "MLK / Lockwood", "short_name": "80", "text_color": "#ffffff", "url": "https://www.ridemetro.org/MetroPDFs/Schedules/BusSchedules/n080-MLK-Lockwood.pdf", "vehicle": {"icon": "//maps.gstatic.com/mapfiles/transit/iw2/6/bus2.png", "name": "Bus", "type": "BUS"}}, "num_stops": 20, "trip_short_name": "MLKLOCK"}, "travel_mode": "TRANSIT"}, {"distance": {"text": "8.8 mi", "value": 14161}, "duration": {"text": "40 mins", "value": 2400}, "end_location": {"lat": 29.804029, "lng": -95.398901}, "html_instructions": "Bus towards N Shepherd P&R", "polyline": {"points": "ohmtDxc{dQDe@nAHNNBD@LANGT]`@MNG@K?GAWKa@Yc@YMQGIEO@E?EBKHe@?WK@K?Kj@UFSGMY[i@QYg@i@c@_@m@c@eBk@?Aa@KMEsDiAoBm@_@KICuAc@SG]KCA]KcCu@eBi@OEm@Qi@Me@GS?QAa@@WBC@G?SDA?E@c@F]BK?c@Ba@?Y?C?_@C[CUCWKe@Oa@M_@MMEGVu@pDI\\ABKf@SjAEX?La@tBa@rBI`@cBfIQx@wBnKQ|@S~@YnAG\\]|A[xAKd@]`BCLGXUlAMn@Op@Op@iAvF]bBEXAFI^CNCHCNIV]~@Q`@Wj@INeBjDqAdCOZGLGHADWh@KPm@jAGLGJaB~CgBhDyAtCKTgBlDy@zAk@jAuAnCQZUj@Wd@_@t@MTKJg@bAIN]p@OZMTINCFQZS\\AFS`@INGP{AtCA@IRWh@GLMPCHo@lAMPKVIL?@?@INCFA@GJ?@A@ABEHCDA@a@t@i@fA{@`BKTUb@QMuB}AGGA?CAA?A@A??@A@EDu@xA_@p@SRQLIFKDODEBE?G@IB]DMBKBEBM@UD_@HIBC@IBQLIFIJKRQTsAlCKP?BABADINs@pAi@bAgArBa@t@aBnDQZgArBMTADABCFA@OVwAnCuAnCMT_@x@gAtB]p@{@bB?@KViBdDIRMTkA|BdAz@t@f@RNbBnAj@r@Lj@BvA?TBVGT?b@?bBB|A@n@?L?B?@?f@?B?Z?@?F@b@?B?DAX@l@@T?\\@nA?h@?h@A|A@V?\\?nA?f@@d@AJAL?HCJGTEREp@C`@ANAd@?@?h@?nA@tA?R@dB?F@v@?H?T?JBt@BTDRLp@D^Dn@?b@@tA?`@@x@?h@@d@?X@`AB|C?v@@n@@R?H?P@p@?~@@dA@h@?rA@F?^@rA@f@@|B?lA?p@@P?LB|D@`C@lB@P?@?F@\\?Z?dA@fA@vABjB@dA?`@?^@T?hB@p@@|B@^B|C@rA?R?V?r@_B@{ABk@@uA@yAAa@A{A?O?aC?Y?O?I?Y@[@A?G@E?G@UBMDMFOF}@^_A^QHSH]NQFC@MBEB[DWDW@Y@m@Em@GMCIACAOCEAMCe@QSISIUM_@Q[KGEWMCAUMCCAAWQ[UECSOYUOKGG[WSKSIYMKCKEqCm@c@E_ABq@@yB@O?k@Bc@BQJO@Q@MBWNB[y@?c@?[?o@?oA@qA@S?O@G?cA?{EDm@?{ABa@@C?eA?[?aB?YAmA@kA@S@C?O@g@?[?s@BG?C?U?M?E?s@A}@@}A@I?gJDI?sHD{@@eJDK?S?E?{@@m@@yEBO?_JFS?gIFW?M?yDB{C@Y?kFBsB@Q?aC@mB@iB@W?yB@c@@_E@S?cJHK?qHF]?O?O@iE?_EDK?{@?i@@cB?gBBs@@_@?Q??R?L@R?N?f@?h@@|@M?"}, "start_location": {"lat": 29.728237, "lng": -95.335172}, "transit_details": {"arrival_stop": {"location": {"lat": 29.804029, "lng": -95.398901}, "name": "W 20th St @ Yale St"}, "arrival_time": {"text": "3:46pm", "time_zone": "America/Chicago", "value": 1642023960}, "departure_stop": {"location": {"lat": 29.728237, "lng": -95.335172}, "name": "Eastwood Transit Center"}, "departure_time": {"text": "3:06pm", "time_zone": "America/Chicago", "value": 1642021560}, "headsign": "N Shepherd P&R", "line": {"agencies": [{"name": "Metropolitan Transit Authority of Harris County", "phone": "1 (713) 635-4000", "url": "http://www.ridemetro.org/"}], "color": "#004080", "name": "Telephone / Heights", "short_name": "40", "text_color": "#ffffff", "url": "https://www.ridemetro.org/MetroPDFs/Schedules/BusSchedules/n040-Telephone-Heights.pdf", "vehicle": {"icon": "//maps.gstatic.com/mapfiles/transit/iw2/6/bus2.png", "name": "Bus", "type": "BUS"}}, "num_stops": 57, "trip_short_name": "TELEHEIGHT"}, "travel_mode": "TRANSIT"}, {"distance": {"text": "3.4 mi", "value": 5442}, "duration": {"text": "12 mins", "value": 725}, "end_location": {"lat": 29.80163, "lng": -95.454342}, "html_instructions": "Bus towards Memorial City", "polyline": {"points": "eb|tDbrgeQL??\\?d@?b@@n@?pA@|B?d@?`@@t@?T?pA@v@@rA?v@@bD@~@?nA@H?tB@^@dC?P?j@@x@?x@?t@@P?dA@|A?\\?^@dC@zB?xA?N@V?fA@`ABfE?tABtJ?pB@rA?r@?H?|@?jB?@?j@@h@AL?\\?J@f@?|B?h@?|@?n@?N?|G?J@tE?d@@dC?p@AL@J?V@P@H?B?D@F@HBH@JDPDLDLDHDJDJHLFHFHLL?@TVTVn@v@NRh@h@NPVX^f@BJBFBFf@v@P`@DZDVBT@F?D@F?H?P@P?X?N?F?j@@pAIpB@f@?V?fA?j@?V@h@AjA?h@@~@?b@@^Af@@d@?X?bA?jA?b@@nC?J?d@Aj@?v@?P@dB?jA?bC?`A?\\@dH?`D?dC@fE?jD?T@`F@vB?jD?vC?X?`E@V@zCAb@?fAAX@fB@fA?T@|B?l@A~A?x@?XAzB?`A?dB?l@?P?F?H@^?Z?@?H?@?Z?h@?f@?j@?^?t@@j@BnAAV@|@@fB?bBG?"}, "start_location": {"lat": 29.804029, "lng": -95.398901}, "transit_details": {"arrival_stop": {"location": {"lat": 29.80163, "lng": -95.454342}, "name": "W 18th St @ Northwest Fwy"}, "arrival_time": {"text": "4:03pm", "time_zone": "America/Chicago", "value": 1642025020}, "departure_stop": {"location": {"lat": 29.804029, "lng": -95.398901}, "name": "W 20th St @ Yale St"}, "departure_time": {"text": "3:51pm", "time_zone": "America/Chicago", "value": 1642024295}, "headsign": "Memorial City", "line": {"agencies": [{"name": "Metropolitan Transit Authority of Harris County", "phone": "1 (713) 635-4000", "url": "http://www.ridemetro.org/"}], "color": "#004080", "name": "Long Point / Cavalcade", "short_name": "26", "text_color": "#ffffff", "url": "https://www.ridemetro.org/MetroPDFs/Schedules/BusSchedules/n026-Long-Point-Cavalcade.pdf", "vehicle": {"icon": "//maps.gstatic.com/mapfiles/transit/iw2/6/bus2.png", "name": "Bus", "type": "BUS"}}, "num_stops": 18, "trip_short_name": "LONGPOINT"}, "travel_mode": "TRANSIT"}, {"distance": {"text": "322 ft", "value": 98}, "duration": {"text": "1 min", "value": 77}, "end_location": {"lat": 29.8019199, "lng": -95.45428179999999}, "html_instructions": "Walk to 4400 W 18th St, Houston, TX 77092, USA", "polyline": {"points": "es{tDrlreQ?z@YEc@E?G@Q@a@"}, "start_location": {"lat": 29.8016264, "lng": -95.454342}, "steps": [{"distance": {"text": "95 ft", "value": 29}, "duration": {"text": "1 min", "value": 22}, "end_location": {"lat": 29.8016252, "lng": -95.45463819999999}, "html_instructions": "Head <b>west</b> on <b>W 18th St</b>/<wbr/><b>NW Mall</b>", "polyline": {"points": "es{tDrlreQ?z@"}, "start_location": {"lat": 29.8016264, "lng": -95.454342}, "travel_mode": "WALKING"}, {"distance": {"text": "131 ft", "value": 40}, "duration": {"text": "1 min", "value": 33}, "end_location": {"lat": 29.8019405, "lng": -95.4545788}, "html_instructions": "Turn <b>right</b><div style=\"font-size:0.9em\">Restricted usage road</div>", "maneuver": "turn-right", "polyline": {"points": "es{tDnnreQYEc@E"}, "start_location": {"lat": 29.8016252, "lng": -95.45463819999999}, "travel_mode": "WALKING"}, {"distance": {"text": "95 ft", "value": 29}, "duration": {"text": "1 min", "value": 22}, "end_location": {"lat": 29.8019199, "lng": -95.45428179999999}, "html_instructions": "Turn <b>right</b><div style=\"font-size:0.9em\">Restricted usage road</div><div style=\"font-size:0.9em\">Destination will be on the left</div>", "maneuver": "turn-right", "polyline": {"points": "cu{tDbnreQ?G@Q@a@"}, "start_location": {"lat": 29.8019405, "lng": -95.4545788}, "travel_mode": "WALKING"}], "travel_mode": "WALKING"}], "traffic_speed_entry": [], "via_waypoint": []}], "overview_polyline": {"points": "aidtDv_{dQLDY~Ae@|BK^KV]^QNzDtRNEACBHOFiGjBcGbBwF~Am@N}@N_@@k@?sAS_EiAaIaCoDiAsCs@_FwA}@[wGoB_DaAgHsBsGkBiC{@{EwAgMuDsGmBeEiA_AGw@BeATqChAkJxDcA`@e@L_@@]CYAe@By@LSLc@^k@~@c@f@iEjBiBf@cCh@wCn@i@Pg@VcAp@mArAs@x@kAdAQP]Zk@XeAb@a@Jo@@OHcACk@CYAKG_@K_@Ky@Sk@Cu@SMEOUsAa@m@Qc@MWIF_@Ji@VuAJe@XgArAmC\\q@MIRe@`@_BFo@DsAPgB@gAIO[I_ANkB`@yNdDeOhDqNbD}Cn@wEiDQc@QUc@q@s@sAGSC_@@e@Lq@HKLGlAb@Ux@De@nAHNNDRANGT]`@MNG@SAy@e@c@YMQMY@KLq@?WK@K?Kj@UFSGi@cAy@cAqAcAeBm@sIiCsC{@cEoAuBo@wA_@y@Gs@?w@JiALo@B{@?c@Cq@G_Cw@MEGV_AnEg@pC?La@tBk@tC_GnY}CzNyDpRS`AMf@o@`ByElJa@x@eK`SyEjJuC|Fm@jAs@nAeArBs@pAg@jA_CtEiAvBq@rAcE`IqCsBI?}@bB_@p@SR[Tg@N}@Nu@Nw@R[TIJ]h@_B~CM\\gE~HsBjEuAhCIRkElIaEdI_CrEyArCzBbBvB~Aj@r@Lj@BlBBVGT?fCDlC?R@xBBdH?bFAfBQ~@MhCDjKB`B\\zBDrA@vBBbDJhLHfLRf_@JbPFdH?jA{DDaCB{BCgG?oABWBUB[L_DpAgAb@o@Lo@FgACeAMg@KmAe@yAq@u@a@aCgBo@c@m@WWIqCm@c@EqBDiC@oAFQJO@_@DWNB[}A?[?eFBwHFoDD}EAyHJo@?y@A{CBoTJaMFu_@VgWJcVJ_UPiLFcLF@dA?pA@|@M?L??\\?hABdHFfPLp[JtUDxZ@tH@lU@pEBv@F`@Rx@Zn@\\b@|DpE^f@BJFNf@v@P`@Jr@Fj@@fA@tCIpB@f@?~A?xDBlD@vL?rODve@BnZ@pG@rCAlCApG?lD@xC?hDDpE@jEG??z@YEc@E?GBs@"}, "summary": "", "warnings": ["Walking directions are in beta. Use caution \u2013 This route may be missing sidewalks or pedestrian paths."], "waypoint_order": []}, {"bounds": {"northeast": {"lat": 29.803817, "lng": -95.32587509999999}, "southwest": {"lat": 29.6822468, "lng": -95.4599238}}, "copyrights": "Map data \u00a92022", "legs": [{"arrival_time": {"text": "4:51pm", "time_zone": "America/Chicago", "value": 1642027884}, "departure_time": {"text": "3:07pm", "time_zone": "America/Chicago", "value": 1642021641}, "distance": {"text": "17.1 mi", "value": 27527}, "duration": {"text": "1 hour 44 mins", "value": 6243}, "end_address": "4400 W 18th St, Houston, TX 77092, USA", "end_location": {"lat": 29.8019199, "lng": -95.45428179999999}, "start_address": "5800 Southmund, Houston, TX 77033, USA", "start_location": {"lat": 29.6822468, "lng": -95.33452469999999}, "steps": [{"distance": {"text": "1.5 mi", "value": 2420}, "duration": {"text": "31 mins", "value": 1839}, "end_location": {"lat": 29.6965907, "lng": -95.3322577}, "html_instructions": "Walk to Palm Center Transit Center", "polyline": {"points": "aidtDv_{dQmCu@yC{@yC{@aD}@{C{@uCy@{Bq@MGEEIKOWCIEM]cBqAb@MDMFGO{@yBo@_BY{@MDg@{AiA{Cg@sAi@}A[_AWy@c@{Am@mB_AaDgATC?G@A@KB[FA?C@A?_ARMBuDt@uAVaAR}@P]FiAPOBE?OBUjA?BEP?@CHERQv@GZI^E\\Op@CNCPEX[vAOn@Id@Mf@Mn@IVAD_@tA_@|AUdAGXUdAId@"}, "start_location": {"lat": 29.6822468, "lng": -95.33452469999999}, "steps": [{"distance": {"text": "0.4 mi", "value": 648}, "duration": {"text": "8 mins", "value": 474}, "end_location": {"lat": 29.6876873, "lng": -95.3322484}, "html_instructions": "Head <b>north</b> on <b>Crestridge St</b> toward <b>Southmund St</b>", "polyline": {"points": "aidtDv_{dQmCu@yC{@yC{@aD}@{C{@uCy@{Bq@MGEEIKOW"}, "start_location": {"lat": 29.6822468, "lng": -95.33452469999999}, "travel_mode": "WALKING"}, {"distance": {"text": "223 ft", "value": 68}, "duration": {"text": "1 min", "value": 49}, "end_location": {"lat": 29.687887, "lng": -95.3316313}, "html_instructions": "Continue onto <b>Southcrest St</b>", "polyline": {"points": "aketDpqzdQCIEM]cB"}, "start_location": {"lat": 29.6876873, "lng": -95.3322484}, "travel_mode": "WALKING"}, {"distance": {"text": "233 ft", "value": 71}, "duration": {"text": "1 min", "value": 51}, "end_location": {"lat": 29.68847929999999, "lng": -95.3318031}, "html_instructions": "Turn <b>left</b> onto <b>Crestmont St</b>", "maneuver": "turn-left", "polyline": {"points": "iletDtmzdQqAb@MDMFGO"}, "start_location": {"lat": 29.687887, "lng": -95.3316313}, "travel_mode": "WALKING"}, {"distance": {"text": "0.4 mi", "value": 655}, "duration": {"text": "8 mins", "value": 493}, "end_location": {"lat": 29.6911915, "lng": -95.32587509999999}, "html_instructions": "Turn <b>right</b> onto <b>S Loop E Fwy</b>", "maneuver": "turn-right", "polyline": {"points": "_petDvnzdQ{@yBo@_BY{@MDg@{AiA{Cg@sAi@}A[_AWy@c@{Am@mB_AaD"}, "start_location": {"lat": 29.68847929999999, "lng": -95.3318031}, "travel_mode": "WALKING"}, {"distance": {"text": "0.3 mi", "value": 426}, "duration": {"text": "6 mins", "value": 336}, "end_location": {"lat": 29.6949411, "lng": -95.3269524}, "html_instructions": "Turn <b>left</b> onto <b>Mykawa Rd</b>", "maneuver": "turn-left", "polyline": {"points": "}`ftDviydQgATC?G@A@KB[FA?C@A?_ARMBuDt@uAVaAR}@P]FiAPOBE?OB"}, "start_location": {"lat": 29.6911915, "lng": -95.32587509999999}, "travel_mode": "WALKING"}, {"distance": {"text": "177 ft", "value": 54}, "duration": {"text": "1 min", "value": 49}, "end_location": {"lat": 29.6950775, "lng": -95.3274375}, "html_instructions": "Turn <b>left</b> onto <b>Long Dr</b>", "maneuver": "turn-left", "polyline": {"points": "kxftDlpydQUjA?BEP"}, "start_location": {"lat": 29.6949411, "lng": -95.3269524}, "travel_mode": "WALKING"}, {"distance": {"text": "0.3 mi", "value": 498}, "duration": {"text": "6 mins", "value": 387}, "end_location": {"lat": 29.6965907, "lng": -95.3322577}, "html_instructions": "Slight <b>right</b> onto <b>Griggs Rd</b><div style=\"font-size:0.9em\">Destination will be on the left</div>", "maneuver": "turn-slight-right", "polyline": {"points": "gyftDnsydQ?@CHERQv@GZI^E\\Op@CNCPEX[vAOn@Id@Mf@Mn@IVAD_@tA_@|AUdAGXUdAId@"}, "start_location": {"lat": 29.6950775, "lng": -95.3274375}, "travel_mode": "WALKING"}], "travel_mode": "WALKING"}, {"distance": {"text": "5.7 mi", "value": 9170}, "duration": {"text": "22 mins", "value": 1320}, "end_location": {"lat": 29.758362, "lng": -95.36194599999999}, "html_instructions": "Light rail towards Theater District WB", "polyline": {"points": "ebgtDxqzdQA?_@fBENERCRERCVGVEZGXUjAGZAJANEVe@xBOp@U`ACLEJEJGLCDGHGJIJKHGFMHKFMFIDMBKBIBG@M?O@K?K?G?KAMAIAKEKCm@Qm@QGCgBi@i@QKCo@S}@Us@Si@Qm@SUGo@SMCe@OMEYIGAWK_@Ko@S_@Km@Q]KeA[e@MOEKEKCOCOCOCQAM?M?M?M@M@M@E@I?KBMDMDu@VkBv@gAb@i@TeAf@g@TYLuAj@EBa@NA@MDcAb@sBx@]LkAf@sAh@e@Pi@TaBp@UHWHWFOFUDk@LI@i@LoAXk@J{@ROBKDMBOFMFMFMDKFOHMHIHEBOLMJSTUTGFs@t@YXYZg@f@MNIHKJMHKHIDA@SHeA^GBIBIDGDGBEDGFIHGHEFEJCFEJCHCF]`BERa@pB_@jBa@pBw@vDw@zDWjAa@pB]`BEPCLELELCLELGLCHCF{@pBEHEJCHEHCHCHCJCFCJCLCLUbAETETg@|BWnAc@xBKd@_@dBw@zDELCJEJGJEFEDGFIFIDIBIBI@I@I?G?I?GAKCKCMEa@Mm@]QIUKYIsDgA}Ae@UISKIEMIIEMI_AWUGOEOEm@My@OgAUy@Q[GyAa@c@IWEYEu@KOCQA_@CUAU?W?I?m@?_@?S?M?M?_@Ce@CI?MAM?q@Ai@?aAAiA?OAO?MAOCOAMCKEOEKEg@Sq@[QGQGOEOEy@Se@KQEOEg@O{@Wy@WgA[kA]g@OqAa@iBi@}Ae@]KmBk@EAa@Ka@Ma@Ka@Ma@Ms@SOE_A[mAc@wAg@yAe@aA[YIuAa@gBi@s@Sk@QWGsAa@YIQEQEOCSCWESAuCQOAc@CMAO?Q?M@O@G@OBKDIBMFEBEBGDGBEDGDEFGFGFEJEHA@GHsAfCEJGJGHKJIHIFOHKFOFMBMBMBO@O?IAC?MAOCQEUIGCYK]OUIOGMEQEMCQEOCC?KAUCUAO?Q?S@Q@_@B[Bu@FUBI@a@B_AH_AHuALU@WBI@E@C?KBM@IBI@MDmAZk@NMHQHIBIDQDc@JSFMDMFIDIFIDIJIFQLIHKFKDMHMJIFIJKLA@INk@fAaAlBg@~@S^MTc@z@oAbCMRi@dAw@zACDCDCFq@pAYj@OVCHOVGLGNWl@GNINGPKPKRGPGNKNIJg@`AS`@S`@S^GNENAL?L@LBNFLFJf@n@FHFJDJBN@H?HCXGVOZYl@c@|@GLIN{@xACHQZoAdCa@v@aAlBEJeBdDS`@sAhC[l@_AnBGJ{@`BDB"}, "start_location": {"lat": 29.696507, "lng": -95.332291}, "transit_details": {"arrival_stop": {"location": {"lat": 29.758362, "lng": -95.36194599999999}, "name": "Central Station WB"}, "arrival_time": {"text": "4:00pm", "time_zone": "America/Chicago", "value": 1642024800}, "departure_stop": {"location": {"lat": 29.696507, "lng": -95.332291}, "name": "Palm Center Transit Center"}, "departure_time": {"text": "3:38pm", "time_zone": "America/Chicago", "value": 1642023480}, "headsign": "Theater District WB", "line": {"agencies": [{"name": "Metropolitan Transit Authority of Harris County", "phone": "1 (713) 635-4000", "url": "http://www.ridemetro.org/"}], "color": "#79466a", "name": "Metrorail Purple Line", "short_name": "Purple", "text_color": "#ffffff", "url": "https://www.ridemetro.org/Pages/PurpleLine.aspx", "vehicle": {"icon": "//maps.gstatic.com/mapfiles/transit/iw2/6/tram2.png", "name": "Light rail", "type": "TRAM"}}, "num_stops": 8}, "travel_mode": "TRANSIT"}, {"distance": {"text": "0.4 mi", "value": 640}, "duration": {"text": "8 mins", "value": 501}, "end_location": {"lat": 29.7621626, "lng": -95.36456489999999}, "html_instructions": "Walk to Louisiana St @ Prairie St", "polyline": {"points": "gestDlk`eQa@x@IJKPw@zAWd@IPEFELADuApCGLa@v@EFw@zAGLMXi@bASb@OXKGc@[QOUOeAw@II}BeB"}, "start_location": {"lat": 29.7584352, "lng": -95.3619863}, "steps": [{"distance": {"text": "0.3 mi", "value": 445}, "duration": {"text": "6 mins", "value": 346}, "end_location": {"lat": 29.7607525, "lng": -95.3656955}, "html_instructions": "Head <b>northwest</b> on <b>Capitol St</b> toward <b>Fannin St</b>", "polyline": {"points": "gestDlk`eQa@x@IJKPw@zAWd@IPEFELADuApCGLa@v@EFw@zAGLMXi@bASb@OXKG"}, "start_location": {"lat": 29.7584352, "lng": -95.3619863}, "travel_mode": "WALKING"}, {"distance": {"text": "0.1 mi", "value": 195}, "duration": {"text": "3 mins", "value": 155}, "end_location": {"lat": 29.7621626, "lng": -95.36456489999999}, "html_instructions": "Turn <b>right</b> onto <b>Louisiana St</b><div style=\"font-size:0.9em\">Destination will be on the right</div>", "maneuver": "turn-right", "polyline": {"points": "usstDrbaeQc@[QOUOeAw@II}BeB"}, "start_location": {"lat": 29.7607525, "lng": -95.3656955}, "travel_mode": "WALKING"}], "travel_mode": "WALKING"}, {"distance": {"text": "7.0 mi", "value": 11273}, "duration": {"text": "14 mins", "value": 869}, "end_location": {"lat": 29.783077, "lng": -95.455467}, "html_instructions": "Bus towards West Little York/N.W. Station/Via Northwest TC", "polyline": {"points": "k|stDh{`eQGL[UqCqBAA_CcB?@SOcCgBUMOKiAw@i@Yc@K_AOu@Gc@@kAJUFWHk@Tm@^cAn@m@^sB|Au@h@q@f@uAbA{AfAgAp@cAp@eBbAsC~AgAh@y@b@KF_ElBu@TeAd@cBv@iAn@m@ZaAf@uAx@cAj@gA`Ak@l@a@j@[`@]h@q@~Ag@tAa@xAYlA[xAWlAoBnJWlBUtAMvAG`BCrBHhCRvAXrBXdBf@nB|ArFfBdIZxBXzB`@jDNdBNvCLbCDnBDxC@dCFzG?n@NdRNfXBrEDtEB`DAfCAhCMtCCx@IfAa@pESxB_@fD_@fDQvBO|BMtBEdBElC?|D?|DPbf@DnFDzVDrO@xC?dDCfDGlBQ`D_@hH[zF_AbQmAjUIzHy@vOKpCGdE?vB@A?hH?@AdD@lD@fD?hCCjBEdAMlAQ~AOx@Qt@Q^i@dAeAz@g@Pk@He@Jg@@q@GoCaAuBw@q@We@K[H[RQ\\KRA@Ol@GhADTPp@l@f@Xb@L`@FXJ^D`@APMVGXARBXQ^?f@?j@?d@?F?d@?j@Aj@AZA\\E?a@@e@??m@?y@?s@?g@@[AaA@s@t@AZ??H?P?f@?j@?d@?FWG"}, "start_location": {"lat": 29.762139, "lng": -95.364532}, "transit_details": {"arrival_stop": {"location": {"lat": 29.783077, "lng": -95.455467}, "name": "Northwest Transit Center - South Platform"}, "arrival_time": {"text": "4:28pm", "time_zone": "America/Chicago", "value": 1642026480}, "departure_stop": {"location": {"lat": 29.762139, "lng": -95.364532}, "name": "Louisiana St @ Prairie St"}, "departure_time": {"text": "4:13pm", "time_zone": "America/Chicago", "value": 1642025611}, "headsign": "West Little York/N.W. Station/Via Northwest TC", "line": {"agencies": [{"name": "Metropolitan Transit Authority of Harris County", "phone": "1 (713) 635-4000", "url": "http://www.ridemetro.org/"}], "color": "#004080", "name": "NW Station/W L York P&R", "short_name": "216", "text_color": "#ffffff", "url": "https://www.ridemetro.org/MetroPDFs/Schedules/BusSchedules/nwcorridor.pdf", "vehicle": {"icon": "//maps.gstatic.com/mapfiles/transit/iw2/6/bus2.png", "name": "Bus", "type": "BUS"}}, "num_stops": 2, "trip_short_name": "N.W.STAT"}, "travel_mode": "TRANSIT"}, {"distance": {"text": "0.2 mi", "value": 263}, "duration": {"text": "3 mins", "value": 192}, "end_location": {"lat": 29.7837801, "lng": -95.4554653}, "html_instructions": "Walk to Northwest Transit Center - North Platform", "polyline": {"points": "_}wtDtqreQDUBODIK@]MMMECOKICKAK@E?U?E?_@@m@?AxAAX?f@"}, "start_location": {"lat": 29.7827161, "lng": -95.4551537}, "steps": [{"distance": {"text": "121 ft", "value": 37}, "duration": {"text": "1 min", "value": 26}, "end_location": {"lat": 29.78264219999999, "lng": -95.4549134}, "html_instructions": "Head <b>east</b>", "polyline": {"points": "_}wtDtqreQDUBODI"}, "start_location": {"lat": 29.7827161, "lng": -95.4551537}, "travel_mode": "WALKING"}, {"distance": {"text": "482 ft", "value": 147}, "duration": {"text": "2 mins", "value": 109}, "end_location": {"lat": 29.7837613, "lng": -95.45468609999999}, "html_instructions": "Sharp <b>left</b> toward <b>Old Katy Rd</b>", "maneuver": "turn-sharp-left", "polyline": {"points": "o|wtDdpreQK@]MMMECOKICKAK@E?U?E?_@@m@?"}, "start_location": {"lat": 29.78264219999999, "lng": -95.4549134}, "travel_mode": "WALKING"}, {"distance": {"text": "259 ft", "value": 79}, "duration": {"text": "1 min", "value": 57}, "end_location": {"lat": 29.7837801, "lng": -95.4554653}, "html_instructions": "Turn <b>left</b> onto <b>Old Katy Rd</b>", "maneuver": "turn-left", "polyline": {"points": "ocxtDxnreQAxAAX?f@"}, "start_location": {"lat": 29.7837613, "lng": -95.45468609999999}, "travel_mode": "WALKING"}], "travel_mode": "WALKING"}, {"distance": {"text": "2.0 mi", "value": 3143}, "duration": {"text": "9 mins", "value": 523}, "end_location": {"lat": 29.803817, "lng": -95.458625}, "html_instructions": "Bus towards Dacoma Shuttle", "polyline": {"points": "w~wtDvwreQRwAF@D?DABA@CDIDSB[@g@BUBM@AN]FGJY@K?MCUCKCCA?OGQAGAE?E@GDQJOPMD[BY@W?aAAY@c@?AVAzAAb@?f@?L?ZAn@?`B?R?f@sBNO@Q@Y?W?K@wA@y@@K?u@?wA@U?O?}@@I?Y?_@?_@@oA@oD@eABM?A?a@?c@?qA@W?w@?cA@s@?c@@_@?uA@a@?OAY?q@@c@?_@?[@cA@a@?U?G?C?E?]@S?S@]@c@?}@@M?w@@]?mA@_B@W?E?e@Aa@EQEWG[OUM[QIG_@Ui@i@e@_@OQQQOMCCc@a@MR{A|BU\\W`@sBtCg@z@a@L{@vA]b@Sd@w@lAYh@OVk@r@Yj@EsB?]@aAAU?a@[@uEDaA@gAD_A@e@??I"}, "start_location": {"lat": 29.7830001, "lng": -95.4561157}, "transit_details": {"arrival_stop": {"location": {"lat": 29.803817, "lng": -95.458625}, "name": "Mangum Rd @ W 20th St"}, "arrival_time": {"text": "4:43pm", "time_zone": "America/Chicago", "value": 1642027423}, "departure_stop": {"location": {"lat": 29.7830001, "lng": -95.4561157}, "name": "Northwest Transit Center - North Platform"}, "departure_time": {"text": "4:35pm", "time_zone": "America/Chicago", "value": 1642026900}, "headsign": "Dacoma Shuttle", "line": {"agencies": [{"name": "Metropolitan Transit Authority of Harris County", "phone": "1 (713) 635-4000", "url": "http://www.ridemetro.org/"}], "color": "#004080", "name": "Dacoma", "short_name": "89", "text_color": "#ffffff", "url": "https://www.ridemetro.org/MetroPDFs/Schedules/BusSchedules/n089-Dacoma.pdf", "vehicle": {"icon": "//maps.gstatic.com/mapfiles/transit/iw2/6/bus2.png", "name": "Bus", "type": "BUS"}}, "num_stops": 9, "trip_short_name": "DACOMA"}, "travel_mode": "TRANSIT"}, {"distance": {"text": "0.4 mi", "value": 618}, "duration": {"text": "8 mins", "value": 461}, "end_location": {"lat": 29.8019199, "lng": -95.45428179999999}, "html_instructions": "Walk to 4400 W 18th St, Houston, TX 77092, USA", "polyline": {"points": "{`|tDlgseQd@A~@AdACbAA@[Ae@?g@ASDKP]d@}@Xq@B]QOIIOMEKKAQUGGEIAE?C?A@C@EBEV_@KMNWHMJSRa@Ts@R}@Jy@Hy@?G@Q@a@"}, "start_location": {"lat": 29.8038169, "lng": -95.458628}, "steps": [{"distance": {"text": "436 ft", "value": 133}, "duration": {"text": "2 mins", "value": 96}, "end_location": {"lat": 29.80261729999999, "lng": -95.45858140000001}, "html_instructions": "Head <b>south</b> on <b>Mangum Rd</b>", "polyline": {"points": "{`|tDlgseQd@A~@AdACbAA"}, "start_location": {"lat": 29.8038169, "lng": -95.458628}, "travel_mode": "WALKING"}, {"distance": {"text": "0.1 mi", "value": 168}, "duration": {"text": "2 mins", "value": 133}, "end_location": {"lat": 29.8021725, "lng": -95.45703209999999}, "html_instructions": "Turn <b>left</b>", "maneuver": "turn-left", "polyline": {"points": "ky{tDbgseQ@[Ae@?g@ASDKP]d@}@Xq@B]"}, "start_location": {"lat": 29.80261729999999, "lng": -95.45858140000001}, "travel_mode": "WALKING"}, {"distance": {"text": "348 ft", "value": 106}, "duration": {"text": "1 min", "value": 80}, "end_location": {"lat": 29.8024852, "lng": -95.4562641}, "html_instructions": "Turn <b>left</b><div style=\"font-size:0.9em\">Partial restricted usage road</div>", "maneuver": "turn-left", "polyline": {"points": "qv{tDl}reQQOIIOMEKKAQUGGEIAE?C?A@C@EBEV_@"}, "start_location": {"lat": 29.8021725, "lng": -95.45703209999999}, "travel_mode": "WALKING"}, {"distance": {"text": "33 ft", "value": 10}, "duration": {"text": "1 min", "value": 8}, "end_location": {"lat": 29.8025494, "lng": -95.456192}, "html_instructions": "Turn <b>left</b><div style=\"font-size:0.9em\">Restricted usage road</div>", "maneuver": "turn-left", "polyline": {"points": "qx{tDrxreQKM"}, "start_location": {"lat": 29.8024852, "lng": -95.4562641}, "travel_mode": "WALKING"}, {"distance": {"text": "0.1 mi", "value": 201}, "duration": {"text": "2 mins", "value": 144}, "end_location": {"lat": 29.8019199, "lng": -95.45428179999999}, "html_instructions": "Turn <b>right</b><div style=\"font-size:0.9em\">Restricted usage road</div><div style=\"font-size:0.9em\">Destination will be on the left</div>", "maneuver": "turn-right", "polyline": {"points": "}x{tDdxreQNWHMJSRa@Ts@R}@Jy@Hy@?G@Q@a@"}, "start_location": {"lat": 29.8025494, "lng": -95.456192}, "travel_mode": "WALKING"}], "travel_mode": "WALKING"}], "traffic_speed_entry": [], "via_waypoint": []}], "overview_polyline": {"points": "aidtDv_{dQcRkFqHuBiCy@OQSa@c@qB_Bh@MFGOkByEY{@MDqBwFqAqDs@yBqAiE_AaDgATK@MDa@HeGlAsFdAoBX[bBc@pBc@~Bu@rDo@tCa@zAu@bD]~AId@NDa@fBKb@UvAk@|CCZk@pCo@lCYh@]`@o@`@m@Pq@Bm@CoA]uJsCyFeBaHsBmA]aAMw@@a@Dq@NsGhC}EvBw@ZgPvGuAb@uBb@gE|@w@Xw@^m@d@oErEq@n@k@ZaBl@]V]f@Qd@oGd[iArFUv@aBzDOf@a@jBsEzTWp@]\\g@Ne@@m@Oa@Mm@]g@UmEqAsBo@u@a@mAa@e@M_Ey@uAY}Bk@wB[}AGoB?{CIgFC}@Gy@QwB}@{EoAkQkF{H{BqEyAmGsBuLkDmAS}EY]A_@@s@Lc@R]T[b@cB|Ca@l@o@b@]J[Fm@?]Eg@OuAi@}@Wq@KmAEaBJcJt@yAR{A`@y@Xw@Xw@R[Lg@^q@f@YNWRa@j@iDtGyFvKcC|Eq@~Ag@fAUZ{@bBg@`AM^AZD\\NXn@x@LVDXCb@Wr@oAhC_AbBaB`DoEvIcEhIcAlBDBOFk@dAcAlBm@lAaC|EsAjC}@fBOXKGu@k@{AgAgCoBBEGLmDgCaCeBSMcCgBUMyAcAi@Yc@K_AOu@GoBLm@Pk@Tm@^qBnAiDfCgCjBcDxBiDtB{EhCeAj@_ElBu@TiD|AwBjAwC`BcAj@gA`AmAxAy@jAq@~Ag@tA{@fDs@fDoBnJWlBc@lDKtEHhCRvAr@xEdCbJfBdIZxBz@fH^|FRrFF~GFjI^lk@HhL@hHAhCMtCM`Cu@jI_AnIa@tFSzEElC?|DP`l@Jj^FlT?dDCfDYnGiEtx@IzHy@vOKpCGdE@tB?jH@dSIpD_@lDa@nB{@dBeAz@g@PqATg@@q@GeGyBq@We@K[H[RQ\\MTOl@GhAVfAl@f@Xb@Tz@P`AAPMVIl@BXQ^?rA?l@CxCA\\E?gA@?cE?}A@s@t@AZ??H?x@?pA?FWGfA_ADUHYK@]MSQYOW?aA@m@?AxAA`AzC`CRwAL@HCFMHo@D}@DOVe@Le@Cc@GOQGYCK@YPOPMDu@DyAA}@@CrBAtBAlEoDReJFoVL{DBaD?uGDoEFqDBcD?s@Ks@W{A}@qBmBSQc@a@MRqBzCkCvDg@z@a@L{@vA]b@Sd@w@lAi@`Ak@r@Yj@EqC?wA?a@[@wGFgCFe@??Id@?dCEbAA@[AmAB_@v@{AXq@B][YUYKAQUMQ?ODKV_@KMXe@^u@Ts@^wBHaABs@"}, "summary": "", "warnings": ["Walking directions are in beta. Use caution \u2013 This route may be missing sidewalks or pedestrian paths."], "waypoint_order": []}], "status": "OK"}