{"geocoded_waypoints": [{"geocoder_status": "OK", "place_id": "ChIJichWWL7HQIYRIBNk-5dKLmY", "types": ["establishment", "point_of_interest", "primary_school", "school"]}, {"geocoder_status": "OK", "place_id": "ChIJ9_tphxzHQIYRIMyPy_d3VZU", "types": ["establishment", "point_of_interest"]}], "routes": [{"bounds": {"northeast": {"lat": 29.8373741, "lng": -95.4104636}, "southwest": {"lat": 29.8015904, "lng": -95.45463819999999}}, "copyrights": "Map data \u00a92022 Google", "legs": [{"arrival_time": {"text": "4:49pm", "time_zone": "America/Chicago", "value": 1642027797}, "departure_time": {"text": "4:06pm", "time_zone": "America/Chicago", "value": 1642025161}, "distance": {"text": "5.5 mi", "value": 8812}, "duration": {"text": "44 mins", "value": 2636}, "end_address": "4400 W 18th St, Houston, TX 77092, USA", "end_location": {"lat": 29.8019199, "lng": -95.45428179999999}, "start_address": "4803 Brinkman St, Houston, TX 77018, USA", "start_location": {"lat": 29.83634409999999, "lng": -95.4169782}, "steps": [{"distance": {"text": "0.4 mi", "value": 688}, "duration": {"text": "8 mins", "value": 496}, "end_location": {"lat": 29.8373734, "lng": -95.4109584}, "html_instructions": "Walk to N Shepherd Dr @ Janisch Rd", "polyline": {"points": "clbuDbckeQ?m@COAEECIAM?MA?s@qBFG??OCoBEkIEgMAgDO?"}, "start_location": {"lat": 29.83634409999999, "lng": -95.4169782}, "steps": [{"distance": {"text": "177 ft", "value": 54}, "duration": {"text": "1 min", "value": 38}, "end_location": {"lat": 29.8365935, "lng": -95.41660449999999}, "html_instructions": "Head <b>east</b> toward <b>Candlelight Ln</b>", "polyline": {"points": "clbuDbckeQ?m@COAEECIAM?MA"}, "start_location": {"lat": 29.83634409999999, "lng": -95.4169782}, "travel_mode": "WALKING"}, {"distance": {"text": "95 ft", "value": 29}, "duration": {"text": "1 min", "value": 23}, "end_location": {"lat": 29.836593, "lng": -95.41634309999999}, "html_instructions": "Turn <b>right</b> onto <b>Candlelight Ln</b>", "maneuver": "turn-right", "polyline": {"points": "umbuDv`keQ?s@"}, "start_location": {"lat": 29.8365935, "lng": -95.41660449999999}, "travel_mode": "WALKING"}, {"distance": {"text": "223 ft", "value": 68}, "duration": {"text": "1 min", "value": 48}, "end_location": {"lat": 29.8372027, "lng": -95.4162985}, "html_instructions": "Turn <b>left</b> onto <b>Brinkman St</b>", "maneuver": "turn-left", "polyline": {"points": "umbuDb_keQqBFG??O"}, "start_location": {"lat": 29.836593, "lng": -95.41634309999999}, "travel_mode": "WALKING"}, {"distance": {"text": "0.3 mi", "value": 524}, "duration": {"text": "6 mins", "value": 378}, "end_location": {"lat": 29.8372948, "lng": -95.41095709999999}, "html_instructions": "Turn <b>right</b> onto <b>Janisch Rd</b>", "maneuver": "turn-right", "polyline": {"points": "oqbuDz~jeQCoBEkIEgMAgD"}, "start_location": {"lat": 29.8372027, "lng": -95.4162985}, "travel_mode": "WALKING"}, {"distance": {"text": "43 ft", "value": 13}, "duration": {"text": "1 min", "value": 9}, "end_location": {"lat": 29.8373734, "lng": -95.4109584}, "html_instructions": "Turn <b>left</b> onto <b>N Shepherd Dr</b>", "maneuver": "turn-left", "polyline": {"points": "arbuDn}ieQO?"}, "start_location": {"lat": 29.8372948, "lng": -95.41095709999999}, "travel_mode": "WALKING"}], "travel_mode": "WALKING"}, {"distance": {"text": "2.3 mi", "value": 3771}, "duration": {"text": "9 mins", "value": 522}, "end_location": {"lat": 29.803965, "lng": -95.412369}, "html_instructions": "Bus towards TMC TC", "polyline": {"points": "qrbuDr}ieQ?MTAlA?^AbCAhAAxAApAAT?nAA~B?pCCnA?dCCz@A`@AP?hAAX?t@?rAAVAF?l@?D?zAAZ?v@AN?h@?bBAbCEP?hA?v@AfA?hBAzCAfAA~BCf@?|@?b@AvCCjA?zBCjB@pAC|@AvAAzAAfAAb@?lAApAAr@Av@AP@H?nBC`A?fBCj@?P?J@|@HD?h@H\\HLDPBDFb@PTJDB@@F@n@\\FDTJ^TJFj@Zz@d@HD^TB@\\PFDDBp@\\THFBVHNDB@RFNDh@HVBRBH@B?F?l@BH?h@?zAArA?XAdBAdBAbBAdA?`@?bBAfBAdAA\\?hAA\\?bBAt@?n@AX?jA?z@A@N"}, "start_location": {"lat": 29.837373, "lng": -95.410983}, "transit_details": {"arrival_stop": {"location": {"lat": 29.803965, "lng": -95.412369}, "name": "N Durham Dr @ W 20th St"}, "arrival_time": {"text": "4:23pm", "time_zone": "America/Chicago", "value": 1642026180}, "departure_stop": {"location": {"lat": 29.837373, "lng": -95.410983}, "name": "N Shepherd Dr @ Janisch Rd"}, "departure_time": {"text": "4:14pm", "time_zone": "America/Chicago", "value": 1642025658}, "headsign": "TMC TC", "line": {"agencies": [{"name": "Metropolitan Transit Authority of Harris County", "phone": "1 (713) 635-4000", "url": "http://www.ridemetro.org/"}], "color": "#004080", "name": "Shepherd", "short_name": "27", "text_color": "#ffffff", "url": "https://www.ridemetro.org/MetroPDFs/Schedules/BusSchedules/n027-Shepherd.pdf", "vehicle": {"icon": "//maps.gstatic.com/mapfiles/transit/iw2/6/bus2.png", "name": "Bus", "type": "BUS"}}, "num_stops": 13, "trip_short_name": "SHEPHERD"}, "travel_mode": "TRANSIT"}, {"distance": {"text": "207 ft", "value": 63}, "duration": {"text": "1 min", "value": 56}, "end_location": {"lat": 29.80381, "lng": -95.41185329999999}, "html_instructions": "Walk to W 20th St @ N Durham Dr", "polyline": {"points": "wa|tD`fjeQ^A?OAmA"}, "start_location": {"lat": 29.8039634, "lng": -95.4123288}, "steps": [{"distance": {"text": "72 ft", "value": 22}, "duration": {"text": "1 min", "value": 16}, "end_location": {"lat": 29.8038031, "lng": -95.412241}, "html_instructions": "Head <b>south</b> on <b>N Durham Dr</b> toward <b>W 20th St</b>", "polyline": {"points": "wa|tD`fjeQ^A?O"}, "start_location": {"lat": 29.8039634, "lng": -95.4123288}, "travel_mode": "WALKING"}, {"distance": {"text": "135 ft", "value": 41}, "duration": {"text": "1 min", "value": 40}, "end_location": {"lat": 29.80381, "lng": -95.41185329999999}, "html_instructions": "Turn <b>left</b> onto <b>W 20th St</b>", "maneuver": "turn-left", "polyline": {"points": "w`|tDnejeQAmA"}, "start_location": {"lat": 29.8038031, "lng": -95.412241}, "travel_mode": "WALKING"}], "travel_mode": "WALKING"}, {"distance": {"text": "2.6 mi", "value": 4192}, "duration": {"text": "9 mins", "value": 559}, "end_location": {"lat": 29.80163, "lng": -95.454342}, "html_instructions": "Bus towards Memorial City", "polyline": {"points": "_a|tD`cjeQL??tABtJ?pB@rA?r@?H?|@?jB?@?j@@h@AL?\\?J@f@?|B?h@?|@?n@?N?|G?J@tE?d@@dC?p@AL@J?V@P@H?B?D@F@HBH@JDPDLDLDHDJDJHLFHFHLL?@TVTVn@v@NRh@h@NPVX^f@BJBFBFf@v@P`@DZDVBT@F?D@F?H?P@P?X?N?F?j@@pAIpB@f@?V?fA?j@?V@h@AjA?h@@~@?b@@^Af@@d@?X?bA?jA?b@@nC?J?d@Aj@?v@?P@dB?jA?bC?`A?\\@dH?`D?dC@fE?jD?T@`F@vB?jD?vC?X?`E@V@zCAb@?fAAX@fB@fA?T@|B?l@A~A?x@?XAzB?`A?dB?l@?P?F?H@^?Z?@?H?@?Z?h@?f@?j@?^?t@@j@BnAAV@|@@fB?bBG?"}, "start_location": {"lat": 29.803836, "lng": -95.41185399999999}, "transit_details": {"arrival_stop": {"location": {"lat": 29.80163, "lng": -95.454342}, "name": "W 18th St @ Northwest Fwy"}, "arrival_time": {"text": "4:48pm", "time_zone": "America/Chicago", "value": 1642027720}, "departure_stop": {"location": {"lat": 29.803836, "lng": -95.41185399999999}, "name": "W 20th St @ N Durham Dr"}, "departure_time": {"text": "4:39pm", "time_zone": "America/Chicago", "value": 1642027161}, "headsign": "Memorial City", "line": {"agencies": [{"name": "Metropolitan Transit Authority of Harris County", "phone": "1 (713) 635-4000", "url": "http://www.ridemetro.org/"}], "color": "#004080", "name": "Long Point / Cavalcade", "short_name": "26", "text_color": "#ffffff", "url": "https://www.ridemetro.org/MetroPDFs/Schedules/BusSchedules/n026-Long-Point-Cavalcade.pdf", "vehicle": {"icon": "//maps.gstatic.com/mapfiles/transit/iw2/6/bus2.png", "name": "Bus", "type": "BUS"}}, "num_stops": 13, "trip_short_name": "LONGPOINT"}, "travel_mode": "TRANSIT"}, {"distance": {"text": "322 ft", "value": 98}, "duration": {"text": "1 min", "value": 77}, "end_location": {"lat": 29.8019199, "lng": -95.45428179999999}, "html_instructions": "Walk to 4400 W 18th St, Houston, TX 77092, USA", "polyline": {"points": "es{tDrlreQ?z@YEc@E?G@Q@a@"}, "start_location": {"lat": 29.8016264, "lng": -95.454342}, "steps": [{"distance": {"text": "95 ft", "value": 29}, "duration": {"text": "1 min", "value": 22}, "end_location": {"lat": 29.8016252, "lng": -95.45463819999999}, "html_instructions": "Head <b>west</b> on <b>W 18th St</b>/<wbr/><b>NW Mall</b>", "polyline": {"points": "es{tDrlreQ?z@"}, "start_location": {"lat": 29.8016264, "lng": -95.454342}, "travel_mode": "WALKING"}, {"distance": {"text": "131 ft", "value": 40}, "duration": {"text": "1 min", "value": 33}, "end_location": {"lat": 29.8019405, "lng": -95.4545788}, "html_instructions": "Turn <b>right</b><div style=\"font-size:0.9em\">Restricted usage road</div>", "maneuver": "turn-right", "polyline": {"points": "es{tDnnreQYEc@E"}, "start_location": {"lat": 29.8016252, "lng": -95.45463819999999}, "travel_mode": "WALKING"}, {"distance": {"text": "95 ft", "value": 29}, "duration": {"text": "1 min", "value": 22}, "end_location": {"lat": 29.8019199, "lng": -95.45428179999999}, "html_instructions": "Turn <b>right</b><div style=\"font-size:0.9em\">Restricted usage road</div><div style=\"font-size:0.9em\">Destination will be on the left</div>", "maneuver": "turn-right", "polyline": {"points": "cu{tDbnreQ?G@Q@a@"}, "start_location": {"lat": 29.8019405, "lng": -95.4545788}, "travel_mode": "WALKING"}], "travel_mode": "WALKING"}], "traffic_speed_entry": [], "via_waypoint": []}], "overview_polyline": {"points": "clbuDbckeQC}@GIWAMA?s@yBFC_CKsWAgDO??B?MbBAfIGvHCbLI`IG`KEvGGtKEhGEjMEnQOlMI\\@bAHfB\\dAh@`Af@rEfC`Bz@dA\\VHx@Nx@HhBB`RIpPIpEC@N?G^A?OAmAE?L??tABfN@fC?tD?`C@vRBpNBd@Hf@Vv@\\n@`CtCx@z@v@`AFRj@~@V|@Hl@B^@lA?r@@pAIpB@~@?rB@`AAtB@jD@nE@`MBda@BzO?~OBrDAjB@~E@jDAxCA|H@xC@|GDlG?bBG??z@}@K@Y@a@"}, "summary": "", "warnings": ["Walking directions are in beta. Use caution \u2013 This route may be missing sidewalks or pedestrian paths."], "waypoint_order": []}, {"bounds": {"northeast": {"lat": 29.8373741, "lng": -95.38748149999999}, "southwest": {"lat": 29.8015904, "lng": -95.45463819999999}}, "copyrights": "Map data \u00a92022", "legs": [{"arrival_time": {"text": "4:49pm", "time_zone": "America/Chicago", "value": 1642027797}, "departure_time": {"text": "3:54pm", "time_zone": "America/Chicago", "value": 1642024457}, "distance": {"text": "7.9 mi", "value": 12789}, "duration": {"text": "56 mins", "value": 3340}, "end_address": "4400 W 18th St, Houston, TX 77092, USA", "end_location": {"lat": 29.8019199, "lng": -95.45428179999999}, "start_address": "4803 Brinkman St, Houston, TX 77018, USA", "start_location": {"lat": 29.83634409999999, "lng": -95.4169782}, "steps": [{"distance": {"text": "0.4 mi", "value": 688}, "duration": {"text": "8 mins", "value": 496}, "end_location": {"lat": 29.8373734, "lng": -95.4109584}, "html_instructions": "Walk to N Shepherd Dr @ Janisch Rd", "polyline": {"points": "clbuDbckeQ?m@COAEECIAM?MA?s@qBFG??OCoBEkIEgMAgDO?"}, "start_location": {"lat": 29.83634409999999, "lng": -95.4169782}, "steps": [{"distance": {"text": "177 ft", "value": 54}, "duration": {"text": "1 min", "value": 38}, "end_location": {"lat": 29.8365935, "lng": -95.41660449999999}, "html_instructions": "Head <b>east</b> toward <b>Candlelight Ln</b>", "polyline": {"points": "clbuDbckeQ?m@COAEECIAM?MA"}, "start_location": {"lat": 29.83634409999999, "lng": -95.4169782}, "travel_mode": "WALKING"}, {"distance": {"text": "95 ft", "value": 29}, "duration": {"text": "1 min", "value": 23}, "end_location": {"lat": 29.836593, "lng": -95.41634309999999}, "html_instructions": "Turn <b>right</b> onto <b>Candlelight Ln</b>", "maneuver": "turn-right", "polyline": {"points": "umbuDv`keQ?s@"}, "start_location": {"lat": 29.8365935, "lng": -95.41660449999999}, "travel_mode": "WALKING"}, {"distance": {"text": "223 ft", "value": 68}, "duration": {"text": "1 min", "value": 48}, "end_location": {"lat": 29.8372027, "lng": -95.4162985}, "html_instructions": "Turn <b>left</b> onto <b>Brinkman St</b>", "maneuver": "turn-left", "polyline": {"points": "umbuDb_keQqBFG??O"}, "start_location": {"lat": 29.836593, "lng": -95.41634309999999}, "travel_mode": "WALKING"}, {"distance": {"text": "0.3 mi", "value": 524}, "duration": {"text": "6 mins", "value": 378}, "end_location": {"lat": 29.8372948, "lng": -95.41095709999999}, "html_instructions": "Turn <b>right</b> onto <b>Janisch Rd</b>", "maneuver": "turn-right", "polyline": {"points": "oqbuDz~jeQCoBEkIEgMAgD"}, "start_location": {"lat": 29.8372027, "lng": -95.4162985}, "travel_mode": "WALKING"}, {"distance": {"text": "43 ft", "value": 13}, "duration": {"text": "1 min", "value": 9}, "end_location": {"lat": 29.8373734, "lng": -95.4109584}, "html_instructions": "Turn <b>left</b> onto <b>N Shepherd Dr</b>", "maneuver": "turn-left", "polyline": {"points": "arbuDn}ieQO?"}, "start_location": {"lat": 29.8372948, "lng": -95.41095709999999}, "travel_mode": "WALKING"}], "travel_mode": "WALKING"}, {"distance": {"text": "3.3 mi", "value": 5377}, "duration": {"text": "13 mins", "value": 789}, "end_location": {"lat": 29.803195, "lng": -95.38754999999999}, "html_instructions": "Bus towards Downtown", "polyline": {"points": "qrbuDr}ieQ?MTAlA?^AbCAhAAxAApAAT?nAA~B?pCCnA?dCCz@A`@AP?hAAX?t@?rAAVAF?l@?D?zAAZ?v@AN?h@?bBAbCEP??]C}DAe@?k@Ku@M_AACMe@Sw@Qo@Oo@Mk@Ou@Ea@Gq@CqCAw@?aA?m@?a@AeB?W?S?w@C}B?w@?q@?G?sBC}DAsAAe@A{B?[CYAe@CgAUuDGgACi@jAe@VMhCcA`@QjBs@bAa@x@]BATINIpAm@|@a@lCmAzAu@f@Wx@Y`@Oh@M`Bc@ZIbDy@lCq@VGh@Ov@SbAY~Ac@BA`AWt@QnBg@|@WlAYTGlCs@VIHCBCPE\\KZIj@O^IhBe@\\IBABATEx@U^Ir@S@?@?z@WVIdBc@NErBg@^IhCq@XGnA]hA[JCnCs@TGf@MzBm@pCu@RGbD{@`AUTG\\KjCs@b@Kp@Qt@Qv@Uv@SnA[PGRGRERAb@IJQFI\\W`Au@FL"}, "start_location": {"lat": 29.837373, "lng": -95.410983}, "transit_details": {"arrival_stop": {"location": {"lat": 29.803195, "lng": -95.38754999999999}, "name": "N Main St @ Kern St"}, "arrival_time": {"text": "4:15pm", "time_zone": "America/Chicago", "value": 1642025743}, "departure_stop": {"location": {"lat": 29.837373, "lng": -95.410983}, "name": "N Shepherd Dr @ Janisch Rd"}, "departure_time": {"text": "4:02pm", "time_zone": "America/Chicago", "value": 1642024954}, "headsign": "Downtown", "line": {"agencies": [{"name": "Metropolitan Transit Authority of Harris County", "phone": "1 (713) 635-4000", "url": "http://www.ridemetro.org/"}], "color": "#004080", "name": "Acres Homes", "short_name": "44", "text_color": "#ffffff", "url": "https://www.ridemetro.org/MetroPDFs/Schedules/BusSchedules/n044-Acres-Homes.pdf", "vehicle": {"icon": "//maps.gstatic.com/mapfiles/transit/iw2/6/bus2.png", "name": "Bus", "type": "BUS"}}, "num_stops": 24, "trip_short_name": "ACRESHOM"}, "travel_mode": "TRANSIT"}, {"distance": {"text": "417 ft", "value": 127}, "duration": {"text": "2 mins", "value": 124}, "end_location": {"lat": 29.8040987, "lng": -95.3879358}, "html_instructions": "Walk to W Cavalcade St @ N Main St", "polyline": {"points": "c}{tD~jeeQ{@n@KHUPGHCDQ?UBOBC?O@DO?A"}, "start_location": {"lat": 29.803216, "lng": -95.3875158}, "steps": [{"distance": {"text": "377 ft", "value": 115}, "duration": {"text": "2 mins", "value": 105}, "end_location": {"lat": 29.8041286, "lng": -95.38803279999999}, "html_instructions": "Head <b>northwest</b> on <b>N Main St</b> toward <b>Studewood St</b>", "polyline": {"points": "c}{tD~jeeQ{@n@KHUPGHCDQ?UBOBC?O@"}, "start_location": {"lat": 29.803216, "lng": -95.3875158}, "travel_mode": "WALKING"}, {"distance": {"text": "39 ft", "value": 12}, "duration": {"text": "1 min", "value": 19}, "end_location": {"lat": 29.8040987, "lng": -95.3879358}, "html_instructions": "Turn <b>right</b> onto <b>W Cavalcade St</b>", "maneuver": "turn-right", "polyline": {"points": "yb|tDdneeQDO?A"}, "start_location": {"lat": 29.8041286, "lng": -95.38803279999999}, "travel_mode": "WALKING"}], "travel_mode": "WALKING"}, {"distance": {"text": "4.0 mi", "value": 6499}, "duration": {"text": "14 mins", "value": 864}, "end_location": {"lat": 29.80163, "lng": -95.454342}, "html_instructions": "Bus towards Memorial City", "polyline": {"points": "wb|tDpmeeQJBA@ETC\\Af@?P?P?LA`@@\\BpA?^@j@?H@tA?n@?b@@b@?X?P?V@`A?v@@dA?V?vA@T?lB@jB@tA?XB|E?~A@zB@nB?V?V@t@?L?R?L@R?N?f@?h@@|@?\\?d@?b@@n@?pA@|B?d@?`@@t@?T?pA@v@@rA?v@@bD@~@?nA@H?tB@^@dC?P?j@@x@?x@?t@@P?dA@|A?\\?^@dC@zB?xA?N@V?fA@`ABfE?tABtJ?pB@rA?r@?H?|@?jB?@?j@@h@AL?\\?J@f@?|B?h@?|@?n@?N?|G?J@tE?d@@dC?p@AL@J?V@P@H?B?D@F@HBH@JDPDLDLDHDJDJHLFHFHLL?@TVTVn@v@NRh@h@NPVX^f@BJBFBFf@v@P`@DZDVBT@F?D@F?H?P@P?X?N?F?j@@pAIpB@f@?V?fA?j@?V@h@AjA?h@@~@?b@@^Af@@d@?X?bA?jA?b@@nC?J?d@Aj@?v@?P@dB?jA?bC?`A?\\@dH?`D?dC@fE?jD?T@`F@vB?jD?vC?X?`E@V@zCAb@?fAAX@fB@fA?T@|B?l@A~A?x@?XAzB?`A?dB?l@?P?F?H@^?Z?@?H?@?Z?h@?f@?j@?^?t@@j@BnAAV@|@@fB?bBG?"}, "start_location": {"lat": 29.804119, "lng": -95.38793299999999}, "transit_details": {"arrival_stop": {"location": {"lat": 29.80163, "lng": -95.454342}, "name": "W 18th St @ Northwest Fwy"}, "arrival_time": {"text": "4:48pm", "time_zone": "America/Chicago", "value": 1642027720}, "departure_stop": {"location": {"lat": 29.804119, "lng": -95.38793299999999}, "name": "W Cavalcade St @ N Main St"}, "departure_time": {"text": "4:34pm", "time_zone": "America/Chicago", "value": 1642026856}, "headsign": "Memorial City", "line": {"agencies": [{"name": "Metropolitan Transit Authority of Harris County", "phone": "1 (713) 635-4000", "url": "http://www.ridemetro.org/"}], "color": "#004080", "name": "Long Point / Cavalcade", "short_name": "26", "text_color": "#ffffff", "url": "https://www.ridemetro.org/MetroPDFs/Schedules/BusSchedules/n026-Long-Point-Cavalcade.pdf", "vehicle": {"icon": "//maps.gstatic.com/mapfiles/transit/iw2/6/bus2.png", "name": "Bus", "type": "BUS"}}, "num_stops": 24, "trip_short_name": "LONGPOINT"}, "travel_mode": "TRANSIT"}, {"distance": {"text": "322 ft", "value": 98}, "duration": {"text": "1 min", "value": 77}, "end_location": {"lat": 29.8019199, "lng": -95.45428179999999}, "html_instructions": "Walk to 4400 W 18th St, Houston, TX 77092, USA", "polyline": {"points": "es{tDrlreQ?z@YEc@E?G@Q@a@"}, "start_location": {"lat": 29.8016264, "lng": -95.454342}, "steps": [{"distance": {"text": "95 ft", "value": 29}, "duration": {"text": "1 min", "value": 22}, "end_location": {"lat": 29.8016252, "lng": -95.45463819999999}, "html_instructions": "Head <b>west</b> on <b>W 18th St</b>/<wbr/><b>NW Mall</b>", "polyline": {"points": "es{tDrlreQ?z@"}, "start_location": {"lat": 29.8016264, "lng": -95.454342}, "travel_mode": "WALKING"}, {"distance": {"text": "131 ft", "value": 40}, "duration": {"text": "1 min", "value": 33}, "end_location": {"lat": 29.8019405, "lng": -95.4545788}, "html_instructions": "Turn <b>right</b><div style=\"font-size:0.9em\">Restricted usage road</div>", "maneuver": "turn-right", "polyline": {"points": "es{tDnnreQYEc@E"}, "start_location": {"lat": 29.8016252, "lng": -95.45463819999999}, "travel_mode": "WALKING"}, {"distance": {"text": "95 ft", "value": 29}, "duration": {"text": "1 min", "value": 22}, "end_location": {"lat": 29.8019199, "lng": -95.45428179999999}, "html_instructions": "Turn <b>right</b><div style=\"font-size:0.9em\">Restricted usage road</div><div style=\"font-size:0.9em\">Destination will be on the left</div>", "maneuver": "turn-right", "polyline": {"points": "cu{tDbnreQ?G@Q@a@"}, "start_location": {"lat": 29.8019405, "lng": -95.4545788}, "travel_mode": "WALKING"}], "travel_mode": "WALKING"}], "traffic_speed_entry": [], "via_waypoint": []}], "overview_polyline": {"points": "clbuDbckeQC}@GIWAMA?s@yBFC_CKsWAgDO??B?MbBAfIGvHCbLI`IG`KEtCEC{EAqAYuBu@qC]{AUwAGq@CqCAyBAmEGmREqGE_ACgAUuDKqBbBs@zIkDbBs@nCoAhFcCf@Wx@YjA]nLyCxKuCpGaBdD}@LGvBk@jD{@fFsAtO}DdQuEpPiEpEmAf@Mv@KR[~AmAFLCEgAx@]ZCDQ?e@FS@DQCAJBGVEdAArAFzDBzGF~OLd\\Lr^Lp[JtUDxZ@tH@lU@pEBv@F`@Rx@Zn@\\b@|DpE^f@BJFNf@v@P`@Jr@Fj@@fA@tCIpB@f@?~A?xDBlD@vL?rODve@BnZ@pG@rCAlCApG?lD@xC?hDDpE@jEG??z@YEc@E?GBs@"}, "summary": "", "warnings": ["Walking directions are in beta. Use caution \u2013 This route may be missing sidewalks or pedestrian paths."], "waypoint_order": []}, {"bounds": {"northeast": {"lat": 29.8373741, "lng": -95.4104636}, "southwest": {"lat": 29.8015904, "lng": -95.45463819999999}}, "copyrights": "Map data \u00a92022 Google", "legs": [{"arrival_time": {"text": "4:34pm", "time_zone": "America/Chicago", "value": 1642026897}, "departure_time": {"text": "3:51pm", "time_zone": "America/Chicago", "value": 1642024261}, "distance": {"text": "5.5 mi", "value": 8812}, "duration": {"text": "44 mins", "value": 2636}, "end_address": "4400 W 18th St, Houston, TX 77092, USA", "end_location": {"lat": 29.8019199, "lng": -95.45428179999999}, "start_address": "4803 Brinkman St, Houston, TX 77018, USA", "start_location": {"lat": 29.83634409999999, "lng": -95.4169782}, "steps": [{"distance": {"text": "0.4 mi", "value": 688}, "duration": {"text": "8 mins", "value": 496}, "end_location": {"lat": 29.8373734, "lng": -95.4109584}, "html_instructions": "Walk to N Shepherd Dr @ Janisch Rd", "polyline": {"points": "clbuDbckeQ?m@COAEECIAM?MA?s@qBFG??OCoBEkIEgMAgDO?"}, "start_location": {"lat": 29.83634409999999, "lng": -95.4169782}, "steps": [{"distance": {"text": "177 ft", "value": 54}, "duration": {"text": "1 min", "value": 38}, "end_location": {"lat": 29.8365935, "lng": -95.41660449999999}, "html_instructions": "Head <b>east</b> toward <b>Candlelight Ln</b>", "polyline": {"points": "clbuDbckeQ?m@COAEECIAM?MA"}, "start_location": {"lat": 29.83634409999999, "lng": -95.4169782}, "travel_mode": "WALKING"}, {"distance": {"text": "95 ft", "value": 29}, "duration": {"text": "1 min", "value": 23}, "end_location": {"lat": 29.836593, "lng": -95.41634309999999}, "html_instructions": "Turn <b>right</b> onto <b>Candlelight Ln</b>", "maneuver": "turn-right", "polyline": {"points": "umbuDv`keQ?s@"}, "start_location": {"lat": 29.8365935, "lng": -95.41660449999999}, "travel_mode": "WALKING"}, {"distance": {"text": "223 ft", "value": 68}, "duration": {"text": "1 min", "value": 48}, "end_location": {"lat": 29.8372027, "lng": -95.4162985}, "html_instructions": "Turn <b>left</b> onto <b>Brinkman St</b>", "maneuver": "turn-left", "polyline": {"points": "umbuDb_keQqBFG??O"}, "start_location": {"lat": 29.836593, "lng": -95.41634309999999}, "travel_mode": "WALKING"}, {"distance": {"text": "0.3 mi", "value": 524}, "duration": {"text": "6 mins", "value": 378}, "end_location": {"lat": 29.8372948, "lng": -95.41095709999999}, "html_instructions": "Turn <b>right</b> onto <b>Janisch Rd</b>", "maneuver": "turn-right", "polyline": {"points": "oqbuDz~jeQCoBEkIEgMAgD"}, "start_location": {"lat": 29.8372027, "lng": -95.4162985}, "travel_mode": "WALKING"}, {"distance": {"text": "43 ft", "value": 13}, "duration": {"text": "1 min", "value": 9}, "end_location": {"lat": 29.8373734, "lng": -95.4109584}, "html_instructions": "Turn <b>left</b> onto <b>N Shepherd Dr</b>", "maneuver": "turn-left", "polyline": {"points": "arbuDn}ieQO?"}, "start_location": {"lat": 29.8372948, "lng": -95.41095709999999}, "travel_mode": "WALKING"}], "travel_mode": "WALKING"}, {"distance": {"text": "2.3 mi", "value": 3771}, "duration": {"text": "9 mins", "value": 522}, "end_location": {"lat": 29.803965, "lng": -95.412369}, "html_instructions": "Bus towards TMC TC", "polyline": {"points": "qrbuDr}ieQ?MTAlA?^AbCAhAAxAApAAT?nAA~B?pCCnA?dCCz@A`@AP?hAAX?t@?rAAVAF?l@?D?zAAZ?v@AN?h@?bBAbCEP?hA?v@AfA?hBAzCAfAA~BCf@?|@?b@AvCCjA?zBCjB@pAC|@AvAAzAAfAAb@?lAApAAr@Av@AP@H?nBC`A?fBCj@?P?J@|@HD?h@H\\HLDPBDFb@PTJDB@@F@n@\\FDTJ^TJFj@Zz@d@HD^TB@\\PFDDBp@\\THFBVHNDB@RFNDh@HVBRBH@B?F?l@BH?h@?zAArA?XAdBAdBAbBAdA?`@?bBAfBAdAA\\?hAA\\?bBAt@?n@AX?jA?z@A@N"}, "start_location": {"lat": 29.837373, "lng": -95.410983}, "transit_details": {"arrival_stop": {"location": {"lat": 29.803965, "lng": -95.412369}, "name": "N Durham Dr @ W 20th St"}, "arrival_time": {"text": "4:08pm", "time_zone": "America/Chicago", "value": 1642025280}, "departure_stop": {"location": {"lat": 29.837373, "lng": -95.410983}, "name": "N Shepherd Dr @ Janisch Rd"}, "departure_time": {"text": "3:59pm", "time_zone": "America/Chicago", "value": 1642024758}, "headsign": "TMC TC", "line": {"agencies": [{"name": "Metropolitan Transit Authority of Harris County", "phone": "1 (713) 635-4000", "url": "http://www.ridemetro.org/"}], "color": "#004080", "name": "Shepherd", "short_name": "27", "text_color": "#ffffff", "url": "https://www.ridemetro.org/MetroPDFs/Schedules/BusSchedules/n027-Shepherd.pdf", "vehicle": {"icon": "//maps.gstatic.com/mapfiles/transit/iw2/6/bus2.png", "name": "Bus", "type": "BUS"}}, "num_stops": 13, "trip_short_name": "SHEPHERD"}, "travel_mode": "TRANSIT"}, {"distance": {"text": "207 ft", "value": 63}, "duration": {"text": "1 min", "value": 56}, "end_location": {"lat": 29.80381, "lng": -95.41185329999999}, "html_instructions": "Walk to W 20th St @ N Durham Dr", "polyline": {"points": "wa|tD`fjeQ^A?OAmA"}, "start_location": {"lat": 29.8039634, "lng": -95.4123288}, "steps": [{"distance": {"text": "72 ft", "value": 22}, "duration": {"text": "1 min", "value": 16}, "end_location": {"lat": 29.8038031, "lng": -95.412241}, "html_instructions": "Head <b>south</b> on <b>N Durham Dr</b> toward <b>W 20th St</b>", "polyline": {"points": "wa|tD`fjeQ^A?O"}, "start_location": {"lat": 29.8039634, "lng": -95.4123288}, "travel_mode": "WALKING"}, {"distance": {"text": "135 ft", "value": 41}, "duration": {"text": "1 min", "value": 40}, "end_location": {"lat": 29.80381, "lng": -95.41185329999999}, "html_instructions": "Turn <b>left</b> onto <b>W 20th St</b>", "maneuver": "turn-left", "polyline": {"points": "w`|tDnejeQAmA"}, "start_location": {"lat": 29.8038031, "lng": -95.412241}, "travel_mode": "WALKING"}], "travel_mode": "WALKING"}, {"distance": {"text": "2.6 mi", "value": 4192}, "duration": {"text": "9 mins", "value": 559}, "end_location": {"lat": 29.80163, "lng": -95.454342}, "html_instructions": "Bus towards Memorial City", "polyline": {"points": "_a|tD`cjeQL??tABtJ?pB@rA?r@?H?|@?jB?@?j@@h@AL?\\?J@f@?|B?h@?|@?n@?N?|G?J@tE?d@@dC?p@AL@J?V@P@H?B?D@F@HBH@JDPDLDLDHDJDJHLFHFHLL?@TVTVn@v@NRh@h@NPVX^f@BJBFBFf@v@P`@DZDVBT@F?D@F?H?P@P?X?N?F?j@@pAIpB@f@?V?fA?j@?V@h@AjA?h@@~@?b@@^Af@@d@?X?bA?jA?b@@nC?J?d@Aj@?v@?P@dB?jA?bC?`A?\\@dH?`D?dC@fE?jD?T@`F@vB?jD?vC?X?`E@V@zCAb@?fAAX@fB@fA?T@|B?l@A~A?x@?XAzB?`A?dB?l@?P?F?H@^?Z?@?H?@?Z?h@?f@?j@?^?t@@j@BnAAV@|@@fB?bBG?"}, "start_location": {"lat": 29.803836, "lng": -95.41185399999999}, "transit_details": {"arrival_stop": {"location": {"lat": 29.80163, "lng": -95.454342}, "name": "W 18th St @ Northwest Fwy"}, "arrival_time": {"text": "4:33pm", "time_zone": "America/Chicago", "value": 1642026820}, "departure_stop": {"location": {"lat": 29.803836, "lng": -95.41185399999999}, "name": "W 20th St @ N Durham Dr"}, "departure_time": {"text": "4:24pm", "time_zone": "America/Chicago", "value": 1642026261}, "headsign": "Memorial City", "line": {"agencies": [{"name": "Metropolitan Transit Authority of Harris County", "phone": "1 (713) 635-4000", "url": "http://www.ridemetro.org/"}], "color": "#004080", "name": "Long Point / Cavalcade", "short_name": "26", "text_color": "#ffffff", "url": "https://www.ridemetro.org/MetroPDFs/Schedules/BusSchedules/n026-Long-Point-Cavalcade.pdf", "vehicle": {"icon": "//maps.gstatic.com/mapfiles/transit/iw2/6/bus2.png", "name": "Bus", "type": "BUS"}}, "num_stops": 13, "trip_short_name": "LONGPOINT"}, "travel_mode": "TRANSIT"}, {"distance": {"text": "322 ft", "value": 98}, "duration": {"text": "1 min", "value": 77}, "end_location": {"lat": 29.8019199, "lng": -95.45428179999999}, "html_instructions": "Walk to 4400 W 18th St, Houston, TX 77092, USA", "polyline": {"points": "es{tDrlreQ?z@YEc@E?G@Q@a@"}, "start_location": {"lat": 29.8016264, "lng": -95.454342}, "steps": [{"distance": {"text": "95 ft", "value": 29}, "duration": {"text": "1 min", "value": 22}, "end_location": {"lat": 29.8016252, "lng": -95.45463819999999}, "html_instructions": "Head <b>west</b> on <b>W 18th St</b>/<wbr/><b>NW Mall</b>", "polyline": {"points": "es{tDrlreQ?z@"}, "start_location": {"lat": 29.8016264, "lng": -95.454342}, "travel_mode": "WALKING"}, {"distance": {"text": "131 ft", "value": 40}, "duration": {"text": "1 min", "value": 33}, "end_location": {"lat": 29.8019405, "lng": -95.4545788}, "html_instructions": "Turn <b>right</b><div style=\"font-size:0.9em\">Restricted usage road</div>", "maneuver": "turn-right", "polyline": {"points": "es{tDnnreQYEc@E"}, "start_location": {"lat": 29.8016252, "lng": -95.45463819999999}, "travel_mode": "WALKING"}, {"distance": {"text": "95 ft", "value": 29}, "duration": {"text": "1 min", "value": 22}, "end_location": {"lat": 29.8019199, "lng": -95.45428179999999}, "html_instructions": "Turn <b>right</b><div style=\"font-size:0.9em\">Restricted usage road</div><div style=\"font-size:0.9em\">Destination will be on the left</div>", "maneuver": "turn-right", "polyline": {"points": "cu{tDbnreQ?G@Q@a@"}, "start_location": {"lat": 29.8019405, "lng": -95.4545788}, "travel_mode": "WALKING"}], "travel_mode": "WALKING"}], "traffic_speed_entry": [], "via_waypoint": []}], "overview_polyline": {"points": "clbuDbckeQC}@GIWAMA?s@yBFC_CKsWAgDO??B?MbBAfIGvHCbLI`IG`KEvGGtKEhGEjMEnQOlMI\\@bAHfB\\dAh@`Af@rEfC`Bz@dA\\VHx@Nx@HhBB`RIpPIpEC@N?G^A?OAmAE?L??tABfN@fC?tD?`C@vRBpNBd@Hf@Vv@\\n@`CtCx@z@v@`AFRj@~@V|@Hl@B^@lA?r@@pAIpB@~@?rB@`AAtB@jD@nE@`MBda@BzO?~OBrDAjB@~E@jDAxCA|H@xC@|GDlG?bBG??z@}@K@Y@a@"}, "summary": "", "warnings": ["Walking directions are in beta. Use caution \u2013 This route may be missing sidewalks or pedestrian paths."], "waypoint_order": []}, {"bounds": {"northeast": {"lat": 29.8412702, "lng": -95.416257}, "southwest": {"lat": 29.8015904, "lng": -95.45463819999999}}, "copyrights": "Map data \u00a92022 Google", "legs": [{"arrival_time": {"text": "4:34pm", "time_zone": "America/Chicago", "value": 1642026897}, "departure_time": {"text": "3:54pm", "time_zone": "America/Chicago", "value": 1642024466}, "distance": {"text": "5.5 mi", "value": 8819}, "duration": {"text": "41 mins", "value": 2431}, "end_address": "4400 W 18th St, Houston, TX 77092, USA", "end_location": {"lat": 29.8019199, "lng": -95.45428179999999}, "start_address": "4803 Brinkman St, Houston, TX 77018, USA", "start_location": {"lat": 29.83634409999999, "lng": -95.4169782}, "steps": [{"distance": {"text": "0.4 mi", "value": 606}, "duration": {"text": "8 mins", "value": 460}, "end_location": {"lat": 29.8411487, "lng": -95.4162662}, "html_instructions": "Walk to Pinemont Dr @ Brinkman St", "polyline": {"points": "clbuDbckeQ?m@COAEECIAM??u@?OG?qBDM@kBDw@@uCAO?uGFuC@O@O??W"}, "start_location": {"lat": 29.83634409999999, "lng": -95.4169782}, "steps": [{"distance": {"text": "177 ft", "value": 54}, "duration": {"text": "1 min", "value": 38}, "end_location": {"lat": 29.8365215, "lng": -95.4166064}, "html_instructions": "Head <b>east</b> toward <b>Candlelight Ln</b>", "polyline": {"points": "clbuDbckeQ?m@COAEECIAM?"}, "start_location": {"lat": 29.83634409999999, "lng": -95.4169782}, "travel_mode": "WALKING"}, {"distance": {"text": "95 ft", "value": 29}, "duration": {"text": "1 min", "value": 22}, "end_location": {"lat": 29.8365589, "lng": -95.41625789999999}, "html_instructions": "Turn <b>right</b> onto <b>Candlelight Ln</b>", "maneuver": "turn-right", "polyline": {"points": "gmbuDx`keQ?u@?OG?"}, "start_location": {"lat": 29.8365215, "lng": -95.4166064}, "travel_mode": "WALKING"}, {"distance": {"text": "0.3 mi", "value": 507}, "duration": {"text": "6 mins", "value": 379}, "end_location": {"lat": 29.8411482, "lng": -95.41638689999999}, "html_instructions": "Turn <b>left</b> onto <b>Brinkman St</b>", "maneuver": "turn-left", "polyline": {"points": "ombuDr~jeQqBDM@kBDw@@uCAO?uGFuC@O@O?"}, "start_location": {"lat": 29.8365589, "lng": -95.41625789999999}, "travel_mode": "WALKING"}, {"distance": {"text": "52 ft", "value": 16}, "duration": {"text": "1 min", "value": 21}, "end_location": {"lat": 29.8411487, "lng": -95.4162662}, "html_instructions": "Turn <b>right</b> onto <b>Pinemont Dr</b>", "maneuver": "turn-right", "polyline": {"points": "ejcuDl_keQ?W"}, "start_location": {"lat": 29.8411482, "lng": -95.41638689999999}, "travel_mode": "WALKING"}], "travel_mode": "WALKING"}, {"distance": {"text": "0.7 mi", "value": 1202}, "duration": {"text": "2 mins", "value": 135}, "end_location": {"lat": 29.84109, "lng": -95.42865499999999}, "html_instructions": "Bus towards Hempstead Hwy", "polyline": {"points": "_jcuDt~jeQ@??^@nC@nC@T?bE?P@F?`A?P?lB?L?V?J?VBlA?jA?j@?b@@\\?H@dB?R?H@dA?\\?\\?N@~D?V?T?n@?jB@t@@t@?jB?H?d@@`C?t@@`BAh@Cd@GhAI?"}, "start_location": {"lat": 29.841116, "lng": -95.416266}, "transit_details": {"arrival_stop": {"location": {"lat": 29.84109, "lng": -95.42865499999999}, "name": "Pinemont Dr @ Wheatley St"}, "arrival_time": {"text": "4:04pm", "time_zone": "America/Chicago", "value": 1642025061}, "departure_stop": {"location": {"lat": 29.841116, "lng": -95.416266}, "name": "Pinemont Dr @ Brinkman St"}, "departure_time": {"text": "4:02pm", "time_zone": "America/Chicago", "value": 1642024926}, "headsign": "Hempstead Hwy", "line": {"agencies": [{"name": "Metropolitan Transit Authority of Harris County", "phone": "1 (713) 635-4000", "url": "http://www.ridemetro.org/"}], "color": "#004080", "name": "Tidwell", "short_name": "45", "text_color": "#ffffff", "url": "https://www.ridemetro.org/MetroPDFs/Schedules/BusSchedules/n045-W-Tidwell.pdf", "vehicle": {"icon": "//maps.gstatic.com/mapfiles/transit/iw2/6/bus2.png", "name": "Bus", "type": "BUS"}}, "num_stops": 5, "trip_short_name": "TIDWELL"}, "travel_mode": "TRANSIT"}, {"distance": {"text": "154 ft", "value": 47}, "duration": {"text": "1 min", "value": 54}, "end_location": {"lat": 29.8412701, "lng": -95.4289594}, "html_instructions": "Walk to Wheatley St @ Pinemont Dr", "polyline": {"points": "wicuDblmeQ?JAPALAN_@?"}, "start_location": {"lat": 29.8410755, "lng": -95.4286571}, "steps": [{"distance": {"text": "82 ft", "value": 25}, "duration": {"text": "1 min", "value": 28}, "end_location": {"lat": 29.841114, "lng": -95.4289587}, "html_instructions": "Head <b>west</b> on <b>Pinemont Dr</b> toward <b>Ella Blvd</b>", "polyline": {"points": "wicuDblmeQ?JAPALAN"}, "start_location": {"lat": 29.8410755, "lng": -95.4286571}, "travel_mode": "WALKING"}, {"distance": {"text": "72 ft", "value": 22}, "duration": {"text": "1 min", "value": 26}, "end_location": {"lat": 29.8412701, "lng": -95.4289594}, "html_instructions": "Turn <b>right</b> onto <b>Ella Blvd</b>", "maneuver": "turn-right", "polyline": {"points": "}icuD~mmeQ_@?"}, "start_location": {"lat": 29.841114, "lng": -95.4289587}, "travel_mode": "WALKING"}], "travel_mode": "WALKING"}, {"distance": {"text": "2.7 mi", "value": 4335}, "duration": {"text": "12 mins", "value": 696}, "end_location": {"lat": 29.802773, "lng": -95.42999999999999}, "html_instructions": "Bus towards Clinton Park", "polyline": {"points": "}jcuD`nmeQ?If@?P?d@?zB?~ABh@@r@HPBNBJBPF^NjBv@PFFBJDh@NXHv@LH@RBZ@j@@`@?|@@lCCV?vAAjAApC?R?bDCvAAn@?Z?fDAhCAV?dDA|AAdA?\\A`@?f@?d@?`AAJ?R?n@At@?dAAZ?dDAzAAb@?L?T?~FCrBCr@?R?dD?`DCp@?j@AN?zA?vAAhA@Z@L?P?b@@X?n@@t@?RAdBAB?L?H?FGBAB?D?\\?F??FF@`@Cd@Al@C`AGfAEx@AL@zAA^?bA?P?D?^?N?L?l@?P?d@AV?p@?l@?z@?JAX?x@?R?N?RAb@?x@ChACx@?T?X?X?V?bAAhACZ?h@?pBARAl@Ab@?xBCfCCj@?T?NAN?B?@?|AAJC|@@F?`@AhBAV?T?P?J@DCJCN?N??L`@FRDNF^LXLRH~@b@VJd@NLDLBCJ"}, "start_location": {"lat": 29.84127, "lng": -95.42896999999999}, "transit_details": {"arrival_stop": {"location": {"lat": 29.802773, "lng": -95.42999999999999}, "name": "Ella Blvd @ W TC Jester Blvd"}, "arrival_time": {"text": "4:24pm", "time_zone": "America/Chicago", "value": 1642026276}, "departure_stop": {"location": {"lat": 29.84127, "lng": -95.42896999999999}, "name": "Wheatley St @ Pinemont Dr"}, "departure_time": {"text": "4:13pm", "time_zone": "America/Chicago", "value": 1642025580}, "headsign": "Clinton Park", "line": {"agencies": [{"name": "Metropolitan Transit Authority of Harris County", "phone": "1 (713) 635-4000", "url": "http://www.ridemetro.org/"}], "color": "#004080", "name": "Clinton / Ella", "short_name": "30", "text_color": "#ffffff", "url": "https://www.ridemetro.org/MetroPDFs/Schedules/BusSchedules/n030-Clinton-Ella.pdf", "vehicle": {"icon": "//maps.gstatic.com/mapfiles/transit/iw2/6/bus2.png", "name": "Bus", "type": "BUS"}}, "num_stops": 17, "trip_short_name": "ELLACLIN"}, "travel_mode": "TRANSIT"}, {"distance": {"text": "499 ft", "value": 152}, "duration": {"text": "3 mins", "value": 156}, "end_location": {"lat": 29.801746, "lng": -95.42979059999999}, "html_instructions": "Walk to W 18th St @ Ella Blvd", "polyline": {"points": "kz{tDjtmeQPDLDRBNBVDF@R@PBF?d@@V@?Q?M?OA["}, "start_location": {"lat": 29.8027751, "lng": -95.42997869999999}, "steps": [{"distance": {"text": "394 ft", "value": 120}, "duration": {"text": "2 mins", "value": 112}, "end_location": {"lat": 29.8017409, "lng": -95.43008309999999}, "html_instructions": "Head <b>south</b> on <b>Ella Blvd</b> toward <b>T C Jester Blvd</b><div style=\"font-size:0.9em\">Pass by Jack in the Box (on the left in 322&nbsp;ft)</div>", "polyline": {"points": "kz{tDjtmeQPDLDRBNBVDF@R@PBF?d@@V@?Q"}, "start_location": {"lat": 29.8027751, "lng": -95.42997869999999}, "travel_mode": "WALKING"}, {"distance": {"text": "105 ft", "value": 32}, "duration": {"text": "1 min", "value": 44}, "end_location": {"lat": 29.801746, "lng": -95.42979059999999}, "html_instructions": "Turn <b>left</b> onto <b>W 18th St</b>", "maneuver": "turn-left", "polyline": {"points": "{s{tD~tmeQ?M?OA["}, "start_location": {"lat": 29.8017409, "lng": -95.43008309999999}, "travel_mode": "WALKING"}], "travel_mode": "WALKING"}, {"distance": {"text": "1.5 mi", "value": 2379}, "duration": {"text": "5 mins", "value": 317}, "end_location": {"lat": 29.80163, "lng": -95.454342}, "html_instructions": "Bus towards Memorial City", "polyline": {"points": "_t{tDdsmeQH??b@@^Af@@d@?X?bA?jA?b@@nC?J?d@Aj@?v@?P@dB?jA?bC?`A?\\@dH?`D?dC@fE?jD?T@`F@vB?jD?vC?X?`E@V@zCAb@?fAAX@fB@fA?T@|B?l@A~A?x@?XAzB?`A?dB?l@?P?F?H@^?Z?@?H?@?Z?h@?f@?j@?^?t@@j@BnAAV@|@@fB?bBG?"}, "start_location": {"lat": 29.80176, "lng": -95.429791}, "transit_details": {"arrival_stop": {"location": {"lat": 29.80163, "lng": -95.454342}, "name": "W 18th St @ Northwest Fwy"}, "arrival_time": {"text": "4:33pm", "time_zone": "America/Chicago", "value": 1642026820}, "departure_stop": {"location": {"lat": 29.80176, "lng": -95.429791}, "name": "W 18th St @ Ella Blvd"}, "departure_time": {"text": "4:28pm", "time_zone": "America/Chicago", "value": 1642026503}, "headsign": "Memorial City", "line": {"agencies": [{"name": "Metropolitan Transit Authority of Harris County", "phone": "1 (713) 635-4000", "url": "http://www.ridemetro.org/"}], "color": "#004080", "name": "Long Point / Cavalcade", "short_name": "26", "text_color": "#ffffff", "url": "https://www.ridemetro.org/MetroPDFs/Schedules/BusSchedules/n026-Long-Point-Cavalcade.pdf", "vehicle": {"icon": "//maps.gstatic.com/mapfiles/transit/iw2/6/bus2.png", "name": "Bus", "type": "BUS"}}, "num_stops": 6, "trip_short_name": "LONGPOINT"}, "travel_mode": "TRANSIT"}, {"distance": {"text": "322 ft", "value": 98}, "duration": {"text": "1 min", "value": 77}, "end_location": {"lat": 29.8019199, "lng": -95.45428179999999}, "html_instructions": "Walk to 4400 W 18th St, Houston, TX 77092, USA", "polyline": {"points": "es{tDrlreQ?z@YEc@E?G@Q@a@"}, "start_location": {"lat": 29.8016264, "lng": -95.454342}, "steps": [{"distance": {"text": "95 ft", "value": 29}, "duration": {"text": "1 min", "value": 22}, "end_location": {"lat": 29.8016252, "lng": -95.45463819999999}, "html_instructions": "Head <b>west</b> on <b>W 18th St</b>/<wbr/><b>NW Mall</b>", "polyline": {"points": "es{tDrlreQ?z@"}, "start_location": {"lat": 29.8016264, "lng": -95.454342}, "travel_mode": "WALKING"}, {"distance": {"text": "131 ft", "value": 40}, "duration": {"text": "1 min", "value": 33}, "end_location": {"lat": 29.8019405, "lng": -95.4545788}, "html_instructions": "Turn <b>right</b><div style=\"font-size:0.9em\">Restricted usage road</div>", "maneuver": "turn-right", "polyline": {"points": "es{tDnnreQYEc@E"}, "start_location": {"lat": 29.8016252, "lng": -95.45463819999999}, "travel_mode": "WALKING"}, {"distance": {"text": "95 ft", "value": 29}, "duration": {"text": "1 min", "value": 22}, "end_location": {"lat": 29.8019199, "lng": -95.45428179999999}, "html_instructions": "Turn <b>right</b><div style=\"font-size:0.9em\">Restricted usage road</div><div style=\"font-size:0.9em\">Destination will be on the left</div>", "maneuver": "turn-right", "polyline": {"points": "cu{tDbnreQ?G@Q@a@"}, "start_location": {"lat": 29.8019405, "lng": -95.4545788}, "travel_mode": "WALKING"}], "travel_mode": "WALKING"}], "traffic_speed_entry": [], "via_waypoint": []}], "overview_polyline": {"points": "clbuDbckeQC}@GIWA?eAsFLmE?eHFeDBO??WF?@nDBzJ@hEBrHDnGBlNBtOKnBG?Ez@_@@?If@?v@?zEB|AJ`@F\\JjCfAnA`@pAV\\DfAB~A@hIG~WI~\\M~QIdLElG?~ABrC?`CAJIH?d@??FF@fAEnBK`CGhB?zB?lFA`GC`FG`B?jLKhJIhBEdA@xDCP?PAZCN??Lt@Ln@TdCfAr@TLBCJACPD`@HbALvAFAkAF?@bA?jD@jG?rODve@BnZ@pG@rCAlCApG?lD@xC?hDDpE@jEG??z@YEc@E?GBs@"}, "summary": "", "warnings": ["Walking directions are in beta. Use caution \u2013 This route may be missing sidewalks or pedestrian paths."], "waypoint_order": []}], "status": "OK"}